$GPZDA,183531.00,23,12,2007,00,00*6C
$GPGGA,183530.00,2037.76012,N,08704.07373,W,1,03,2.2,072.35,M,-13.9,M,,*6B
{"class":"SKY","hdop":2.20,"uSat":3}
$GPGSA,A,2,02,10,28,,,,,,,,,,02.2,02.2,*14
{"class":"SKY","hdop":2.20,"pdop":2.20,"uSat":3}
$GPGSV,3,1,10,28,38,139,46,10,17,193,50,02,55,274,50,04,61,358,*70
$GPGSV,3,2,10,17,38,054,,09,21,281,,12,10,322,,20,03,038,*7F
$GPGSV,3,3,10,33,08,096,,35,45,118,*70
{"class":"SKY","hdop":2.20,"pdop":2.20,"nSat":10,"uSat":3,"satellites":[{"PRN":28,"gnssid":0,"svid":28,"az":139.0,"el":38.0,"ss":46.0,"used":true},{"PRN":10,"gnssid":0,"svid":10,"az":193.0,"el":17.0,"ss":50.0,"used":true},{"PRN":2,"gnssid":0,"svid":2,"az":274.0,"el":55.0,"ss":50.0,"used":true},{"PRN":4,"gnssid":0,"svid":4,"az":358.0,"el":61.0,"ss":0.0,"used":false},{"PRN":17,"gnssid":0,"svid":17,"az":54.0,"el":38.0,"ss":0.0,"used":false},{"PRN":9,"gnssid":0,"svid":9,"az":281.0,"el":21.0,"ss":0.0,"used":false},{"PRN":12,"gnssid":0,"svid":12,"az":322.0,"el":10.0,"ss":0.0,"used":false},{"PRN":20,"gnssid":0,"svid":20,"az":38.0,"el":3.0,"ss":0.0,"used":false},{"PRN":33,"gnssid":1,"svid":120,"az":96.0,"el":8.0,"ss":0.0,"used":false},{"PRN":35,"gnssid":1,"svid":122,"az":118.0,"el":45.0,"ss":0.0,"used":false}]}
$PASHR,POS,0,03,183530.00,2037.76012,N,08704.07373,W,058.48,,359.4,000.0,+000.0,2.2,2.2,0.0,1.0,BQ00*20
{"class":"SKY","hdop":2.20,"pdop":2.20,"tdop":1.00,"vdop":0.00,"uSat":3}
$GPRMC,183530.00,A,2037.7601,N,08704.0737,W,00.0,359.4,231207,01,W,A*26
$PASHR,SAT,03,28,139,38,46,U,10,193,17,50,U,02,274,55,50,U*53
{"class":"SKY","hdop":2.20,"pdop":2.20,"tdop":1.00,"vdop":0.00,"nSat":3,"uSat":3,"satellites":[{"PRN":28,"gnssid":0,"svid":28,"az":139.0,"el":38.0,"ss":46.0,"used":true},{"PRN":10,"gnssid":0,"svid":10,"az":193.0,"el":17.0,"ss":50.0,"used":true},{"PRN":2,"gnssid":0,"svid":2,"az":274.0,"el":55.0,"ss":50.0,"used":true}]}
$PASHR,XMG,12,Solution valid*4A
$GPZDA,183532.00,23,12,2007,00,00*6F
{"class":"TPV","mode":0,"time":"2007-12-23T18:35:32.000Z","ept":0.005}
{"class":"SKY","uSat":3}
$GPGGA,183531.00,2037.76011,N,08704.07369,W,1,03,2.2,072.35,M,-13.9,M,,*62
{"class":"SKY","hdop":2.20,"uSat":3}
$GPGSA,A,2,02,10,28,,,,,,,,,,02.2,02.2,*14
{"class":"SKY","hdop":2.20,"pdop":2.20,"uSat":3}
$GPGSV,3,1,10,28,38,139,46,10,17,193,50,02,55,274,50,04,61,358,*70
$GPGSV,3,2,10,17,38,054,,09,21,281,,12,10,322,,20,03,038,*7F
$GPGSV,3,3,10,33,08,096,,35,45,118,*70
{"class":"SKY","hdop":2.20,"pdop":2.20,"nSat":10,"uSat":3,"satellites":[{"PRN":28,"gnssid":0,"svid":28,"az":139.0,"el":38.0,"ss":46.0,"used":true},{"PRN":10,"gnssid":0,"svid":10,"az":193.0,"el":17.0,"ss":50.0,"used":true},{"PRN":2,"gnssid":0,"svid":2,"az":274.0,"el":55.0,"ss":50.0,"used":true},{"PRN":4,"gnssid":0,"svid":4,"az":358.0,"el":61.0,"ss":0.0,"used":false},{"PRN":17,"gnssid":0,"svid":17,"az":54.0,"el":38.0,"ss":0.0,"used":false},{"PRN":9,"gnssid":0,"svid":9,"az":281.0,"el":21.0,"ss":0.0,"used":false},{"PRN":12,"gnssid":0,"svid":12,"az":322.0,"el":10.0,"ss":0.0,"used":false},{"PRN":20,"gnssid":0,"svid":20,"az":38.0,"el":3.0,"ss":0.0,"used":false},{"PRN":33,"gnssid":1,"svid":120,"az":96.0,"el":8.0,"ss":0.0,"used":false},{"PRN":35,"gnssid":1,"svid":122,"az":118.0,"el":45.0,"ss":0.0,"used":false}]}
$PASHR,POS,0,03,183531.00,2037.76011,N,08704.07369,W,058.48,,359.4,000.0,+000.0,2.2,2.2,0.0,1.0,BQ00*29
{"class":"SKY","hdop":2.20,"pdop":2.20,"tdop":1.00,"vdop":0.00,"uSat":3}
$GPRMC,183531.00,A,2037.7601,N,08704.0737,W,00.0,359.4,231207,01,W,A*27
{"class":"TPV","mode":3,"time":"2007-12-23T18:35:31.000Z","ept":0.005,"lat":20.629335000,"lon":-87.067895000,"altHAE":58.4800,"altMSL":73.4920,"alt":73.4920,"epv":0.000,"track":359.4000,"magtrack":357.4077,"magvar":-1.0,"speed":0.000,"climb":0.000,"geoidSep":-15.012,"eph":41.800,"sep":41.800}
{"class":"SKY","hdop":2.20,"pdop":2.20,"tdop":1.00,"vdop":0.00,"uSat":3}
$PASHR,SAT,03,28,139,38,46,U,10,193,17,50,U,02,274,55,50,U*53
{"class":"TPV","mode":3,"time":"2007-12-23T18:35:31.000Z","ept":0.005,"lat":20.629335000,"lon":-87.067895000,"altHAE":58.4800,"altMSL":73.4920,"alt":73.4920,"epv":0.000,"track":359.4000,"magtrack":357.4077,"magvar":-1.0,"speed":0.000,"climb":0.000,"geoidSep":-15.012,"eph":41.800,"sep":41.800}
{"class":"SKY","hdop":2.20,"pdop":2.20,"tdop":1.00,"vdop":0.00,"nSat":3,"uSat":3,"satellites":[{"PRN":28,"gnssid":0,"svid":28,"az":139.0,"el":38.0,"ss":46.0,"used":true},{"PRN":10,"gnssid":0,"svid":10,"az":193.0,"el":17.0,"ss":50.0,"used":true},{"PRN":2,"gnssid":0,"svid":2,"az":274.0,"el":55.0,"ss":50.0,"used":true}]}
$PASHR,XMG,12,Solution valid*4A
$GPZDA,183533.00,23,12,2007,00,00*6E
{"class":"TPV","mode":0,"time":"2007-12-23T18:35:33.000Z","ept":0.005}
$GPGGA,183532.00,2037.76010,N,08704.07366,W,1,03,2.2,072.35,M,-13.9,M,,*6F
{"class":"SKY","hdop":2.20,"uSat":3}
$GPGSA,A,2,02,10,28,,,,,,,,,,02.2,02.2,*14
{"class":"SKY","hdop":2.20,"pdop":2.20,"uSat":3}
$GPGSV,3,1,10,28,38,139,46,10,17,193,49,02,55,274,50,04,61,358,*78
$GPGSV,3,2,10,17,38,054,,09,21,281,,12,10,322,,20,03,038,*7F
$GPGSV,3,3,10,33,08,096,,35,45,118,*70
{"class":"SKY","hdop":2.20,"pdop":2.20,"nSat":10,"uSat":3,"satellites":[{"PRN":28,"gnssid":0,"svid":28,"az":139.0,"el":38.0,"ss":46.0,"used":true},{"PRN":10,"gnssid":0,"svid":10,"az":193.0,"el":17.0,"ss":49.0,"used":true},{"PRN":2,"gnssid":0,"svid":2,"az":274.0,"el":55.0,"ss":50.0,"used":true},{"PRN":4,"gnssid":0,"svid":4,"az":358.0,"el":61.0,"ss":0.0,"used":false},{"PRN":17,"gnssid":0,"svid":17,"az":54.0,"el":38.0,"ss":0.0,"used":false},{"PRN":9,"gnssid":0,"svid":9,"az":281.0,"el":21.0,"ss":0.0,"used":false},{"PRN":12,"gnssid":0,"svid":12,"az":322.0,"el":10.0,"ss":0.0,"used":false},{"PRN":20,"gnssid":0,"svid":20,"az":38.0,"el":3.0,"ss":0.0,"used":false},{"PRN":33,"gnssid":1,"svid":120,"az":96.0,"el":8.0,"ss":0.0,"used":false},{"PRN":35,"gnssid":1,"svid":122,"az":118.0,"el":45.0,"ss":0.0,"used":false}]}
$PASHR,POS,0,03,183532.00,2037.76010,N,08704.07366,W,058.48,,359.4,000.0,+000.0,2.2,2.2,0.0,1.0,BQ00*24
{"class":"SKY","hdop":2.20,"pdop":2.20,"tdop":1.00,"vdop":0.00,"uSat":3}
$GPRMC,183532.00,A,2037.7601,N,08704.0737,W,00.0,359.4,231207,01,W,A*24
{"class":"TPV","mode":3,"time":"2007-12-23T18:35:32.000Z","ept":0.005,"lat":20.629335000,"lon":-87.067895000,"altHAE":58.4800,"altMSL":73.4920,"alt":73.4920,"epv":0.000,"track":359.4000,"magtrack":357.4077,"magvar":-1.0,"speed":0.000,"climb":0.000,"geoidSep":-15.012,"eph":41.800,"sep":41.800}
{"class":"SKY","hdop":2.20,"pdop":2.20,"tdop":1.00,"vdop":0.00,"uSat":3}
$PASHR,SAT,03,28,139,38,46,U,10,193,17,49,U,02,274,55,50,U*5B
{"class":"TPV","mode":3,"time":"2007-12-23T18:35:32.000Z","ept":0.005,"lat":20.629335000,"lon":-87.067895000,"altHAE":58.4800,"altMSL":73.4920,"alt":73.4920,"epv":0.000,"track":359.4000,"magtrack":357.4077,"magvar":-1.0,"speed":0.000,"climb":0.000,"geoidSep":-15.012,"eph":41.800,"sep":41.800}
{"class":"SKY","hdop":2.20,"pdop":2.20,"tdop":1.00,"vdop":0.00,"nSat":3,"uSat":3,"satellites":[{"PRN":28,"gnssid":0,"svid":28,"az":139.0,"el":38.0,"ss":46.0,"used":true},{"PRN":10,"gnssid":0,"svid":10,"az":193.0,"el":17.0,"ss":49.0,"used":true},{"PRN":2,"gnssid":0,"svid":2,"az":274.0,"el":55.0,"ss":50.0,"used":true}]}
$PASHR,XMG,12,Solution valid*4A
$GPZDA,183534.00,23,12,2007,00,00*69
{"class":"TPV","mode":0,"time":"2007-12-23T18:35:34.000Z","ept":0.005}
$GPGGA,183533.00,2037.76009,N,08704.07361,W,1,03,2.2,072.35,M,-13.9,M,,*61
{"class":"SKY","hdop":2.20,"uSat":3}
$GPGSA,A,2,02,10,28,,,,,,,,,,02.2,02.2,*14
{"class":"SKY","hdop":2.20,"pdop":2.20,"uSat":3}
$GPGSV,3,1,10,28,38,139,46,10,17,193,49,02,55,274,50,04,61,358,*78
$GPGSV,3,2,10,17,38,054,,09,21,281,,12,10,322,,20,03,038,*7F
$GPGSV,3,3,10,33,08,096,,35,45,118,*70
{"class":"SKY","hdop":2.20,"pdop":2.20,"nSat":10,"uSat":3,"satellites":[{"PRN":28,"gnssid":0,"svid":28,"az":139.0,"el":38.0,"ss":46.0,"used":true},{"PRN":10,"gnssid":0,"svid":10,"az":193.0,"el":17.0,"ss":49.0,"used":true},{"PRN":2,"gnssid":0,"svid":2,"az":274.0,"el":55.0,"ss":50.0,"used":true},{"PRN":4,"gnssid":0,"svid":4,"az":358.0,"el":61.0,"ss":0.0,"used":false},{"PRN":17,"gnssid":0,"svid":17,"az":54.0,"el":38.0,"ss":0.0,"used":false},{"PRN":9,"gnssid":0,"svid":9,"az":281.0,"el":21.0,"ss":0.0,"used":false},{"PRN":12,"gnssid":0,"svid":12,"az":322.0,"el":10.0,"ss":0.0,"used":false},{"PRN":20,"gnssid":0,"svid":20,"az":38.0,"el":3.0,"ss":0.0,"used":false},{"PRN":33,"gnssid":1,"svid":120,"az":96.0,"el":8.0,"ss":0.0,"used":false},{"PRN":35,"gnssid":1,"svid":122,"az":118.0,"el":45.0,"ss":0.0,"used":false}]}
$PASHR,POS,0,03,183533.00,2037.76009,N,08704.07361,W,058.48,,359.4,000.0,+000.0,2.2,2.2,0.0,1.0,BQ00*2A
{"class":"SKY","hdop":2.20,"pdop":2.20,"tdop":1.00,"vdop":0.00,"uSat":3}
$GPRMC,183533.00,A,2037.7601,N,08704.0736,W,00.0,359.4,231207,01,W,A*24
{"class":"TPV","mode":3,"time":"2007-12-23T18:35:33.000Z","ept":0.005,"lat":20.629335000,"lon":-87.067893333,"altHAE":58.4800,"altMSL":73.4920,"alt":73.4920,"epv":0.000,"track":359.4000,"magtrack":357.4077,"magvar":-1.0,"speed":0.000,"climb":0.000,"geoidSep":-15.012,"eph":41.800,"sep":41.800}
{"class":"SKY","hdop":2.20,"pdop":2.20,"tdop":1.00,"vdop":0.00,"uSat":3}
$PASHR,SAT,03,28,139,38,46,U,10,193,17,49,U,02,274,55,50,U*5B
{"class":"TPV","mode":3,"time":"2007-12-23T18:35:33.000Z","ept":0.005,"lat":20.629335000,"lon":-87.067893333,"altHAE":58.4800,"altMSL":73.4920,"alt":73.4920,"epv":0.000,"track":359.4000,"magtrack":357.4077,"magvar":-1.0,"speed":0.000,"climb":0.000,"geoidSep":-15.012,"eph":41.800,"sep":41.800}
{"class":"SKY","hdop":2.20,"pdop":2.20,"tdop":1.00,"vdop":0.00,"nSat":3,"uSat":3,"satellites":[{"PRN":28,"gnssid":0,"svid":28,"az":139.0,"el":38.0,"ss":46.0,"used":true},{"PRN":10,"gnssid":0,"svid":10,"az":193.0,"el":17.0,"ss":49.0,"used":true},{"PRN":2,"gnssid":0,"svid":2,"az":274.0,"el":55.0,"ss":50.0,"used":true}]}
$PASHR,XMG,12,Solution valid*4A
$GPZDA,183535.00,23,12,2007,00,00*68
{"class":"TPV","mode":0,"time":"2007-12-23T18:35:35.000Z","ept":0.005}
$GPGGA,183534.00,2037.76008,N,08704.07358,W,1,03,2.2,072.35,M,-13.9,M,,*6D
{"class":"SKY","hdop":2.20,"uSat":3}
$GPGSA,A,2,02,10,28,,,,,,,,,,02.2,02.2,*14
{"class":"SKY","hdop":2.20,"pdop":2.20,"uSat":3}
$GPGSV,3,1,10,28,38,139,46,10,17,193,49,02,55,274,50,04,61,358,*78
$GPGSV,3,2,10,17,38,054,,09,21,281,,12,10,322,,20,03,038,*7F
$GPGSV,3,3,10,33,08,096,,35,45,118,*70
{"class":"SKY","hdop":2.20,"pdop":2.20,"nSat":10,"uSat":3,"satellites":[{"PRN":28,"gnssid":0,"svid":28,"az":139.0,"el":38.0,"ss":46.0,"used":true},{"PRN":10,"gnssid":0,"svid":10,"az":193.0,"el":17.0,"ss":49.0,"used":true},{"PRN":2,"gnssid":0,"svid":2,"az":274.0,"el":55.0,"ss":50.0,"used":true},{"PRN":4,"gnssid":0,"svid":4,"az":358.0,"el":61.0,"ss":0.0,"used":false},{"PRN":17,"gnssid":0,"svid":17,"az":54.0,"el":38.0,"ss":0.0,"used":false},{"PRN":9,"gnssid":0,"svid":9,"az":281.0,"el":21.0,"ss":0.0,"used":false},{"PRN":12,"gnssid":0,"svid":12,"az":322.0,"el":10.0,"ss":0.0,"used":false},{"PRN":20,"gnssid":0,"svid":20,"az":38.0,"el":3.0,"ss":0.0,"used":false},{"PRN":33,"gnssid":1,"svid":120,"az":96.0,"el":8.0,"ss":0.0,"used":false},{"PRN":35,"gnssid":1,"svid":122,"az":118.0,"el":45.0,"ss":0.0,"used":false}]}
$PASHR,POS,0,03,183534.00,2037.76008,N,08704.07358,W,058.48,,359.4,000.0,+000.0,2.2,2.2,0.0,1.0,BQ00*26
{"class":"SKY","hdop":2.20,"pdop":2.20,"tdop":1.00,"vdop":0.00,"uSat":3}
$GPRMC,183534.00,A,2037.7601,N,08704.0736,W,00.0,359.4,231207,01,W,A*23
{"class":"TPV","mode":3,"time":"2007-12-23T18:35:34.000Z","ept":0.005,"lat":20.629335000,"lon":-87.067893333,"altHAE":58.4800,"altMSL":73.4920,"alt":73.4920,"epv":0.000,"track":359.4000,"magtrack":357.4077,"magvar":-1.0,"speed":0.000,"climb":0.000,"geoidSep":-15.012,"eph":41.800,"sep":41.800}
{"class":"SKY","hdop":2.20,"pdop":2.20,"tdop":1.00,"vdop":0.00,"uSat":3}
