$GPGSA,A,3,11,32,14,28,22,03,10,08,17,,,,2.02,1.03,1.74*00
{"class":"TPV","mode":3,"epv":40.020,"eph":19.570,"sep":38.380}
{"class":"SKY","hdop":1.03,"pdop":2.02,"vdop":1.74}
!AIVDM,2,1,9,B,55R3Vn82=ILTQ3KKS>1<D60Dq@E918U<F222221J1`?164vc03S1CCAD,0*2A
!AIVDM,2,2,9,B,`88888888888880,2*76
{"class":"AIS","type":5,"repeat":0,"mmsi":371255000,"scaled":false,"imo":9266633,"ais_version":2,"callsign":"HP6683","shipname":"SEA ENTERPRISE","shiptype":90,"shiptype_text":"Other Type - all ships of this type","to_bow":13,"to_stern":15,"to_port":1,"to_starboard":6,"epfd":1,"epfd_text":"GPS","eta":"03-29T11:00Z","draught":14,"destination":"LEMMER","dte":0}
$GPRMC,213950.00,A,5250.53669,N,00542.34920,E,0.020,,070420,,,A*7D
{"class":"TPV","mode":3,"time":"2020-04-07T21:39:50.000Z","ept":0.005,"lat":52.842278167,"lon":5.705820000,"magvar":1.7,"speed":0.010,"geoidSep":43.529}
{"class":"AIS","type":5,"repeat":0,"mmsi":371255000,"scaled":false,"imo":9266633,"ais_version":2,"callsign":"HP6683","shipname":"SEA ENTERPRISE","shiptype":90,"shiptype_text":"Other Type - all ships of this type","to_bow":13,"to_stern":15,"to_port":1,"to_starboard":6,"epfd":1,"epfd_text":"GPS","eta":"03-29T11:00Z","draught":14,"destination":"LEMMER","dte":0}
$GPVTG,,T,,M,0.020,N,0.038,K,A*2A
$GPGGA,213950.00,5250.53669,N,00542.34920,E,1,09,1.03,-6.0,M,45.8,M,,*7B
{"class":"TPV","mode":3,"time":"2020-04-07T21:39:50.000Z","ept":0.005,"lat":52.842278167,"lon":5.705820000,"altHAE":39.8000,"altMSL":-6.0000,"alt":-6.0000,"magvar":1.7,"speed":0.010,"geoidSep":45.800,"eph":19.570}
{"class":"SKY","hdop":1.03,"uSat":9}
$GPGSA,A,3,11,32,14,28,22,03,10,08,17,,,,2.02,1.03,1.74*00
{"class":"TPV","mode":3,"time":"2020-04-07T21:39:50.000Z","ept":0.005,"lat":52.842278167,"lon":5.705820000,"altHAE":39.8000,"altMSL":-6.0000,"alt":-6.0000,"epv":40.020,"magvar":1.7,"speed":0.010,"geoidSep":45.800,"eph":19.570,"sep":38.380}
{"class":"SKY","hdop":1.03,"pdop":2.02,"vdop":1.74,"uSat":9}
$GPGSV,3,1,10,03,39,230,23,08,31,170,31,10,08,058,31,11,65,149,31*76
$GPGSV,3,2,10,14,43,097,39,17,18,316,30,22,66,224,34,27,04,155,*74
$GPGSV,3,3,10,28,26,288,31,32,38,065,41*7A
{"class":"SKY","gdop":2.27,"hdop":1.03,"pdop":2.02,"tdop":1.04,"xdop":0.54,"ydop":0.87,"vdop":1.74,"nSat":10,"uSat":9,"satellites":[{"PRN":3,"gnssid":0,"svid":3,"az":230.0,"el":39.0,"ss":23.0,"used":true},{"PRN":8,"gnssid":0,"svid":8,"az":170.0,"el":31.0,"ss":31.0,"used":true},{"PRN":10,"gnssid":0,"svid":10,"az":58.0,"el":8.0,"ss":31.0,"used":true},{"PRN":11,"gnssid":0,"svid":11,"az":149.0,"el":65.0,"ss":31.0,"used":true},{"PRN":14,"gnssid":0,"svid":14,"az":97.0,"el":43.0,"ss":39.0,"used":true},{"PRN":17,"gnssid":0,"svid":17,"az":316.0,"el":18.0,"ss":30.0,"used":true},{"PRN":22,"gnssid":0,"svid":22,"az":224.0,"el":66.0,"ss":34.0,"used":true},{"PRN":27,"gnssid":0,"svid":27,"az":155.0,"el":4.0,"ss":0.0,"used":false},{"PRN":28,"gnssid":0,"svid":28,"az":288.0,"el":26.0,"ss":31.0,"used":true},{"PRN":32,"gnssid":0,"svid":32,"az":65.0,"el":38.0,"ss":41.0,"used":true}]}
$GPGLL,5250.53669,N,00542.34920,E,213950.00,A,A*67
{"class":"TPV","mode":3,"time":"2020-04-07T21:39:50.000Z","ept":0.005,"lat":52.842278167,"lon":5.705820000,"altHAE":39.8000,"altMSL":-6.0000,"alt":-6.0000,"epx":8.134,"epy":13.037,"epv":40.020,"magvar":1.7,"speed":0.010,"geoidSep":45.800,"eph":19.570,"sep":38.380}
{"class":"SKY","gdop":2.27,"hdop":1.03,"pdop":2.02,"tdop":1.04,"xdop":0.54,"ydop":0.87,"vdop":1.74,"uSat":9}
!AIVDM,1,1,,B,13aDp<PP000IwSlN?Wm@0?wN2<1T,0*29
{"class":"AIS","type":1,"repeat":0,"mmsi":244660274,"scaled":false,"status":0,"status_text":"Under way using engine","turn":-128,"speed":0,"accuracy":false,"lon":3406970,"lat":31713237,"course":0,"heading":511,"second":47,"maneuver":0,"raim":true,"radio":49252}
$GPRMC,213951.00,A,5250.53675,N,00542.34923,E,0.014,,070420,,,A*75
$GPVTG,,T,,M,0.014,N,0.027,K,A*23
$GPGGA,213951.00,5250.53675,N,00542.34923,E,1,09,1.03,-5.8,M,45.8,M,,*7F
{"class":"SKY","hdop":1.03,"uSat":9}
$GPGSA,A,3,11,32,14,28,22,03,10,08,17,,,,2.02,1.03,1.74*00
{"class":"SKY","hdop":1.03,"pdop":2.02,"vdop":1.74,"uSat":9}
$GPGSV,3,1,10,03,39,230,22,08,31,170,32,10,08,058,32,11,65,149,31*77
$GPGSV,3,2,10,14,43,097,39,17,19,316,30,22,66,224,34,27,04,155,*75
$GPGSV,3,3,10,28,26,288,30,32,38,065,41*7B
{"class":"SKY","gdop":2.28,"hdop":1.03,"pdop":2.02,"tdop":1.04,"xdop":0.54,"ydop":0.86,"vdop":1.74,"nSat":10,"uSat":9,"satellites":[{"PRN":3,"gnssid":0,"svid":3,"az":230.0,"el":39.0,"ss":22.0,"used":true},{"PRN":8,"gnssid":0,"svid":8,"az":170.0,"el":31.0,"ss":32.0,"used":true},{"PRN":10,"gnssid":0,"svid":10,"az":58.0,"el":8.0,"ss":32.0,"used":true},{"PRN":11,"gnssid":0,"svid":11,"az":149.0,"el":65.0,"ss":31.0,"used":true},{"PRN":14,"gnssid":0,"svid":14,"az":97.0,"el":43.0,"ss":39.0,"used":true},{"PRN":17,"gnssid":0,"svid":17,"az":316.0,"el":19.0,"ss":30.0,"used":true},{"PRN":22,"gnssid":0,"svid":22,"az":224.0,"el":66.0,"ss":34.0,"used":true},{"PRN":27,"gnssid":0,"svid":27,"az":155.0,"el":4.0,"ss":0.0,"used":false},{"PRN":28,"gnssid":0,"svid":28,"az":288.0,"el":26.0,"ss":30.0,"used":true},{"PRN":32,"gnssid":0,"svid":32,"az":65.0,"el":38.0,"ss":41.0,"used":true}]}
$GPGLL,5250.53675,N,00542.34923,E,213951.00,A,A*68
{"class":"TPV","mode":3,"time":"2020-04-07T21:39:51.000Z","ept":0.005,"lat":52.842279167,"lon":5.705820500,"altHAE":40.0000,"altMSL":-5.8000,"alt":-5.8000,"epx":8.142,"epy":12.972,"epv":40.020,"magvar":1.7,"speed":0.007,"climb":0.200,"eps":26.01,"epc":80.04,"geoidSep":45.800,"eph":19.570,"sep":38.380}
{"class":"SKY","gdop":2.28,"hdop":1.03,"pdop":2.02,"tdop":1.04,"xdop":0.54,"ydop":0.86,"vdop":1.74,"uSat":9}
{"class":"AIS","type":1,"repeat":0,"mmsi":244660274,"scaled":false,"status":0,"status_text":"Under way using engine","turn":-128,"speed":0,"accuracy":false,"lon":3406970,"lat":31713237,"course":0,"heading":511,"second":47,"maneuver":0,"raim":true,"radio":49252}
!AIVDM,1,1,,B,339FEj5P00PIwujN?fQv4?wPRD5:,0*64
{"class":"AIS","type":3,"repeat":0,"mmsi":211129800,"scaled":false,"status":5,"status_text":"Moored","turn":-128,"speed":0,"accuracy":true,"lon":3407801,"lat":31714951,"course":3600,"heading":511,"second":48,"maneuver":1,"raim":true,"radio":82250}
$GPRMC,213952.00,A,5250.53677,N,00542.34926,E,0.018,,070420,,,A*7D
$GPVTG,,T,,M,0.018,N,0.034,K,A*2D
$GPGGA,213952.00,5250.53677,N,00542.34926,E,1,09,1.03,-5.7,M,45.8,M,,*74
{"class":"SKY","hdop":1.03,"uSat":9}
$GPGSA,A,3,11,32,14,28,22,03,10,08,17,,,,2.02,1.03,1.74*00
{"class":"SKY","hdop":1.03,"pdop":2.02,"vdop":1.74,"uSat":9}
$GPGSV,3,1,10,03,39,230,21,08,31,170,30,10,08,058,31,11,65,149,31*75
$GPGSV,3,2,10,14,43,097,39,17,19,316,30,22,66,224,34,27,04,155,*75
$GPGSV,3,3,10,28,26,288,31,32,38,065,41*7A
{"class":"SKY","gdop":2.28,"hdop":1.03,"pdop":2.02,"tdop":1.04,"xdop":0.54,"ydop":0.86,"vdop":1.74,"nSat":10,"uSat":9,"satellites":[{"PRN":3,"gnssid":0,"svid":3,"az":230.0,"el":39.0,"ss":21.0,"used":true},{"PRN":8,"gnssid":0,"svid":8,"az":170.0,"el":31.0,"ss":30.0,"used":true},{"PRN":10,"gnssid":0,"svid":10,"az":58.0,"el":8.0,"ss":31.0,"used":true},{"PRN":11,"gnssid":0,"svid":11,"az":149.0,"el":65.0,"ss":31.0,"used":true},{"PRN":14,"gnssid":0,"svid":14,"az":97.0,"el":43.0,"ss":39.0,"used":true},{"PRN":17,"gnssid":0,"svid":17,"az":316.0,"el":19.0,"ss":30.0,"used":true},{"PRN":22,"gnssid":0,"svid":22,"az":224.0,"el":66.0,"ss":34.0,"used":true},{"PRN":27,"gnssid":0,"svid":27,"az":155.0,"el":4.0,"ss":0.0,"used":false},{"PRN":28,"gnssid":0,"svid":28,"az":288.0,"el":26.0,"ss":31.0,"used":true},{"PRN":32,"gnssid":0,"svid":32,"az":65.0,"el":38.0,"ss":41.0,"used":true}]}
$GPGLL,5250.53677,N,00542.34926,E,213952.00,A,A*6C
{"class":"TPV","mode":3,"time":"2020-04-07T21:39:52.000Z","ept":0.005,"lat":52.842279500,"lon":5.705821000,"altHAE":40.1000,"altMSL":-5.7000,"alt":-5.7000,"epx":8.142,"epy":12.972,"epv":40.020,"magvar":1.7,"speed":0.009,"climb":0.100,"eps":25.94,"epc":80.04,"geoidSep":45.800,"eph":19.570,"sep":38.380}
{"class":"SKY","gdop":2.28,"hdop":1.03,"pdop":2.02,"tdop":1.04,"xdop":0.54,"ydop":0.86,"vdop":1.74,"uSat":9}
{"class":"AIS","type":3,"repeat":0,"mmsi":211129800,"scaled":false,"status":5,"status_text":"Moored","turn":-128,"speed":0,"accuracy":true,"lon":3407801,"lat":31714951,"course":3600,"heading":511,"second":48,"maneuver":1,"raim":true,"radio":82250}
!AIVDM,1,1,,B,13aGrVHP000J8VDN?5B@0?wR06bL,0*29
{"class":"AIS","type":1,"repeat":0,"mmsi":244710041,"scaled":false,"status":8,"status_text":"Under way sailing","turn":-128,"speed":0,"accuracy":false,"lon":3425482,"lat":31704393,"course":0,"heading":511,"second":49,"maneuver":0,"raim":false,"radio":27292}
$GPRMC,213953.00,A,5250.53680,N,00542.34926,E,0.053,,070420,,,A*7B
$GPVTG,,T,,M,0.053,N,0.097,K,A*2B
$GPGGA,213953.00,5250.53680,N,00542.34926,E,1,09,1.03,-5.7,M,45.8,M,,*7D
{"class":"SKY","hdop":1.03,"uSat":9}
$GPGSA,A,3,11,32,14,28,22,03,10,08,17,,,,2.02,1.03,1.74*00
{"class":"SKY","hdop":1.03,"pdop":2.02,"vdop":1.74,"uSat":9}
$GPGSV,3,1,10,03,39,230,21,08,31,170,29,10,08,058,30,11,65,149,31*7C
$GPGSV,3,2,10,14,43,097,39,17,19,316,30,22,66,224,33,27,04,155,*72
$GPGSV,3,3,10,28,26,288,31,32,38,065,41*7A
{"class":"SKY","gdop":2.28,"hdop":1.03,"pdop":2.02,"tdop":1.04,"xdop":0.54,"ydop":0.86,"vdop":1.74,"nSat":10,"uSat":9,"satellites":[{"PRN":3,"gnssid":0,"svid":3,"az":230.0,"el":39.0,"ss":21.0,"used":true},{"PRN":8,"gnssid":0,"svid":8,"az":170.0,"el":31.0,"ss":29.0,"used":true},{"PRN":10,"gnssid":0,"svid":10,"az":58.0,"el":8.0,"ss":30.0,"used":true},{"PRN":11,"gnssid":0,"svid":11,"az":149.0,"el":65.0,"ss":31.0,"used":true},{"PRN":14,"gnssid":0,"svid":14,"az":97.0,"el":43.0,"ss":39.0,"used":true},{"PRN":17,"gnssid":0,"svid":17,"az":316.0,"el":19.0,"ss":30.0,"used":true},{"PRN":22,"gnssid":0,"svid":22,"az":224.0,"el":66.0,"ss":33.0,"used":true},{"PRN":27,"gnssid":0,"svid":27,"az":155.0,"el":4.0,"ss":0.0,"used":false},{"PRN":28,"gnssid":0,"svid":28,"az":288.0,"el":26.0,"ss":31.0,"used":true},{"PRN":32,"gnssid":0,"svid":32,"az":65.0,"el":38.0,"ss":41.0,"used":true}]}
$GPGLL,5250.53680,N,00542.34926,E,213953.00,A,A*65
{"class":"TPV","mode":3,"time":"2020-04-07T21:39:53.000Z","ept":0.005,"lat":52.842280000,"lon":5.705821000,"altHAE":40.1000,"altMSL":-5.7000,"alt":-5.7000,"epx":8.142,"epy":12.972,"epv":40.020,"magvar":1.7,"speed":0.027,"climb":0.000,"eps":25.94,"epc":80.04,"geoidSep":45.800,"eph":19.570,"sep":38.380}
{"class":"SKY","gdop":2.28,"hdop":1.03,"pdop":2.02,"tdop":1.04,"xdop":0.54,"ydop":0.86,"vdop":1.74,"uSat":9}
{"class":"AIS","type":1,"repeat":0,"mmsi":244710041,"scaled":false,"status":8,"status_text":"Under way sailing","turn":-128,"speed":0,"accuracy":false,"lon":3425482,"lat":31704393,"course":0,"heading":511,"second":49,"maneuver":0,"raim":false,"radio":27292}
!AIVDM,1,1,,B,140Ut9@P000J9DTN?1L00?wT06bL,0*73
{"class":"AIS","type":1,"repeat":0,"mmsi":269057061,"scaled":false,"status":0,"status_text":"Under way using engine","turn":-128,"speed":0,"accuracy":false,"lon":3426962,"lat":31703408,"course":0,"heading":511,"second":50,"maneuver":0,"raim":false,"radio":27292}
$GPRMC,213954.00,A,5250.53690,N,00542.34926,E,0.007,,070420,,,A*7C
$GPVTG,,T,,M,0.007,N,0.013,K,A*26
!AIVDM,1,1,,B,839FEj0j2d<dtuuMMj9PqgbP00P0,0*19
{"class":"AIS","type":8,"repeat":0,"mmsi":211129800,"scaled":false,"dac":200,"fid":10,"vin":"02337557","length":1100,"beam":115,"shiptype":8020,"shiptype_text":"Motor tanker","hazard":0,"hazard_text":"0 blue cones/lights","draught":0,"loaded":1,"loaded_text":"Unloaded","speed_q":false,"course_q":false,"heading_q":false}
$GPGGA,213954.00,5250.53690,N,00542.34926,E,1,09,1.03,-5.5,M,45.8,M,,*79
{"class":"SKY","hdop":1.03,"uSat":9}
$GPGSA,A,3,11,32,14,28,22,03,10,08,17,,,,2.02,1.03,1.74*00
{"class":"SKY","hdop":1.03,"pdop":2.02,"vdop":1.74,"uSat":9}
$GPGSV,3,1,10,03,39,230,21,08,31,170,29,10,08,058,30,11,65,149,31*7C
$GPGSV,3,2,10,14,43,097,39,17,19,316,31,22,66,224,34,27,04,155,*74
$GPGSV,3,3,10,28,26,288,31,32,38,065,42*79
{"class":"SKY","gdop":2.28,"hdop":1.03,"pdop":2.02,"tdop":1.04,"xdop":0.54,"ydop":0.86,"vdop":1.74,"nSat":10,"uSat":9,"satellites":[{"PRN":3,"gnssid":0,"svid":3,"az":230.0,"el":39.0,"ss":21.0,"used":true},{"PRN":8,"gnssid":0,"svid":8,"az":170.0,"el":31.0,"ss":29.0,"used":true},{"PRN":10,"gnssid":0,"svid":10,"az":58.0,"el":8.0,"ss":30.0,"used":true},{"PRN":11,"gnssid":0,"svid":11,"az":149.0,"el":65.0,"ss":31.0,"used":true},{"PRN":14,"gnssid":0,"svid":14,"az":97.0,"el":43.0,"ss":39.0,"used":true},{"PRN":17,"gnssid":0,"svid":17,"az":316.0,"el":19.0,"ss":31.0,"used":true},{"PRN":22,"gnssid":0,"svid":22,"az":224.0,"el":66.0,"ss":34.0,"used":true},{"PRN":27,"gnssid":0,"svid":27,"az":155.0,"el":4.0,"ss":0.0,"used":false},{"PRN":28,"gnssid":0,"svid":28,"az":288.0,"el":26.0,"ss":31.0,"used":true},{"PRN":32,"gnssid":0,"svid":32,"az":65.0,"el":38.0,"ss":42.0,"used":true}]}
$GPGLL,5250.53690,N,00542.34926,E,213954.00,A,A*63
{"class":"TPV","mode":3,"time":"2020-04-07T21:39:54.000Z","ept":0.005,"lat":52.842281667,"lon":5.705821000,"altHAE":40.3000,"altMSL":-5.5000,"alt":-5.5000,"epx":8.142,"epy":12.972,"epv":40.020,"magvar":1.7,"speed":0.004,"climb":0.200,"eps":25.94,"epc":80.04,"geoidSep":45.800,"eph":19.570,"sep":38.380}
{"class":"SKY","gdop":2.28,"hdop":1.03,"pdop":2.02,"tdop":1.04,"xdop":0.54,"ydop":0.86,"vdop":1.74,"uSat":9}
{"class":"AIS","type":8,"repeat":0,"mmsi":211129800,"scaled":false,"dac":200,"fid":10,"vin":"02337557","length":1100,"beam":115,"shiptype":8020,"shiptype_text":"Motor tanker","hazard":0,"hazard_text":"0 blue cones/lights","draught":0,"loaded":1,"loaded_text":"Unloaded","speed_q":false,"course_q":false,"heading_q":false}
!AIVDM,1,1,,A,13aDq30P00PJ8BPN?0@@0?wV2@NC,0*03
{"class":"AIS","type":1,"repeat":0,"mmsi":244660492,"scaled":false,"status":0,"status_text":"Under way using engine","turn":-128,"speed":0,"accuracy":true,"lon":3424848,"lat":31703105,"course":0,"heading":511,"second":51,"maneuver":0,"raim":true,"radio":67475}
$GPRMC,213955.00,A,5250.53701,N,00542.34927,E,0.026,,070420,,,A*76
$GPVTG,,T,,M,0.026,N,0.048,K,A*2B
$GPGGA,213955.00,5250.53701,N,00542.34927,E,1,09,1.03,-5.3,M,45.8,M,,*76
{"class":"SKY","hdop":1.03,"uSat":9}
$GPGSA,A,3,11,32,14,28,22,03,10,08,17,,,,2.02,1.03,1.74*00
{"class":"SKY","hdop":1.03,"pdop":2.02,"vdop":1.74,"uSat":9}
$GPGSV,3,1,10,03,39,230,19,08,31,170,29,10,08,058,30,11,65,149,32*74
$GPGSV,3,2,10,14,43,097,39,17,19,316,30,22,66,224,34,27,04,155,*75
$GPGSV,3,3,10,28,26,288,31,32,38,065,41*7A
{"class":"SKY","gdop":2.28,"hdop":1.03,"pdop":2.02,"tdop":1.04,"xdop":0.54,"ydop":0.86,"vdop":1.74,"nSat":10,"uSat":9,"satellites":[{"PRN":3,"gnssid":0,"svid":3,"az":230.0,"el":39.0,"ss":19.0,"used":true},{"PRN":8,"gnssid":0,"svid":8,"az":170.0,"el":31.0,"ss":29.0,"used":true},{"PRN":10,"gnssid":0,"svid":10,"az":58.0,"el":8.0,"ss":30.0,"used":true},{"PRN":11,"gnssid":0,"svid":11,"az":149.0,"el":65.0,"ss":32.0,"used":true},{"PRN":14,"gnssid":0,"svid":14,"az":97.0,"el":43.0,"ss":39.0,"used":true},{"PRN":17,"gnssid":0,"svid":17,"az":316.0,"el":19.0,"ss":30.0,"used":true},{"PRN":22,"gnssid":0,"svid":22,"az":224.0,"el":66.0,"ss":34.0,"used":true},{"PRN":27,"gnssid":0,"svid":27,"az":155.0,"el":4.0,"ss":0.0,"used":false},{"PRN":28,"gnssid":0,"svid":28,"az":288.0,"el":26.0,"ss":31.0,"used":true},{"PRN":32,"gnssid":0,"svid":32,"az":65.0,"el":38.0,"ss":41.0,"used":true}]}
$GPGLL,5250.53701,N,00542.34927,E,213955.00,A,A*6A
{"class":"TPV","mode":3,"time":"2020-04-07T21:39:55.000Z","ept":0.005,"lat":52.842283500,"lon":5.705821167,"altHAE":40.5000,"altMSL":-5.3000,"alt":-5.3000,"epx":8.142,"epy":12.972,"epv":40.020,"magvar":1.7,"speed":0.013,"climb":0.200,"eps":25.94,"epc":80.04,"geoidSep":45.800,"eph":19.570,"sep":38.380}
{"class":"SKY","gdop":2.28,"hdop":1.03,"pdop":2.02,"tdop":1.04,"xdop":0.54,"ydop":0.86,"vdop":1.74,"uSat":9}
{"class":"AIS","type":1,"repeat":0,"mmsi":244660492,"scaled":false,"status":0,"status_text":"Under way using engine","turn":-128,"speed":0,"accuracy":true,"lon":3424848,"lat":31703105,"course":0,"heading":511,"second":51,"maneuver":0,"raim":true,"radio":67475}
$GPRMC,213956.00,A,5250.53713,N,00542.34927,E,0.063,,070420,,,A*77
$GPVTG,,T,,M,0.063,N,0.117,K,A*21
$GPGGA,213956.00,5250.53713,N,00542.34927,E,1,09,1.03,-5.1,M,45.8,M,,*74
{"class":"SKY","hdop":1.03,"uSat":9}
$GPGSA,A,3,11,32,14,28,22,03,10,08,17,,,,2.02,1.03,1.74*00
{"class":"SKY","hdop":1.03,"pdop":2.02,"vdop":1.74,"uSat":9}
$GPGSV,3,1,10,03,39,230,18,08,31,170,27,10,08,058,30,11,65,149,32*7B
$GPGSV,3,2,10,14,43,097,39,17,19,316,30,22,66,224,34,27,04,155,*75
$GPGSV,3,3,10,28,26,288,31,32,38,065,41*7A
{"class":"SKY","gdop":2.28,"hdop":1.03,"pdop":2.02,"tdop":1.04,"xdop":0.54,"ydop":0.86,"vdop":1.74,"nSat":10,"uSat":9,"satellites":[{"PRN":3,"gnssid":0,"svid":3,"az":230.0,"el":39.0,"ss":18.0,"used":true},{"PRN":8,"gnssid":0,"svid":8,"az":170.0,"el":31.0,"ss":27.0,"used":true},{"PRN":10,"gnssid":0,"svid":10,"az":58.0,"el":8.0,"ss":30.0,"used":true},{"PRN":11,"gnssid":0,"svid":11,"az":149.0,"el":65.0,"ss":32.0,"used":true},{"PRN":14,"gnssid":0,"svid":14,"az":97.0,"el":43.0,"ss":39.0,"used":true},{"PRN":17,"gnssid":0,"svid":17,"az":316.0,"el":19.0,"ss":30.0,"used":true},{"PRN":22,"gnssid":0,"svid":22,"az":224.0,"el":66.0,"ss":34.0,"used":true},{"PRN":27,"gnssid":0,"svid":27,"az":155.0,"el":4.0,"ss":0.0,"used":false},{"PRN":28,"gnssid":0,"svid":28,"az":288.0,"el":26.0,"ss":31.0,"used":true},{"PRN":32,"gnssid":0,"svid":32,"az":65.0,"el":38.0,"ss":41.0,"used":true}]}
$GPGLL,5250.53713,N,00542.34927,E,213956.00,A,A*6A
{"class":"TPV","mode":3,"time":"2020-04-07T21:39:56.000Z","ept":0.005,"lat":52.842285500,"lon":5.705821167,"altHAE":40.7000,"altMSL":-5.1000,"alt":-5.1000,"epx":8.142,"epy":12.972,"epv":40.020,"magvar":1.7,"speed":0.032,"climb":0.200,"eps":25.94,"epc":80.04,"geoidSep":45.800,"eph":19.570,"sep":38.380}
{"class":"SKY","gdop":2.28,"hdop":1.03,"pdop":2.02,"tdop":1.04,"xdop":0.54,"ydop":0.86,"vdop":1.74,"uSat":9}
!AIVDM,1,1,,B,13aNoh0000PJ7>HN>wlP?Vwd0<2;,0*10
{"class":"AIS","type":1,"repeat":0,"mmsi":244824000,"scaled":false,"status":0,"status_text":"Under way using engine","turn":0,"speed":0,"accuracy":true,"lon":3422668,"lat":31702994,"course":62,"heading":223,"second":54,"maneuver":0,"raim":false,"radio":49291}
!AIVDM,1,1,,A,13aL?W0P00PJ9T8N?1hh0?wd20R>,0*7C
{"class":"AIS","type":1,"repeat":0,"mmsi":244780956,"scaled":false,"status":0,"status_text":"Under way using engine","turn":-128,"speed":0,"accuracy":true,"lon":3427460,"lat":31703491,"course":0,"heading":511,"second":54,"maneuver":0,"raim":true,"radio":2190}
$GPRMC,213957.00,A,5250.53722,N,00542.34927,E,0.031,,070420,,,A*73
$GPVTG,,T,,M,0.031,N,0.058,K,A*2C
!AIVDM,1,1,,A,13P<JdP000PJ76@N>wBbjFsd00Rp,0*63
{"class":"AIS","type":1,"repeat":0,"mmsi":235084466,"scaled":false,"status":0,"status_text":"Under way using engine","turn":0,"speed":0,"accuracy":true,"lon":3422408,"lat":31702858,"course":2761,"heading":221,"second":54,"maneuver":0,"raim":false,"radio":2232}
$GPGGA,213957.00,5250.53722,N,00542.34927,E,1,09,1.03,-4.9,M,45.8,M,,*7E
{"class":"SKY","hdop":1.03,"uSat":9}
$GPGSA,A,3,11,32,14,28,22,03,10,08,17,,,,2.02,1.03,1.74*00
{"class":"SKY","hdop":1.03,"pdop":2.02,"vdop":1.74,"uSat":9}
$GPGSV,3,1,10,03,39,230,17,08,31,170,26,10,08,058,30,11,65,149,32*75
$GPGSV,3,2,10,14,43,097,39,17,19,316,29,22,66,224,34,27,04,155,*7D
$GPGSV,3,3,10,28,26,288,31,32,38,065,41*7A
{"class":"SKY","gdop":2.28,"hdop":1.03,"pdop":2.02,"tdop":1.04,"xdop":0.54,"ydop":0.86,"vdop":1.74,"nSat":10,"uSat":9,"satellites":[{"PRN":3,"gnssid":0,"svid":3,"az":230.0,"el":39.0,"ss":17.0,"used":true},{"PRN":8,"gnssid":0,"svid":8,"az":170.0,"el":31.0,"ss":26.0,"used":true},{"PRN":10,"gnssid":0,"svid":10,"az":58.0,"el":8.0,"ss":30.0,"used":true},{"PRN":11,"gnssid":0,"svid":11,"az":149.0,"el":65.0,"ss":32.0,"used":true},{"PRN":14,"gnssid":0,"svid":14,"az":97.0,"el":43.0,"ss":39.0,"used":true},{"PRN":17,"gnssid":0,"svid":17,"az":316.0,"el":19.0,"ss":29.0,"used":true},{"PRN":22,"gnssid":0,"svid":22,"az":224.0,"el":66.0,"ss":34.0,"used":true},{"PRN":27,"gnssid":0,"svid":27,"az":155.0,"el":4.0,"ss":0.0,"used":false},{"PRN":28,"gnssid":0,"svid":28,"az":288.0,"el":26.0,"ss":31.0,"used":true},{"PRN":32,"gnssid":0,"svid":32,"az":65.0,"el":38.0,"ss":41.0,"used":true}]}
$GPGLL,5250.53722,N,00542.34927,E,213957.00,A,A*69
{"class":"TPV","mode":3,"time":"2020-04-07T21:39:57.000Z","ept":0.005,"lat":52.842287000,"lon":5.705821167,"altHAE":40.9000,"altMSL":-4.9000,"alt":-4.9000,"epx":8.142,"epy":12.972,"epv":40.020,"magvar":1.7,"speed":0.016,"climb":0.200,"eps":25.94,"epc":80.04,"geoidSep":45.800,"eph":19.570,"sep":38.380}
{"class":"SKY","gdop":2.28,"hdop":1.03,"pdop":2.02,"tdop":1.04,"xdop":0.54,"ydop":0.86,"vdop":1.74,"uSat":9}
{"class":"AIS","type":1,"repeat":0,"mmsi":235084466,"scaled":false,"status":0,"status_text":"Under way using engine","turn":0,"speed":0,"accuracy":true,"lon":3422408,"lat":31702858,"course":2761,"heading":221,"second":54,"maneuver":0,"raim":false,"radio":2232}
!AIVDM,1,1,,A,13`nu=PP000J9@dN?7U@0?wf0D0V,0*5A
{"class":"AIS","type":1,"repeat":0,"mmsi":244170038,"scaled":false,"status":0,"status_text":"Under way using engine","turn":-128,"speed":0,"accuracy":false,"lon":3426838,"lat":31704981,"course":0,"heading":511,"second":55,"maneuver":0,"raim":false,"radio":81958}
$GPRMC,213958.00,A,5250.53727,N,00542.34926,E,0.010,,070420,,,A*7B
$GPVTG,,T,,M,0.010,N,0.019,K,A*2A
$GPGGA,213958.00,5250.53727,N,00542.34926,E,1,09,1.03,-4.8,M,45.8,M,,*74
{"class":"SKY","hdop":1.03,"uSat":9}
$GPGSA,A,3,11,32,14,28,22,03,10,08,17,,,,2.02,1.03,1.74*00
{"class":"SKY","hdop":1.03,"pdop":2.02,"vdop":1.74,"uSat":9}
$GPGSV,3,1,10,03,39,230,19,08,31,170,26,10,08,058,30,11,65,149,32*7B
$GPGSV,3,2,10,14,43,097,39,17,19,316,28,22,66,224,34,27,04,155,*7C
$GPGSV,3,3,10,28,26,288,32,32,38,065,42*7A
{"class":"SKY","gdop":2.28,"hdop":1.03,"pdop":2.02,"tdop":1.04,"xdop":0.54,"ydop":0.86,"vdop":1.74,"nSat":10,"uSat":9,"satellites":[{"PRN":3,"gnssid":0,"svid":3,"az":230.0,"el":39.0,"ss":19.0,"used":true},{"PRN":8,"gnssid":0,"svid":8,"az":170.0,"el":31.0,"ss":26.0,"used":true},{"PRN":10,"gnssid":0,"svid":10,"az":58.0,"el":8.0,"ss":30.0,"used":true},{"PRN":11,"gnssid":0,"svid":11,"az":149.0,"el":65.0,"ss":32.0,"used":true},{"PRN":14,"gnssid":0,"svid":14,"az":97.0,"el":43.0,"ss":39.0,"used":true},{"PRN":17,"gnssid":0,"svid":17,"az":316.0,"el":19.0,"ss":28.0,"used":true},{"PRN":22,"gnssid":0,"svid":22,"az":224.0,"el":66.0,"ss":34.0,"used":true},{"PRN":27,"gnssid":0,"svid":27,"az":155.0,"el":4.0,"ss":0.0,"used":false},{"PRN":28,"gnssid":0,"svid":28,"az":288.0,"el":26.0,"ss":32.0,"used":true},{"PRN":32,"gnssid":0,"svid":32,"az":65.0,"el":38.0,"ss":42.0,"used":true}]}
$GPGLL,5250.53727,N,00542.34926,E,213958.00,A,A*62
{"class":"TPV","mode":3,"time":"2020-04-07T21:39:58.000Z","ept":0.005,"lat":52.842287833,"lon":5.705821000,"altHAE":41.0000,"altMSL":-4.8000,"alt":-4.8000,"epx":8.142,"epy":12.972,"epv":40.020,"magvar":1.7,"speed":0.005,"climb":0.100,"eps":25.94,"epc":80.04,"geoidSep":45.800,"eph":19.570,"sep":38.380}
{"class":"SKY","gdop":2.28,"hdop":1.03,"pdop":2.02,"tdop":1.04,"xdop":0.54,"ydop":0.86,"vdop":1.74,"uSat":9}
{"class":"AIS","type":1,"repeat":0,"mmsi":244170038,"scaled":false,"status":0,"status_text":"Under way using engine","turn":-128,"speed":0,"accuracy":false,"lon":3426838,"lat":31704981,"course":0,"heading":511,"second":55,"maneuver":0,"raim":false,"radio":81958}
$GPRMC,213959.00,A,5250.53733,N,00542.34925,E,0.022,,070420,,,A*7D
$GPVTG,,T,,M,0.022,N,0.041,K,A*26
$GPGGA,213959.00,5250.53733,N,00542.34925,E,1,09,1.03,-4.7,M,45.8,M,,*7C
{"class":"SKY","hdop":1.03,"uSat":9}
$GPGSA,A,3,11,32,14,28,22,03,10,08,17,,,,2.02,1.03,1.74*00
{"class":"SKY","hdop":1.03,"pdop":2.02,"vdop":1.74,"uSat":9}
$GPGSV,3,1,10,03,39,230,19,08,31,170,25,10,08,058,30,11,65,149,31*7B
$GPGSV,3,2,10,14,43,097,39,17,19,316,28,22,66,224,34,27,04,155,*7C
$GPGSV,3,3,10,28,26,288,33,32,38,065,42*7B
{"class":"SKY","gdop":2.28,"hdop":1.03,"pdop":2.02,"tdop":1.04,"xdop":0.54,"ydop":0.86,"vdop":1.74,"nSat":10,"uSat":9,"satellites":[{"PRN":3,"gnssid":0,"svid":3,"az":230.0,"el":39.0,"ss":19.0,"used":true},{"PRN":8,"gnssid":0,"svid":8,"az":170.0,"el":31.0,"ss":25.0,"used":true},{"PRN":10,"gnssid":0,"svid":10,"az":58.0,"el":8.0,"ss":30.0,"used":true},{"PRN":11,"gnssid":0,"svid":11,"az":149.0,"el":65.0,"ss":31.0,"used":true},{"PRN":14,"gnssid":0,"svid":14,"az":97.0,"el":43.0,"ss":39.0,"used":true},{"PRN":17,"gnssid":0,"svid":17,"az":316.0,"el":19.0,"ss":28.0,"used":true},{"PRN":22,"gnssid":0,"svid":22,"az":224.0,"el":66.0,"ss":34.0,"used":true},{"PRN":27,"gnssid":0,"svid":27,"az":155.0,"el":4.0,"ss":0.0,"used":false},{"PRN":28,"gnssid":0,"svid":28,"az":288.0,"el":26.0,"ss":33.0,"used":true},{"PRN":32,"gnssid":0,"svid":32,"az":65.0,"el":38.0,"ss":42.0,"used":true}]}
$GPGLL,5250.53733,N,00542.34925,E,213959.00,A,A*65
{"class":"TPV","mode":3,"time":"2020-04-07T21:39:59.000Z","ept":0.005,"lat":52.842288833,"lon":5.705820833,"altHAE":41.1000,"altMSL":-4.7000,"alt":-4.7000,"epx":8.142,"epy":12.972,"epv":40.020,"magvar":1.7,"speed":0.011,"climb":0.100,"eps":25.94,"epc":80.04,"geoidSep":45.800,"eph":19.570,"sep":38.380}
{"class":"SKY","gdop":2.28,"hdop":1.03,"pdop":2.02,"tdop":1.04,"xdop":0.54,"ydop":0.86,"vdop":1.74,"uSat":9}
$GPRMC,214000.00,A,5250.53739,N,00542.34924,E,0.025,,070420,,,A*73
$GPVTG,,T,,M,0.025,N,0.047,K,A*27
$GPGGA,214000.00,5250.53739,N,00542.34924,E,1,09,1.03,-4.6,M,45.8,M,,*74
{"class":"SKY","hdop":1.03,"uSat":9}
$GPGSA,A,3,11,32,14,28,22,03,10,08,17,,,,2.02,1.03,1.74*00
{"class":"SKY","hdop":1.03,"pdop":2.02,"vdop":1.74,"uSat":9}
$GPGSV,3,1,10,03,39,230,18,08,31,170,25,10,08,058,31,11,65,149,30*7A
$GPGSV,3,2,10,14,43,097,39,17,19,316,29,22,66,224,34,27,04,155,*7D
$GPGSV,3,3,10,28,26,288,33,32,38,065,42*7B
{"class":"SKY","gdop":2.28,"hdop":1.03,"pdop":2.02,"tdop":1.04,"xdop":0.54,"ydop":0.86,"vdop":1.74,"nSat":10,"uSat":9,"satellites":[{"PRN":3,"gnssid":0,"svid":3,"az":230.0,"el":39.0,"ss":18.0,"used":true},{"PRN":8,"gnssid":0,"svid":8,"az":170.0,"el":31.0,"ss":25.0,"used":true},{"PRN":10,"gnssid":0,"svid":10,"az":58.0,"el":8.0,"ss":31.0,"used":true},{"PRN":11,"gnssid":0,"svid":11,"az":149.0,"el":65.0,"ss":30.0,"used":true},{"PRN":14,"gnssid":0,"svid":14,"az":97.0,"el":43.0,"ss":39.0,"used":true},{"PRN":17,"gnssid":0,"svid":17,"az":316.0,"el":19.0,"ss":29.0,"used":true},{"PRN":22,"gnssid":0,"svid":22,"az":224.0,"el":66.0,"ss":34.0,"used":true},{"PRN":27,"gnssid":0,"svid":27,"az":155.0,"el":4.0,"ss":0.0,"used":false},{"PRN":28,"gnssid":0,"svid":28,"az":288.0,"el":26.0,"ss":33.0,"used":true},{"PRN":32,"gnssid":0,"svid":32,"az":65.0,"el":38.0,"ss":42.0,"used":true}]}
$GPGLL,5250.53739,N,00542.34924,E,214000.00,A,A*6C
{"class":"TPV","mode":3,"time":"2020-04-07T21:40:00.000Z","ept":0.005,"lat":52.842289833,"lon":5.705820667,"altHAE":41.2000,"altMSL":-4.6000,"alt":-4.6000,"epx":8.142,"epy":12.972,"epv":40.020,"magvar":1.7,"speed":0.013,"climb":0.100,"eps":25.94,"epc":80.04,"geoidSep":45.800,"eph":19.570,"sep":38.380}
{"class":"SKY","gdop":2.28,"hdop":1.03,"pdop":2.02,"tdop":1.04,"xdop":0.54,"ydop":0.86,"vdop":1.74,"uSat":9}
$GPRMC,214001.00,A,5250.53745,N,00542.34922,E,0.029,,070420,,,A*73
$GPVTG,,T,,M,0.029,N,0.053,K,A*2E
$GPGGA,214001.00,5250.53745,N,00542.34922,E,1,09,1.03,-4.6,M,45.8,M,,*78
{"class":"SKY","hdop":1.03,"uSat":9}
!AIVDM,1,1,,A,13aGrVHP000J8V:N?5BP0?wl0<0f,0*08
{"class":"AIS","type":1,"repeat":0,"mmsi":244710041,"scaled":false,"status":8,"status_text":"Under way sailing","turn":-128,"speed":0,"accuracy":false,"lon":3425477,"lat":31704394,"course":0,"heading":511,"second":58,"maneuver":0,"raim":false,"radio":49198}
$GPGSA,A,3,11,32,14,28,22,03,10,08,17,,,,2.02,1.03,1.74*00
{"class":"SKY","hdop":1.03,"pdop":2.02,"vdop":1.74,"uSat":9}
$GPGSV,3,1,10,03,39,230,19,08,31,170,24,10,08,058,32,11,65,149,31*78
$GPGSV,3,2,10,14,43,097,40,17,19,316,29,22,66,224,35,27,04,155,*72
$GPGSV,3,3,10,28,26,288,33,32,38,065,42*7B
{"class":"SKY","gdop":2.28,"hdop":1.03,"pdop":2.02,"tdop":1.04,"xdop":0.54,"ydop":0.86,"vdop":1.74,"nSat":10,"uSat":9,"satellites":[{"PRN":3,"gnssid":0,"svid":3,"az":230.0,"el":39.0,"ss":19.0,"used":true},{"PRN":8,"gnssid":0,"svid":8,"az":170.0,"el":31.0,"ss":24.0,"used":true},{"PRN":10,"gnssid":0,"svid":10,"az":58.0,"el":8.0,"ss":32.0,"used":true},{"PRN":11,"gnssid":0,"svid":11,"az":149.0,"el":65.0,"ss":31.0,"used":true},{"PRN":14,"gnssid":0,"svid":14,"az":97.0,"el":43.0,"ss":40.0,"used":true},{"PRN":17,"gnssid":0,"svid":17,"az":316.0,"el":19.0,"ss":29.0,"used":true},{"PRN":22,"gnssid":0,"svid":22,"az":224.0,"el":66.0,"ss":35.0,"used":true},{"PRN":27,"gnssid":0,"svid":27,"az":155.0,"el":4.0,"ss":0.0,"used":false},{"PRN":28,"gnssid":0,"svid":28,"az":288.0,"el":26.0,"ss":33.0,"used":true},{"PRN":32,"gnssid":0,"svid":32,"az":65.0,"el":38.0,"ss":42.0,"used":true}]}
$GPGLL,5250.53745,N,00542.34922,E,214001.00,A,A*60
{"class":"TPV","mode":3,"time":"2020-04-07T21:40:01.000Z","ept":0.005,"lat":52.842290833,"lon":5.705820333,"altHAE":41.2000,"altMSL":-4.6000,"alt":-4.6000,"epx":8.142,"epy":12.972,"epv":40.020,"magvar":1.7,"speed":0.015,"climb":0.000,"eps":25.94,"epc":80.04,"geoidSep":45.800,"eph":19.570,"sep":38.380}
{"class":"SKY","gdop":2.28,"hdop":1.03,"pdop":2.02,"tdop":1.04,"xdop":0.54,"ydop":0.86,"vdop":1.74,"uSat":9}
{"class":"AIS","type":1,"repeat":0,"mmsi":244710041,"scaled":false,"status":8,"status_text":"Under way sailing","turn":-128,"speed":0,"accuracy":false,"lon":3425477,"lat":31704394,"course":0,"heading":511,"second":58,"maneuver":0,"raim":false,"radio":49198}
$GPRMC,214002.00,A,5250.53751,N,00542.34921,E,0.014,,070420,,,A*78
!AIVDM,1,1,,A,13aDp<PP000IwSdN?Wlh0?wj2<1T,0*2F
{"class":"AIS","type":1,"repeat":0,"mmsi":244660274,"scaled":false,"status":0,"status_text":"Under way using engine","turn":-128,"speed":0,"accuracy":false,"lon":3406966,"lat":31713235,"course":0,"heading":511,"second":57,"maneuver":0,"raim":true,"radio":49252}
$GPVTG,,T,,M,0.014,N,0.026,K,A*22
$GPGGA,214002.00,5250.53751,N,00542.34921,E,1,09,1.03,-4.5,M,45.8,M,,*7E
{"class":"SKY","hdop":1.03,"uSat":9}
$GPGSA,A,3,11,32,14,28,22,03,10,08,17,,,,2.02,1.03,1.74*00
{"class":"SKY","hdop":1.03,"pdop":2.02,"vdop":1.74,"uSat":9}
$GPGSV,3,1,10,03,39,230,19,08,31,170,26,10,08,058,31,11,65,149,31*79
$GPGSV,3,2,10,14,43,097,40,17,19,316,29,22,66,224,34,27,04,155,*73
$GPGSV,3,3,10,28,26,288,33,32,38,065,42*7B
{"class":"SKY","gdop":2.28,"hdop":1.03,"pdop":2.02,"tdop":1.04,"xdop":0.54,"ydop":0.86,"vdop":1.74,"nSat":10,"uSat":9,"satellites":[{"PRN":3,"gnssid":0,"svid":3,"az":230.0,"el":39.0,"ss":19.0,"used":true},{"PRN":8,"gnssid":0,"svid":8,"az":170.0,"el":31.0,"ss":26.0,"used":true},{"PRN":10,"gnssid":0,"svid":10,"az":58.0,"el":8.0,"ss":31.0,"used":true},{"PRN":11,"gnssid":0,"svid":11,"az":149.0,"el":65.0,"ss":31.0,"used":true},{"PRN":14,"gnssid":0,"svid":14,"az":97.0,"el":43.0,"ss":40.0,"used":true},{"PRN":17,"gnssid":0,"svid":17,"az":316.0,"el":19.0,"ss":29.0,"used":true},{"PRN":22,"gnssid":0,"svid":22,"az":224.0,"el":66.0,"ss":34.0,"used":true},{"PRN":27,"gnssid":0,"svid":27,"az":155.0,"el":4.0,"ss":0.0,"used":false},{"PRN":28,"gnssid":0,"svid":28,"az":288.0,"el":26.0,"ss":33.0,"used":true},{"PRN":32,"gnssid":0,"svid":32,"az":65.0,"el":38.0,"ss":42.0,"used":true}]}
$GPGLL,5250.53751,N,00542.34921,E,214002.00,A,A*65
{"class":"TPV","mode":3,"time":"2020-04-07T21:40:02.000Z","ept":0.005,"lat":52.842291833,"lon":5.705820167,"altHAE":41.3000,"altMSL":-4.5000,"alt":-4.5000,"epx":8.142,"epy":12.972,"epv":40.020,"magvar":1.7,"speed":0.007,"climb":0.100,"eps":25.94,"epc":80.04,"geoidSep":45.800,"eph":19.570,"sep":38.380}
{"class":"SKY","gdop":2.28,"hdop":1.03,"pdop":2.02,"tdop":1.04,"xdop":0.54,"ydop":0.86,"vdop":1.74,"uSat":9}
{"class":"AIS","type":1,"repeat":0,"mmsi":244660274,"scaled":false,"status":0,"status_text":"Under way using engine","turn":-128,"speed":0,"accuracy":false,"lon":3406966,"lat":31713235,"course":0,"heading":511,"second":57,"maneuver":0,"raim":true,"radio":49252}
$GPRMC,214003.00,A,5250.53762,N,00542.34920,E,0.080,,070420,,,A*75
$GPVTG,,T,,M,0.080,N,0.148,K,A*26
$GPGGA,214003.00,5250.53762,N,00542.34920,E,1,09,1.03,-4.2,M,45.8,M,,*79
{"class":"SKY","hdop":1.03,"uSat":9}
$GPGSA,A,3,11,32,14,28,22,03,10,08,17,,,,2.02,1.03,1.74*00
{"class":"SKY","hdop":1.03,"pdop":2.02,"vdop":1.74,"uSat":9}
$GPGSV,3,1,10,03,39,230,19,08,31,170,27,10,08,058,31,11,65,149,30*79
$GPGSV,3,2,10,14,43,097,40,17,19,316,29,22,66,224,34,27,04,155,*73
$GPGSV,3,3,10,28,26,288,33,32,38,065,42*7B
{"class":"SKY","gdop":2.28,"hdop":1.03,"pdop":2.02,"tdop":1.04,"xdop":0.54,"ydop":0.86,"vdop":1.74,"nSat":10,"uSat":9,"satellites":[{"PRN":3,"gnssid":0,"svid":3,"az":230.0,"el":39.0,"ss":19.0,"used":true},{"PRN":8,"gnssid":0,"svid":8,"az":170.0,"el":31.0,"ss":27.0,"used":true},{"PRN":10,"gnssid":0,"svid":10,"az":58.0,"el":8.0,"ss":31.0,"used":true},{"PRN":11,"gnssid":0,"svid":11,"az":149.0,"el":65.0,"ss":30.0,"used":true},{"PRN":14,"gnssid":0,"svid":14,"az":97.0,"el":43.0,"ss":40.0,"used":true},{"PRN":17,"gnssid":0,"svid":17,"az":316.0,"el":19.0,"ss":29.0,"used":true},{"PRN":22,"gnssid":0,"svid":22,"az":224.0,"el":66.0,"ss":34.0,"used":true},{"PRN":27,"gnssid":0,"svid":27,"az":155.0,"el":4.0,"ss":0.0,"used":false},{"PRN":28,"gnssid":0,"svid":28,"az":288.0,"el":26.0,"ss":33.0,"used":true},{"PRN":32,"gnssid":0,"svid":32,"az":65.0,"el":38.0,"ss":42.0,"used":true}]}
$GPGLL,5250.53762,N,00542.34920,E,214003.00,A,A*65
{"class":"TPV","mode":3,"time":"2020-04-07T21:40:03.000Z","ept":0.005,"lat":52.842293667,"lon":5.705820000,"altHAE":41.6000,"altMSL":-4.2000,"alt":-4.2000,"epx":8.142,"epy":12.972,"epv":40.020,"magvar":1.7,"speed":0.041,"climb":0.300,"eps":25.94,"epc":80.04,"geoidSep":45.800,"eph":19.570,"sep":38.380}
{"class":"SKY","gdop":2.28,"hdop":1.03,"pdop":2.02,"tdop":1.04,"xdop":0.54,"ydop":0.86,"vdop":1.74,"uSat":9}
!AIVDM,1,1,,A,B3`eLE00006R0J7Si`WQ3wP1jDkr,0*3C
{"class":"AIS","type":18,"repeat":0,"mmsi":244014164,"scaled":false,"reserved":0,"speed":0,"accuracy":false,"lon":3424308,"lat":31704713,"course":3600,"heading":511,"second":0,"regional":0,"cs":false,"display":false,"dsc":true,"band":true,"msg22":true,"raim":false,"radio":609530}
$GPRMC,214004.00,A,5250.53770,N,00542.34919,E,0.053,,070420,,,A*75
$GPVTG,,T,,M,0.053,N,0.098,K,A*24
$GPGGA,214004.00,5250.53770,N,00542.34919,E,1,09,1.03,-4.1,M,45.8,M,,*74
{"class":"SKY","hdop":1.03,"uSat":9}
!AIVDM,1,1,,B,H39sGlPhT8E9@5<000000000000,2*5C
$GPGSA,A,3,11,32,14,28,22,03,10,08,17,,,,2.02,1.03,1.74*00
{"class":"SKY","hdop":1.03,"pdop":2.02,"vdop":1.74,"uSat":9}
$GPGSV,3,1,10,03,39,230,18,08,31,170,27,10,08,058,31,11,65,149,30*78
!AIVDM,1,1,,A,140Ut9@P000J9DhN?1M00?v206bP,0*36
{"class":"AIS","type":1,"repeat":0,"mmsi":269057061,"scaled":false,"status":0,"status_text":"Under way using engine","turn":-128,"speed":0,"accuracy":false,"lon":3426968,"lat":31703412,"course":0,"heading":511,"second":1,"maneuver":0,"raim":false,"radio":27296}
!AIVDM,1,1,,B,13aDq30P00PJ8BjN?0@00?v220SC,0*42
{"class":"AIS","type":1,"repeat":0,"mmsi":244660492,"scaled":false,"status":0,"status_text":"Under way using engine","turn":-128,"speed":0,"accuracy":true,"lon":3424857,"lat":31703104,"course":0,"heading":511,"second":1,"maneuver":0,"raim":true,"radio":2259}
$GPGSV,3,2,10,14,43,097,40,17,19,316,29,22,66,224,34,27,04,155,*73
$GPGSV,3,3,10,28,26,288,33,32,38,065,42*7B
{"class":"SKY","gdop":2.28,"hdop":1.03,"pdop":2.02,"tdop":1.04,"xdop":0.54,"ydop":0.86,"vdop":1.74,"nSat":10,"uSat":9,"satellites":[{"PRN":3,"gnssid":0,"svid":3,"az":230.0,"el":39.0,"ss":18.0,"used":true},{"PRN":8,"gnssid":0,"svid":8,"az":170.0,"el":31.0,"ss":27.0,"used":true},{"PRN":10,"gnssid":0,"svid":10,"az":58.0,"el":8.0,"ss":31.0,"used":true},{"PRN":11,"gnssid":0,"svid":11,"az":149.0,"el":65.0,"ss":30.0,"used":true},{"PRN":14,"gnssid":0,"svid":14,"az":97.0,"el":43.0,"ss":40.0,"used":true},{"PRN":17,"gnssid":0,"svid":17,"az":316.0,"el":19.0,"ss":29.0,"used":true},{"PRN":22,"gnssid":0,"svid":22,"az":224.0,"el":66.0,"ss":34.0,"used":true},{"PRN":27,"gnssid":0,"svid":27,"az":155.0,"el":4.0,"ss":0.0,"used":false},{"PRN":28,"gnssid":0,"svid":28,"az":288.0,"el":26.0,"ss":33.0,"used":true},{"PRN":32,"gnssid":0,"svid":32,"az":65.0,"el":38.0,"ss":42.0,"used":true}]}
$GPGLL,5250.53770,N,00542.34919,E,214004.00,A,A*6B
{"class":"TPV","mode":3,"time":"2020-04-07T21:40:04.000Z","ept":0.005,"lat":52.842295000,"lon":5.705819833,"altHAE":41.7000,"altMSL":-4.1000,"alt":-4.1000,"epx":8.142,"epy":12.972,"epv":40.020,"magvar":1.7,"speed":0.027,"climb":0.100,"eps":25.94,"epc":80.04,"geoidSep":45.800,"eph":19.570,"sep":38.380}
{"class":"SKY","gdop":2.28,"hdop":1.03,"pdop":2.02,"tdop":1.04,"xdop":0.54,"ydop":0.86,"vdop":1.74,"uSat":9}
{"class":"AIS","type":1,"repeat":0,"mmsi":244660492,"scaled":false,"status":0,"status_text":"Under way using engine","turn":-128,"speed":0,"accuracy":true,"lon":3424857,"lat":31703104,"course":0,"heading":511,"second":1,"maneuver":0,"raim":true,"radio":2259}
$GPRMC,214005.00,A,5250.53776,N,00542.34920,E,0.049,,070420,,,A*73
$GPVTG,,T,,M,0.049,N,0.091,K,A*26
$GPGGA,214005.00,5250.53776,N,00542.34920,E,1,09,1.03,-4.1,M,45.8,M,,*79
{"class":"SKY","hdop":1.03,"uSat":9}
$GPGSA,A,3,11,32,14,28,22,03,10,08,17,,,,2.02,1.03,1.73*07
{"class":"SKY","hdop":1.03,"pdop":2.02,"vdop":1.73,"uSat":9}
$GPGSV,3,1,10,03,39,230,15,08,31,170,26,10,08,058,30,11,65,149,30*75
$GPGSV,3,2,10,14,43,097,40,17,19,316,29,22,66,224,33,27,04,155,*74
$GPGSV,3,3,10,28,26,288,32,32,38,065,42*7A
{"class":"SKY","gdop":2.28,"hdop":1.03,"pdop":2.02,"tdop":1.04,"xdop":0.54,"ydop":0.86,"vdop":1.73,"nSat":10,"uSat":9,"satellites":[{"PRN":3,"gnssid":0,"svid":3,"az":230.0,"el":39.0,"ss":15.0,"used":true},{"PRN":8,"gnssid":0,"svid":8,"az":170.0,"el":31.0,"ss":26.0,"used":true},{"PRN":10,"gnssid":0,"svid":10,"az":58.0,"el":8.0,"ss":30.0,"used":true},{"PRN":11,"gnssid":0,"svid":11,"az":149.0,"el":65.0,"ss":30.0,"used":true},{"PRN":14,"gnssid":0,"svid":14,"az":97.0,"el":43.0,"ss":40.0,"used":true},{"PRN":17,"gnssid":0,"svid":17,"az":316.0,"el":19.0,"ss":29.0,"used":true},{"PRN":22,"gnssid":0,"svid":22,"az":224.0,"el":66.0,"ss":33.0,"used":true},{"PRN":27,"gnssid":0,"svid":27,"az":155.0,"el":4.0,"ss":0.0,"used":false},{"PRN":28,"gnssid":0,"svid":28,"az":288.0,"el":26.0,"ss":32.0,"used":true},{"PRN":32,"gnssid":0,"svid":32,"az":65.0,"el":38.0,"ss":42.0,"used":true}]}
$GPGLL,5250.53776,N,00542.34920,E,214005.00,A,A*66
{"class":"TPV","mode":3,"time":"2020-04-07T21:40:05.000Z","ept":0.005,"lat":52.842296000,"lon":5.705820000,"altHAE":41.7000,"altMSL":-4.1000,"alt":-4.1000,"epx":8.142,"epy":12.972,"epv":39.790,"magvar":1.7,"speed":0.025,"climb":0.000,"eps":25.94,"epc":79.81,"geoidSep":45.800,"eph":19.570,"sep":38.380}
{"class":"SKY","gdop":2.28,"hdop":1.03,"pdop":2.02,"tdop":1.04,"xdop":0.54,"ydop":0.86,"vdop":1.73,"uSat":9}
$GPRMC,214006.00,A,5250.53784,N,00542.34919,E,0.081,,070420,,,A*73
$GPVTG,,T,,M,0.081,N,0.151,K,A*2F
$GPGGA,214006.00,5250.53784,N,00542.34919,E,1,09,1.03,-3.9,M,45.8,M,,*72
{"class":"SKY","hdop":1.03,"uSat":9}
!AIVDM,1,1,,B,13aL?W0P00PJ9SNN?1dP0?v6281s,0*4F
{"class":"AIS","type":1,"repeat":0,"mmsi":244780956,"scaled":false,"status":0,"status_text":"Under way using engine","turn":-128,"speed":0,"accuracy":true,"lon":3427439,"lat":31703474,"course":0,"heading":511,"second":3,"maneuver":0,"raim":true,"radio":32891}
$GPGSA,A,3,11,32,14,28,22,03,10,08,17,,,,2.01,1.03,1.73*04
{"class":"SKY","hdop":1.03,"pdop":2.01,"vdop":1.73,"uSat":9}
$GPGSV,3,1,10,03,39,230,14,08,31,170,26,10,08,058,30,11,65,149,29*7C
$GPGSV,3,2,10,14,43,097,40,17,19,316,29,22,66,224,33,27,04,155,*74
!AIVDM,1,1,,B,13`nu=PP000J9A4N?7Uh0?v60<0V,0*09
{"class":"AIS","type":1,"repeat":0,"mmsi":244170038,"scaled":false,"status":0,"status_text":"Under way using engine","turn":-128,"speed":0,"accuracy":false,"lon":3426850,"lat":31704983,"course":0,"heading":511,"second":3,"maneuver":0,"raim":false,"radio":49190}
$GPGSV,3,3,10,28,26,288,32,32,38,065,42*7A
{"class":"SKY","gdop":2.28,"hdop":1.03,"pdop":2.01,"tdop":1.04,"xdop":0.54,"ydop":0.86,"vdop":1.73,"nSat":10,"uSat":9,"satellites":[{"PRN":3,"gnssid":0,"svid":3,"az":230.0,"el":39.0,"ss":14.0,"used":true},{"PRN":8,"gnssid":0,"svid":8,"az":170.0,"el":31.0,"ss":26.0,"used":true},{"PRN":10,"gnssid":0,"svid":10,"az":58.0,"el":8.0,"ss":30.0,"used":true},{"PRN":11,"gnssid":0,"svid":11,"az":149.0,"el":65.0,"ss":29.0,"used":true},{"PRN":14,"gnssid":0,"svid":14,"az":97.0,"el":43.0,"ss":40.0,"used":true},{"PRN":17,"gnssid":0,"svid":17,"az":316.0,"el":19.0,"ss":29.0,"used":true},{"PRN":22,"gnssid":0,"svid":22,"az":224.0,"el":66.0,"ss":33.0,"used":true},{"PRN":27,"gnssid":0,"svid":27,"az":155.0,"el":4.0,"ss":0.0,"used":false},{"PRN":28,"gnssid":0,"svid":28,"az":288.0,"el":26.0,"ss":32.0,"used":true},{"PRN":32,"gnssid":0,"svid":32,"az":65.0,"el":38.0,"ss":42.0,"used":true}]}
$GPGLL,5250.53784,N,00542.34919,E,214006.00,A,A*62
{"class":"TPV","mode":3,"time":"2020-04-07T21:40:06.000Z","ept":0.005,"lat":52.842297333,"lon":5.705819833,"altHAE":41.9000,"altMSL":-3.9000,"alt":-3.9000,"epx":8.142,"epy":12.972,"epv":39.790,"magvar":1.7,"speed":0.042,"climb":0.200,"eps":25.94,"epc":79.58,"geoidSep":45.800,"eph":19.570,"sep":38.190}
{"class":"SKY","gdop":2.28,"hdop":1.03,"pdop":2.01,"tdop":1.04,"xdop":0.54,"ydop":0.86,"vdop":1.73,"uSat":9}
{"class":"AIS","type":1,"repeat":0,"mmsi":244170038,"scaled":false,"status":0,"status_text":"Under way using engine","turn":-128,"speed":0,"accuracy":false,"lon":3426850,"lat":31704983,"course":0,"heading":511,"second":3,"maneuver":0,"raim":false,"radio":49190}
!AIVDM,1,1,,B,13P<JdP000PJ76<N>wBJH6r80H27,0*64
{"class":"AIS","type":1,"repeat":0,"mmsi":235084466,"scaled":false,"status":0,"status_text":"Under way using engine","turn":0,"speed":0,"accuracy":true,"lon":3422406,"lat":31702857,"course":2656,"heading":221,"second":4,"maneuver":0,"raim":false,"radio":98439}
$GPRMC,214007.00,A,5250.53792,N,00542.34920,E,0.124,,070420,,,A*71
$GPVTG,,T,,M,0.124,N,0.229,K,A*2D
$GPGGA,214007.00,5250.53792,N,00542.34920,E,1,09,1.02,-3.7,M,45.8,M,,*71
{"class":"SKY","hdop":1.02,"uSat":9}
$GPGSA,A,3,11,32,14,28,22,03,10,08,17,,,,2.01,1.02,1.73*05
{"class":"SKY","hdop":1.02,"pdop":2.01,"vdop":1.73,"uSat":9}
$GPGSV,3,1,10,03,39,230,13,08,31,170,27,10,08,058,30,11,65,149,29*7A
$GPGSV,3,2,10,14,43,097,40,17,19,316,30,22,66,224,33,27,04,155,*7C
$GPGSV,3,3,10,28,26,288,32,32,38,065,42*7A
{"class":"SKY","gdop":2.28,"hdop":1.02,"pdop":2.01,"tdop":1.04,"xdop":0.54,"ydop":0.86,"vdop":1.73,"nSat":10,"uSat":9,"satellites":[{"PRN":3,"gnssid":0,"svid":3,"az":230.0,"el":39.0,"ss":13.0,"used":true},{"PRN":8,"gnssid":0,"svid":8,"az":170.0,"el":31.0,"ss":27.0,"used":true},{"PRN":10,"gnssid":0,"svid":10,"az":58.0,"el":8.0,"ss":30.0,"used":true},{"PRN":11,"gnssid":0,"svid":11,"az":149.0,"el":65.0,"ss":29.0,"used":true},{"PRN":14,"gnssid":0,"svid":14,"az":97.0,"el":43.0,"ss":40.0,"used":true},{"PRN":17,"gnssid":0,"svid":17,"az":316.0,"el":19.0,"ss":30.0,"used":true},{"PRN":22,"gnssid":0,"svid":22,"az":224.0,"el":66.0,"ss":33.0,"used":true},{"PRN":27,"gnssid":0,"svid":27,"az":155.0,"el":4.0,"ss":0.0,"used":false},{"PRN":28,"gnssid":0,"svid":28,"az":288.0,"el":26.0,"ss":32.0,"used":true},{"PRN":32,"gnssid":0,"svid":32,"az":65.0,"el":38.0,"ss":42.0,"used":true}]}
$GPGLL,5250.53792,N,00542.34920,E,214007.00,A,A*6E
{"class":"TPV","mode":3,"time":"2020-04-07T21:40:07.000Z","ept":0.005,"lat":52.842298667,"lon":5.705820000,"altHAE":42.1000,"altMSL":-3.7000,"alt":-3.7000,"epx":8.142,"epy":12.972,"epv":39.790,"magvar":1.7,"speed":0.064,"climb":0.200,"eps":25.94,"epc":79.58,"geoidSep":45.800,"eph":19.380,"sep":38.190}
{"class":"SKY","gdop":2.28,"hdop":1.02,"pdop":2.01,"tdop":1.04,"xdop":0.54,"ydop":0.86,"vdop":1.73,"uSat":9}
{"class":"AIS","type":1,"repeat":0,"mmsi":235084466,"scaled":false,"status":0,"status_text":"Under way using engine","turn":0,"speed":0,"accuracy":true,"lon":3422406,"lat":31702857,"course":2656,"heading":221,"second":4,"maneuver":0,"raim":false,"radio":98439}
!AIVDM,1,1,,A,13aNoh0000PJ7>HN>wl@?Vv:0D2;,0*24
{"class":"AIS","type":1,"repeat":0,"mmsi":244824000,"scaled":false,"status":0,"status_text":"Under way using engine","turn":0,"speed":0,"accuracy":true,"lon":3422668,"lat":31702993,"course":62,"heading":223,"second":5,"maneuver":0,"raim":false,"radio":82059}
$GPRMC,214008.00,A,5250.53799,N,00542.34922,E,0.090,,070420,,,A*79
$GPVTG,,T,,M,0.090,N,0.167,K,A*2A
$GPGGA,214008.00,5250.53799,N,00542.34922,E,1,09,1.02,-3.5,M,45.8,M,,*75
{"class":"SKY","hdop":1.02,"uSat":9}
$GPGSA,A,3,11,32,14,28,22,03,10,08,17,,,,2.01,1.02,1.73*05
{"class":"SKY","hdop":1.02,"pdop":2.01,"vdop":1.73,"uSat":9}
$GPGSV,3,1,10,03,39,230,13,08,31,170,27,10,08,058,30,11,65,149,29*7A
$GPGSV,3,2,10,14,43,097,40,17,19,316,30,22,66,224,33,27,04,155,*7C
$GPGSV,3,3,10,28,26,288,32,32,38,065,42*7A
{"class":"SKY","gdop":2.28,"hdop":1.02,"pdop":2.01,"tdop":1.04,"xdop":0.54,"ydop":0.86,"vdop":1.73,"nSat":10,"uSat":9,"satellites":[{"PRN":3,"gnssid":0,"svid":3,"az":230.0,"el":39.0,"ss":13.0,"used":true},{"PRN":8,"gnssid":0,"svid":8,"az":170.0,"el":31.0,"ss":27.0,"used":true},{"PRN":10,"gnssid":0,"svid":10,"az":58.0,"el":8.0,"ss":30.0,"used":true},{"PRN":11,"gnssid":0,"svid":11,"az":149.0,"el":65.0,"ss":29.0,"used":true},{"PRN":14,"gnssid":0,"svid":14,"az":97.0,"el":43.0,"ss":40.0,"used":true},{"PRN":17,"gnssid":0,"svid":17,"az":316.0,"el":19.0,"ss":30.0,"used":true},{"PRN":22,"gnssid":0,"svid":22,"az":224.0,"el":66.0,"ss":33.0,"used":true},{"PRN":27,"gnssid":0,"svid":27,"az":155.0,"el":4.0,"ss":0.0,"used":false},{"PRN":28,"gnssid":0,"svid":28,"az":288.0,"el":26.0,"ss":32.0,"used":true},{"PRN":32,"gnssid":0,"svid":32,"az":65.0,"el":38.0,"ss":42.0,"used":true}]}
$GPGLL,5250.53799,N,00542.34922,E,214008.00,A,A*68
{"class":"TPV","mode":3,"time":"2020-04-07T21:40:08.000Z","ept":0.005,"lat":52.842299833,"lon":5.705820333,"altHAE":42.3000,"altMSL":-3.5000,"alt":-3.5000,"epx":8.142,"epy":12.972,"epv":39.790,"magvar":1.7,"speed":0.046,"climb":0.200,"eps":25.94,"epc":79.58,"geoidSep":45.800,"eph":19.380,"sep":38.190}
{"class":"SKY","gdop":2.28,"hdop":1.02,"pdop":2.01,"tdop":1.04,"xdop":0.54,"ydop":0.86,"vdop":1.73,"uSat":9}
{"class":"AIS","type":1,"repeat":0,"mmsi":244824000,"scaled":false,"status":0,"status_text":"Under way using engine","turn":0,"speed":0,"accuracy":true,"lon":3422668,"lat":31702993,"course":62,"heading":223,"second":5,"maneuver":0,"raim":false,"radio":82059}
$GPRMC,214009.00,A,5250.53803,N,00542.34922,E,0.026,,070420,,,A*79
!AIVDM,1,1,,B,B3aQ6Wh0086QhpWSk46g?wRUoP06,0*56
{"class":"AIS","type":18,"repeat":0,"mmsi":244860575,"scaled":false,"reserved":0,"speed":0,"accuracy":true,"lon":3422321,"lat":31706177,"course":2803,"heading":511,"second":5,"regional":0,"cs":true,"display":false,"dsc":true,"band":true,"msg22":true,"raim":true,"radio":917510}
$GPVTG,,T,,M,0.026,N,0.048,K,A*2B
$GPGGA,214009.00,5250.53803,N,00542.34922,E,1,09,1.02,-3.4,M,45.8,M,,*79
{"class":"SKY","hdop":1.02,"uSat":9}
$GPGSA,A,3,11,32,14,28,22,03,10,08,17,,,,2.01,1.02,1.73*05
{"class":"SKY","hdop":1.02,"pdop":2.01,"vdop":1.73,"uSat":9}
$GPGSV,3,1,10,03,39,230,12,08,31,170,26,10,08,058,30,11,65,149,29*7A
$GPGSV,3,2,10,14,43,097,39,17,19,316,30,22,66,224,34,27,04,155,*75
$GPGSV,3,3,10,28,26,288,32,32,38,065,42*7A
{"class":"SKY","gdop":2.28,"hdop":1.02,"pdop":2.01,"tdop":1.04,"xdop":0.54,"ydop":0.86,"vdop":1.73,"nSat":10,"uSat":9,"satellites":[{"PRN":3,"gnssid":0,"svid":3,"az":230.0,"el":39.0,"ss":12.0,"used":true},{"PRN":8,"gnssid":0,"svid":8,"az":170.0,"el":31.0,"ss":26.0,"used":true},{"PRN":10,"gnssid":0,"svid":10,"az":58.0,"el":8.0,"ss":30.0,"used":true},{"PRN":11,"gnssid":0,"svid":11,"az":149.0,"el":65.0,"ss":29.0,"used":true},{"PRN":14,"gnssid":0,"svid":14,"az":97.0,"el":43.0,"ss":39.0,"used":true},{"PRN":17,"gnssid":0,"svid":17,"az":316.0,"el":19.0,"ss":30.0,"used":true},{"PRN":22,"gnssid":0,"svid":22,"az":224.0,"el":66.0,"ss":34.0,"used":true},{"PRN":27,"gnssid":0,"svid":27,"az":155.0,"el":4.0,"ss":0.0,"used":false},{"PRN":28,"gnssid":0,"svid":28,"az":288.0,"el":26.0,"ss":32.0,"used":true},{"PRN":32,"gnssid":0,"svid":32,"az":65.0,"el":38.0,"ss":42.0,"used":true}]}
$GPGLL,5250.53803,N,00542.34922,E,214009.00,A,A*65
{"class":"TPV","mode":3,"time":"2020-04-07T21:40:09.000Z","ept":0.005,"lat":52.842300500,"lon":5.705820333,"altHAE":42.4000,"altMSL":-3.4000,"alt":-3.4000,"epx":8.142,"epy":12.972,"epv":39.790,"magvar":1.7,"speed":0.013,"climb":0.100,"eps":25.94,"epc":79.58,"geoidSep":45.800,"eph":19.380,"sep":38.190}
{"class":"SKY","gdop":2.28,"hdop":1.02,"pdop":2.01,"tdop":1.04,"xdop":0.54,"ydop":0.86,"vdop":1.73,"uSat":9}
{"class":"AIS","type":18,"repeat":0,"mmsi":244860575,"scaled":false,"reserved":0,"speed":0,"accuracy":true,"lon":3422321,"lat":31706177,"course":2803,"heading":511,"second":5,"regional":0,"cs":true,"display":false,"dsc":true,"band":true,"msg22":true,"raim":true,"radio":917510}
$GPRMC,214010.00,A,5250.53808,N,00542.34920,E,0.112,,070420,,,A*7E
$GPVTG,,T,,M,0.112,N,0.207,K,A*24
$GPGGA,214010.00,5250.53808,N,00542.34920,E,1,09,1.02,-3.3,M,45.8,M,,*7F
{"class":"SKY","hdop":1.02,"uSat":9}
$GPGSA,A,3,11,32,14,28,22,03,10,08,17,,,,2.01,1.02,1.73*05
{"class":"SKY","hdop":1.02,"pdop":2.01,"vdop":1.73,"uSat":9}
$GPGSV,3,1,10,03,39,230,11,08,31,170,25,10,08,058,29,11,65,149,29*72
$GPGSV,3,2,10,14,43,097,39,17,19,316,30,22,66,224,34,27,04,155,*75
$GPGSV,3,3,10,28,26,288,31,32,38,065,42*79
{"class":"SKY","gdop":2.28,"hdop":1.02,"pdop":2.01,"tdop":1.04,"xdop":0.54,"ydop":0.86,"vdop":1.73,"nSat":10,"uSat":9,"satellites":[{"PRN":3,"gnssid":0,"svid":3,"az":230.0,"el":39.0,"ss":11.0,"used":true},{"PRN":8,"gnssid":0,"svid":8,"az":170.0,"el":31.0,"ss":25.0,"used":true},{"PRN":10,"gnssid":0,"svid":10,"az":58.0,"el":8.0,"ss":29.0,"used":true},{"PRN":11,"gnssid":0,"svid":11,"az":149.0,"el":65.0,"ss":29.0,"used":true},{"PRN":14,"gnssid":0,"svid":14,"az":97.0,"el":43.0,"ss":39.0,"used":true},{"PRN":17,"gnssid":0,"svid":17,"az":316.0,"el":19.0,"ss":30.0,"used":true},{"PRN":22,"gnssid":0,"svid":22,"az":224.0,"el":66.0,"ss":34.0,"used":true},{"PRN":27,"gnssid":0,"svid":27,"az":155.0,"el":4.0,"ss":0.0,"used":false},{"PRN":28,"gnssid":0,"svid":28,"az":288.0,"el":26.0,"ss":31.0,"used":true},{"PRN":32,"gnssid":0,"svid":32,"az":65.0,"el":38.0,"ss":42.0,"used":true}]}
$GPGLL,5250.53808,N,00542.34920,E,214010.00,A,A*64
{"class":"TPV","mode":3,"time":"2020-04-07T21:40:10.000Z","ept":0.005,"lat":52.842301333,"lon":5.705820000,"altHAE":42.5000,"altMSL":-3.3000,"alt":-3.3000,"epx":8.142,"epy":12.972,"epv":39.790,"magvar":1.7,"speed":0.058,"climb":0.100,"eps":25.94,"epc":79.58,"geoidSep":45.800,"eph":19.380,"sep":38.190}
{"class":"SKY","gdop":2.28,"hdop":1.02,"pdop":2.01,"tdop":1.04,"xdop":0.54,"ydop":0.86,"vdop":1.73,"uSat":9}
!AIVDM,2,1,4,A,53aGEvp000010;S3KH05H4q@T00000000000000U1@:33tl>0431CCAD,0*0C
!AIVDM,2,2,4,A,P00000000000008,2*48
{"class":"AIS","type":5,"repeat":0,"mmsi":244700667,"scaled":false,"imo":0,"ais_version":2,"callsign":"PB8066","shipname":"AVANTI","shiptype":37,"shiptype_text":"Pleasure Craft","to_bow":10,"to_stern":10,"to_port":3,"to_starboard":3,"epfd":15,"epfd_text":"Internal GNSS","eta":"03-08T14:00Z","draught":16,"destination":"LEMMER","dte":1}
$GPRMC,214011.00,A,5250.53812,N,00542.34918,E,0.100,,070420,,,A*7C
$GPVTG,,T,,M,0.100,N,0.185,K,A*2E
$GPGGA,214011.00,5250.53812,N,00542.34918,E,1,09,1.02,-3.3,M,45.8,M,,*7E
{"class":"SKY","hdop":1.02,"uSat":9}
$GPGSA,A,3,11,32,14,28,22,03,10,08,17,,,,2.01,1.02,1.73*05
{"class":"SKY","hdop":1.02,"pdop":2.01,"vdop":1.73,"uSat":9}
$GPGSV,3,1,10,03,39,230,10,08,31,170,25,10,08,058,28,11,65,149,29*72
$GPGSV,3,2,10,14,43,097,39,17,19,316,31,22,66,224,34,27,04,155,*74
!AIVDM,1,1,,A,33`soB5P00PJ7OrN?2jN4?v@2Dj:,0*11
{"class":"AIS","type":3,"repeat":0,"mmsi":244250440,"scaled":false,"status":5,"status_text":"Moored","turn":-128,"speed":0,"accuracy":true,"lon":3423229,"lat":31703753,"course":3600,"heading":511,"second":8,"maneuver":0,"raim":true,"radio":85130}
$GPGSV,3,3,10,28,26,288,31,32,38,065,42*79
{"class":"SKY","gdop":2.28,"hdop":1.02,"pdop":2.01,"tdop":1.04,"xdop":0.54,"ydop":0.86,"vdop":1.73,"nSat":10,"uSat":9,"satellites":[{"PRN":3,"gnssid":0,"svid":3,"az":230.0,"el":39.0,"ss":10.0,"used":true},{"PRN":8,"gnssid":0,"svid":8,"az":170.0,"el":31.0,"ss":25.0,"used":true},{"PRN":10,"gnssid":0,"svid":10,"az":58.0,"el":8.0,"ss":28.0,"used":true},{"PRN":11,"gnssid":0,"svid":11,"az":149.0,"el":65.0,"ss":29.0,"used":true},{"PRN":14,"gnssid":0,"svid":14,"az":97.0,"el":43.0,"ss":39.0,"used":true},{"PRN":17,"gnssid":0,"svid":17,"az":316.0,"el":19.0,"ss":31.0,"used":true},{"PRN":22,"gnssid":0,"svid":22,"az":224.0,"el":66.0,"ss":34.0,"used":true},{"PRN":27,"gnssid":0,"svid":27,"az":155.0,"el":4.0,"ss":0.0,"used":false},{"PRN":28,"gnssid":0,"svid":28,"az":288.0,"el":26.0,"ss":31.0,"used":true},{"PRN":32,"gnssid":0,"svid":32,"az":65.0,"el":38.0,"ss":42.0,"used":true}]}
$GPGLL,5250.53812,N,00542.34918,E,214011.00,A,A*65
{"class":"TPV","mode":3,"time":"2020-04-07T21:40:11.000Z","ept":0.005,"lat":52.842302000,"lon":5.705819667,"altHAE":42.5000,"altMSL":-3.3000,"alt":-3.3000,"epx":8.142,"epy":12.972,"epv":39.790,"magvar":1.7,"speed":0.051,"climb":0.000,"eps":25.94,"epc":79.58,"geoidSep":45.800,"eph":19.380,"sep":38.190}
{"class":"SKY","gdop":2.28,"hdop":1.02,"pdop":2.01,"tdop":1.04,"xdop":0.54,"ydop":0.86,"vdop":1.73,"uSat":9}
{"class":"AIS","type":3,"repeat":0,"mmsi":244250440,"scaled":false,"status":5,"status_text":"Moored","turn":-128,"speed":0,"accuracy":true,"lon":3423229,"lat":31703753,"course":3600,"heading":511,"second":8,"maneuver":0,"raim":true,"radio":85130}
!AIVDM,1,1,,B,13aGrVHP000J8V8N?5B@0?vB085E,0*14
{"class":"AIS","type":1,"repeat":0,"mmsi":244710041,"scaled":false,"status":8,"status_text":"Under way sailing","turn":-128,"speed":0,"accuracy":false,"lon":3425476,"lat":31704393,"course":0,"heading":511,"second":9,"maneuver":0,"raim":false,"radio":33109}
$GPRMC,214012.00,A,5250.53814,N,00542.34917,E,0.068,,070420,,,A*79
$GPVTG,,T,,M,0.068,N,0.125,K,A*2B
$GPGGA,214012.00,5250.53814,N,00542.34917,E,1,09,1.02,-3.3,M,45.8,M,,*74
{"class":"SKY","hdop":1.02,"uSat":9}
$GPGSA,A,3,11,32,14,28,22,03,10,08,17,,,,2.01,1.02,1.73*05
{"class":"SKY","hdop":1.02,"pdop":2.01,"vdop":1.73,"uSat":9}
$GPGSV,3,1,10,03,39,230,10,08,31,170,25,10,08,058,28,11,65,149,30*7A
$GPGSV,3,2,10,14,43,097,39,17,19,316,32,22,66,224,34,27,04,155,*77
$GPGSV,3,3,10,28,26,288,32,32,38,065,42*7A
{"class":"SKY","gdop":2.28,"hdop":1.02,"pdop":2.01,"tdop":1.04,"xdop":0.54,"ydop":0.86,"vdop":1.73,"nSat":10,"uSat":9,"satellites":[{"PRN":3,"gnssid":0,"svid":3,"az":230.0,"el":39.0,"ss":10.0,"used":true},{"PRN":8,"gnssid":0,"svid":8,"az":170.0,"el":31.0,"ss":25.0,"used":true},{"PRN":10,"gnssid":0,"svid":10,"az":58.0,"el":8.0,"ss":28.0,"used":true},{"PRN":11,"gnssid":0,"svid":11,"az":149.0,"el":65.0,"ss":30.0,"used":true},{"PRN":14,"gnssid":0,"svid":14,"az":97.0,"el":43.0,"ss":39.0,"used":true},{"PRN":17,"gnssid":0,"svid":17,"az":316.0,"el":19.0,"ss":32.0,"used":true},{"PRN":22,"gnssid":0,"svid":22,"az":224.0,"el":66.0,"ss":34.0,"used":true},{"PRN":27,"gnssid":0,"svid":27,"az":155.0,"el":4.0,"ss":0.0,"used":false},{"PRN":28,"gnssid":0,"svid":28,"az":288.0,"el":26.0,"ss":32.0,"used":true},{"PRN":32,"gnssid":0,"svid":32,"az":65.0,"el":38.0,"ss":42.0,"used":true}]}
$GPGLL,5250.53814,N,00542.34917,E,214012.00,A,A*6F
{"class":"TPV","mode":3,"time":"2020-04-07T21:40:12.000Z","ept":0.005,"lat":52.842302333,"lon":5.705819500,"altHAE":42.5000,"altMSL":-3.3000,"alt":-3.3000,"epx":8.142,"epy":12.972,"epv":39.790,"magvar":1.7,"speed":0.035,"climb":0.000,"eps":25.94,"epc":79.58,"geoidSep":45.800,"eph":19.380,"sep":38.190}
{"class":"SKY","gdop":2.28,"hdop":1.02,"pdop":2.01,"tdop":1.04,"xdop":0.54,"ydop":0.86,"vdop":1.73,"uSat":9}
{"class":"AIS","type":1,"repeat":0,"mmsi":244710041,"scaled":false,"status":8,"status_text":"Under way sailing","turn":-128,"speed":0,"accuracy":false,"lon":3425476,"lat":31704393,"course":0,"heading":511,"second":9,"maneuver":0,"raim":false,"radio":33109}
$GPRMC,214013.00,A,5250.53816,N,00542.34917,E,0.017,,070420,,,A*72
$GPVTG,,T,,M,0.017,N,0.031,K,A*27
$GPGGA,214013.00,5250.53816,N,00542.34917,E,1,09,1.02,-3.3,M,45.8,M,,*77
{"class":"SKY","hdop":1.02,"uSat":9}
$GPGSA,A,3,11,32,14,28,22,03,10,08,17,,,,2.01,1.02,1.73*05
{"class":"SKY","hdop":1.02,"pdop":2.01,"vdop":1.73,"uSat":9}
$GPGSV,3,1,10,03,39,230,10,08,31,170,26,10,08,058,28,11,65,149,31*78
$GPGSV,3,2,10,14,43,097,39,17,19,316,31,22,66,224,34,27,04,155,*74
!AIVDM,1,1,,B,H3`lOl1<4iE@T00000000000000,2*72
$GPGSV,3,3,10,28,26,288,31,32,38,065,42*79
{"class":"SKY","gdop":2.28,"hdop":1.02,"pdop":2.01,"tdop":1.04,"xdop":0.54,"ydop":0.86,"vdop":1.73,"nSat":10,"uSat":9,"satellites":[{"PRN":3,"gnssid":0,"svid":3,"az":230.0,"el":39.0,"ss":10.0,"used":true},{"PRN":8,"gnssid":0,"svid":8,"az":170.0,"el":31.0,"ss":26.0,"used":true},{"PRN":10,"gnssid":0,"svid":10,"az":58.0,"el":8.0,"ss":28.0,"used":true},{"PRN":11,"gnssid":0,"svid":11,"az":149.0,"el":65.0,"ss":31.0,"used":true},{"PRN":14,"gnssid":0,"svid":14,"az":97.0,"el":43.0,"ss":39.0,"used":true},{"PRN":17,"gnssid":0,"svid":17,"az":316.0,"el":19.0,"ss":31.0,"used":true},{"PRN":22,"gnssid":0,"svid":22,"az":224.0,"el":66.0,"ss":34.0,"used":true},{"PRN":27,"gnssid":0,"svid":27,"az":155.0,"el":4.0,"ss":0.0,"used":false},{"PRN":28,"gnssid":0,"svid":28,"az":288.0,"el":26.0,"ss":31.0,"used":true},{"PRN":32,"gnssid":0,"svid":32,"az":65.0,"el":38.0,"ss":42.0,"used":true}]}
$GPGLL,5250.53816,N,00542.34917,E,214013.00,A,A*6C
!AIVDM,1,1,,B,140Ut9@P000J9DjN?1Lh0?vF0D1A,0*2A
{"class":"AIS","type":1,"repeat":0,"mmsi":269057061,"scaled":false,"status":0,"status_text":"Under way using engine","turn":-128,"speed":0,"accuracy":false,"lon":3426969,"lat":31703411,"course":0,"heading":511,"second":11,"maneuver":0,"raim":false,"radio":82001}
$GPRMC,214014.00,A,5250.53816,N,00542.34917,E,0.041,,070420,,,A*76
$GPVTG,,T,,M,0.041,N,0.076,K,A*27
$GPGGA,214014.00,5250.53816,N,00542.34917,E,1,09,1.02,-3.3,M,45.8,M,,*70
{"class":"SKY","hdop":1.02,"uSat":9}
$GPGSA,A,3,11,32,14,28,22,03,10,08,17,,,,2.01,1.02,1.73*05
{"class":"SKY","hdop":1.02,"pdop":2.01,"vdop":1.73,"uSat":9}
$GPGSV,3,1,10,03,39,230,10,08,31,170,27,10,08,058,28,11,65,149,32*7A
$GPGSV,3,2,10,14,43,097,39,17,19,316,31,22,66,224,34,27,04,155,*74
!AIVDM,1,1,,A,13aDq30P00PJ8B`N?0?h0?vF286e,0*53
{"class":"AIS","type":1,"repeat":0,"mmsi":244660492,"scaled":false,"status":0,"status_text":"Under way using engine","turn":-128,"speed":0,"accuracy":true,"lon":3424852,"lat":31703103,"course":0,"heading":511,"second":11,"maneuver":0,"raim":true,"radio":33197}
$GPGSV,3,3,10,28,26,288,31,32,38,065,42*79
{"class":"SKY","gdop":2.28,"hdop":1.02,"pdop":2.01,"tdop":1.04,"xdop":0.54,"ydop":0.86,"vdop":1.73,"nSat":10,"uSat":9,"satellites":[{"PRN":3,"gnssid":0,"svid":3,"az":230.0,"el":39.0,"ss":10.0,"used":true},{"PRN":8,"gnssid":0,"svid":8,"az":170.0,"el":31.0,"ss":27.0,"used":true},{"PRN":10,"gnssid":0,"svid":10,"az":58.0,"el":8.0,"ss":28.0,"used":true},{"PRN":11,"gnssid":0,"svid":11,"az":149.0,"el":65.0,"ss":32.0,"used":true},{"PRN":14,"gnssid":0,"svid":14,"az":97.0,"el":43.0,"ss":39.0,"used":true},{"PRN":17,"gnssid":0,"svid":17,"az":316.0,"el":19.0,"ss":31.0,"used":true},{"PRN":22,"gnssid":0,"svid":22,"az":224.0,"el":66.0,"ss":34.0,"used":true},{"PRN":27,"gnssid":0,"svid":27,"az":155.0,"el":4.0,"ss":0.0,"used":false},{"PRN":28,"gnssid":0,"svid":28,"az":288.0,"el":26.0,"ss":31.0,"used":true},{"PRN":32,"gnssid":0,"svid":32,"az":65.0,"el":38.0,"ss":42.0,"used":true}]}
$GPGLL,5250.53816,N,00542.34917,E,214014.00,A,A*6B
{"class":"TPV","mode":3,"time":"2020-04-07T21:40:14.000Z","ept":0.005,"lat":52.842302667,"lon":5.705819500,"altHAE":42.5000,"altMSL":-3.3000,"alt":-3.3000,"epx":8.142,"epy":12.972,"epv":39.790,"magvar":1.7,"speed":0.021,"climb":0.000,"eps":25.94,"epc":79.58,"geoidSep":45.800,"eph":19.380,"sep":38.190}
{"class":"SKY","gdop":2.28,"hdop":1.02,"pdop":2.01,"tdop":1.04,"xdop":0.54,"ydop":0.86,"vdop":1.73,"uSat":9}
