# From: Владимир Калачихин  <v.kalachikhin@gmail.com>
# Date: 8 APril 2020
# Note: NMEA 0183 and AIS data
#
$GPGSA,A,3,11,32,14,28,22,03,10,08,17,,,,2.02,1.03,1.74*00
!AIVDM,2,1,9,B,55R3Vn82=ILTQ3KKS>1<D60Dq@E918U<F222221J1`?164vc03S1CCAD,0*2A
!AIVDM,2,2,9,B,`88888888888880,2*76
$GPRMC,213950.00,A,5250.53669,N,00542.34920,E,0.020,,070420,,,A*7D
$GPVTG,,T,,M,0.020,N,0.038,K,A*2A
$GPGGA,213950.00,5250.53669,N,00542.34920,E,1,09,1.03,-6.0,M,45.8,M,,*7B
$GPGSA,A,3,11,32,14,28,22,03,10,08,17,,,,2.02,1.03,1.74*00
$GPGSV,3,1,10,03,39,230,23,08,31,170,31,10,08,058,31,11,65,149,31*76
$GPGSV,3,2,10,14,43,097,39,17,18,316,30,22,66,224,34,27,04,155,*74
$GPGSV,3,3,10,28,26,288,31,32,38,065,41*7A
$GPGLL,5250.53669,N,00542.34920,E,213950.00,A,A*67
!AIVDM,1,1,,B,13aDp<PP000IwSlN?Wm@0?wN2<1T,0*29
$GPRMC,213951.00,A,5250.53675,N,00542.34923,E,0.014,,070420,,,A*75
$GPVTG,,T,,M,0.014,N,0.027,K,A*23
$GPGGA,213951.00,5250.53675,N,00542.34923,E,1,09,1.03,-5.8,M,45.8,M,,*7F
$GPGSA,A,3,11,32,14,28,22,03,10,08,17,,,,2.02,1.03,1.74*00
$GPGSV,3,1,10,03,39,230,22,08,31,170,32,10,08,058,32,11,65,149,31*77
$GPGSV,3,2,10,14,43,097,39,17,19,316,30,22,66,224,34,27,04,155,*75
$GPGSV,3,3,10,28,26,288,30,32,38,065,41*7B
$GPGLL,5250.53675,N,00542.34923,E,213951.00,A,A*68
!AIVDM,1,1,,B,339FEj5P00PIwujN?fQv4?wPRD5:,0*64
$GPRMC,213952.00,A,5250.53677,N,00542.34926,E,0.018,,070420,,,A*7D
$GPVTG,,T,,M,0.018,N,0.034,K,A*2D
$GPGGA,213952.00,5250.53677,N,00542.34926,E,1,09,1.03,-5.7,M,45.8,M,,*74
$GPGSA,A,3,11,32,14,28,22,03,10,08,17,,,,2.02,1.03,1.74*00
$GPGSV,3,1,10,03,39,230,21,08,31,170,30,10,08,058,31,11,65,149,31*75
$GPGSV,3,2,10,14,43,097,39,17,19,316,30,22,66,224,34,27,04,155,*75
$GPGSV,3,3,10,28,26,288,31,32,38,065,41*7A
$GPGLL,5250.53677,N,00542.34926,E,213952.00,A,A*6C
!AIVDM,1,1,,B,13aGrVHP000J8VDN?5B@0?wR06bL,0*29
$GPRMC,213953.00,A,5250.53680,N,00542.34926,E,0.053,,070420,,,A*7B
$GPVTG,,T,,M,0.053,N,0.097,K,A*2B
$GPGGA,213953.00,5250.53680,N,00542.34926,E,1,09,1.03,-5.7,M,45.8,M,,*7D
$GPGSA,A,3,11,32,14,28,22,03,10,08,17,,,,2.02,1.03,1.74*00
$GPGSV,3,1,10,03,39,230,21,08,31,170,29,10,08,058,30,11,65,149,31*7C
$GPGSV,3,2,10,14,43,097,39,17,19,316,30,22,66,224,33,27,04,155,*72
$GPGSV,3,3,10,28,26,288,31,32,38,065,41*7A
$GPGLL,5250.53680,N,00542.34926,E,213953.00,A,A*65
!AIVDM,1,1,,B,140Ut9@P000J9DTN?1L00?wT06bL,0*73
$GPRMC,213954.00,A,5250.53690,N,00542.34926,E,0.007,,070420,,,A*7C
$GPVTG,,T,,M,0.007,N,0.013,K,A*26
!AIVDM,1,1,,B,839FEj0j2d<dtuuMMj9PqgbP00P0,0*19
$GPGGA,213954.00,5250.53690,N,00542.34926,E,1,09,1.03,-5.5,M,45.8,M,,*79
$GPGSA,A,3,11,32,14,28,22,03,10,08,17,,,,2.02,1.03,1.74*00
$GPGSV,3,1,10,03,39,230,21,08,31,170,29,10,08,058,30,11,65,149,31*7C
$GPGSV,3,2,10,14,43,097,39,17,19,316,31,22,66,224,34,27,04,155,*74
$GPGSV,3,3,10,28,26,288,31,32,38,065,42*79
$GPGLL,5250.53690,N,00542.34926,E,213954.00,A,A*63
!AIVDM,1,1,,A,13aDq30P00PJ8BPN?0@@0?wV2@NC,0*03
$GPRMC,213955.00,A,5250.53701,N,00542.34927,E,0.026,,070420,,,A*76
$GPVTG,,T,,M,0.026,N,0.048,K,A*2B
$GPGGA,213955.00,5250.53701,N,00542.34927,E,1,09,1.03,-5.3,M,45.8,M,,*76
$GPGSA,A,3,11,32,14,28,22,03,10,08,17,,,,2.02,1.03,1.74*00
$GPGSV,3,1,10,03,39,230,19,08,31,170,29,10,08,058,30,11,65,149,32*74
$GPGSV,3,2,10,14,43,097,39,17,19,316,30,22,66,224,34,27,04,155,*75
$GPGSV,3,3,10,28,26,288,31,32,38,065,41*7A
$GPGLL,5250.53701,N,00542.34927,E,213955.00,A,A*6A
$GPRMC,213956.00,A,5250.53713,N,00542.34927,E,0.063,,070420,,,A*77
$GPVTG,,T,,M,0.063,N,0.117,K,A*21
$GPGGA,213956.00,5250.53713,N,00542.34927,E,1,09,1.03,-5.1,M,45.8,M,,*74
$GPGSA,A,3,11,32,14,28,22,03,10,08,17,,,,2.02,1.03,1.74*00
$GPGSV,3,1,10,03,39,230,18,08,31,170,27,10,08,058,30,11,65,149,32*7B
$GPGSV,3,2,10,14,43,097,39,17,19,316,30,22,66,224,34,27,04,155,*75
$GPGSV,3,3,10,28,26,288,31,32,38,065,41*7A
$GPGLL,5250.53713,N,00542.34927,E,213956.00,A,A*6A
!AIVDM,1,1,,B,13aNoh0000PJ7>HN>wlP?Vwd0<2;,0*10
!AIVDM,1,1,,A,13aL?W0P00PJ9T8N?1hh0?wd20R>,0*7C
$GPRMC,213957.00,A,5250.53722,N,00542.34927,E,0.031,,070420,,,A*73
$GPVTG,,T,,M,0.031,N,0.058,K,A*2C
!AIVDM,1,1,,A,13P<JdP000PJ76@N>wBbjFsd00Rp,0*63
$GPGGA,213957.00,5250.53722,N,00542.34927,E,1,09,1.03,-4.9,M,45.8,M,,*7E
$GPGSA,A,3,11,32,14,28,22,03,10,08,17,,,,2.02,1.03,1.74*00
$GPGSV,3,1,10,03,39,230,17,08,31,170,26,10,08,058,30,11,65,149,32*75
$GPGSV,3,2,10,14,43,097,39,17,19,316,29,22,66,224,34,27,04,155,*7D
$GPGSV,3,3,10,28,26,288,31,32,38,065,41*7A
$GPGLL,5250.53722,N,00542.34927,E,213957.00,A,A*69
!AIVDM,1,1,,A,13`nu=PP000J9@dN?7U@0?wf0D0V,0*5A
$GPRMC,213958.00,A,5250.53727,N,00542.34926,E,0.010,,070420,,,A*7B
$GPVTG,,T,,M,0.010,N,0.019,K,A*2A
$GPGGA,213958.00,5250.53727,N,00542.34926,E,1,09,1.03,-4.8,M,45.8,M,,*74
$GPGSA,A,3,11,32,14,28,22,03,10,08,17,,,,2.02,1.03,1.74*00
$GPGSV,3,1,10,03,39,230,19,08,31,170,26,10,08,058,30,11,65,149,32*7B
$GPGSV,3,2,10,14,43,097,39,17,19,316,28,22,66,224,34,27,04,155,*7C
$GPGSV,3,3,10,28,26,288,32,32,38,065,42*7A
$GPGLL,5250.53727,N,00542.34926,E,213958.00,A,A*62
$GPRMC,213959.00,A,5250.53733,N,00542.34925,E,0.022,,070420,,,A*7D
$GPVTG,,T,,M,0.022,N,0.041,K,A*26
$GPGGA,213959.00,5250.53733,N,00542.34925,E,1,09,1.03,-4.7,M,45.8,M,,*7C
$GPGSA,A,3,11,32,14,28,22,03,10,08,17,,,,2.02,1.03,1.74*00
$GPGSV,3,1,10,03,39,230,19,08,31,170,25,10,08,058,30,11,65,149,31*7B
$GPGSV,3,2,10,14,43,097,39,17,19,316,28,22,66,224,34,27,04,155,*7C
$GPGSV,3,3,10,28,26,288,33,32,38,065,42*7B
$GPGLL,5250.53733,N,00542.34925,E,213959.00,A,A*65
$GPRMC,214000.00,A,5250.53739,N,00542.34924,E,0.025,,070420,,,A*73
$GPVTG,,T,,M,0.025,N,0.047,K,A*27
$GPGGA,214000.00,5250.53739,N,00542.34924,E,1,09,1.03,-4.6,M,45.8,M,,*74
$GPGSA,A,3,11,32,14,28,22,03,10,08,17,,,,2.02,1.03,1.74*00
$GPGSV,3,1,10,03,39,230,18,08,31,170,25,10,08,058,31,11,65,149,30*7A
$GPGSV,3,2,10,14,43,097,39,17,19,316,29,22,66,224,34,27,04,155,*7D
$GPGSV,3,3,10,28,26,288,33,32,38,065,42*7B
$GPGLL,5250.53739,N,00542.34924,E,214000.00,A,A*6C
$GPRMC,214001.00,A,5250.53745,N,00542.34922,E,0.029,,070420,,,A*73
$GPVTG,,T,,M,0.029,N,0.053,K,A*2E
$GPGGA,214001.00,5250.53745,N,00542.34922,E,1,09,1.03,-4.6,M,45.8,M,,*78
!AIVDM,1,1,,A,13aGrVHP000J8V:N?5BP0?wl0<0f,0*08
$GPGSA,A,3,11,32,14,28,22,03,10,08,17,,,,2.02,1.03,1.74*00
$GPGSV,3,1,10,03,39,230,19,08,31,170,24,10,08,058,32,11,65,149,31*78
$GPGSV,3,2,10,14,43,097,40,17,19,316,29,22,66,224,35,27,04,155,*72
$GPGSV,3,3,10,28,26,288,33,32,38,065,42*7B
$GPGLL,5250.53745,N,00542.34922,E,214001.00,A,A*60
$GPRMC,214002.00,A,5250.53751,N,00542.34921,E,0.014,,070420,,,A*78
!AIVDM,1,1,,A,13aDp<PP000IwSdN?Wlh0?wj2<1T,0*2F
$GPVTG,,T,,M,0.014,N,0.026,K,A*22
$GPGGA,214002.00,5250.53751,N,00542.34921,E,1,09,1.03,-4.5,M,45.8,M,,*7E
$GPGSA,A,3,11,32,14,28,22,03,10,08,17,,,,2.02,1.03,1.74*00
$GPGSV,3,1,10,03,39,230,19,08,31,170,26,10,08,058,31,11,65,149,31*79
$GPGSV,3,2,10,14,43,097,40,17,19,316,29,22,66,224,34,27,04,155,*73
$GPGSV,3,3,10,28,26,288,33,32,38,065,42*7B
$GPGLL,5250.53751,N,00542.34921,E,214002.00,A,A*65
$GPRMC,214003.00,A,5250.53762,N,00542.34920,E,0.080,,070420,,,A*75
$GPVTG,,T,,M,0.080,N,0.148,K,A*26
$GPGGA,214003.00,5250.53762,N,00542.34920,E,1,09,1.03,-4.2,M,45.8,M,,*79
$GPGSA,A,3,11,32,14,28,22,03,10,08,17,,,,2.02,1.03,1.74*00
$GPGSV,3,1,10,03,39,230,19,08,31,170,27,10,08,058,31,11,65,149,30*79
$GPGSV,3,2,10,14,43,097,40,17,19,316,29,22,66,224,34,27,04,155,*73
$GPGSV,3,3,10,28,26,288,33,32,38,065,42*7B
$GPGLL,5250.53762,N,00542.34920,E,214003.00,A,A*65
!AIVDM,1,1,,A,B3`eLE00006R0J7Si`WQ3wP1jDkr,0*3C
$GPRMC,214004.00,A,5250.53770,N,00542.34919,E,0.053,,070420,,,A*75
$GPVTG,,T,,M,0.053,N,0.098,K,A*24
$GPGGA,214004.00,5250.53770,N,00542.34919,E,1,09,1.03,-4.1,M,45.8,M,,*74
!AIVDM,1,1,,B,H39sGlPhT8E9@5<000000000000,2*5C
$GPGSA,A,3,11,32,14,28,22,03,10,08,17,,,,2.02,1.03,1.74*00
$GPGSV,3,1,10,03,39,230,18,08,31,170,27,10,08,058,31,11,65,149,30*78
!AIVDM,1,1,,A,140Ut9@P000J9DhN?1M00?v206bP,0*36
!AIVDM,1,1,,B,13aDq30P00PJ8BjN?0@00?v220SC,0*42
$GPGSV,3,2,10,14,43,097,40,17,19,316,29,22,66,224,34,27,04,155,*73
$GPGSV,3,3,10,28,26,288,33,32,38,065,42*7B
$GPGLL,5250.53770,N,00542.34919,E,214004.00,A,A*6B
$GPRMC,214005.00,A,5250.53776,N,00542.34920,E,0.049,,070420,,,A*73
$GPVTG,,T,,M,0.049,N,0.091,K,A*26
$GPGGA,214005.00,5250.53776,N,00542.34920,E,1,09,1.03,-4.1,M,45.8,M,,*79
$GPGSA,A,3,11,32,14,28,22,03,10,08,17,,,,2.02,1.03,1.73*07
$GPGSV,3,1,10,03,39,230,15,08,31,170,26,10,08,058,30,11,65,149,30*75
$GPGSV,3,2,10,14,43,097,40,17,19,316,29,22,66,224,33,27,04,155,*74
$GPGSV,3,3,10,28,26,288,32,32,38,065,42*7A
$GPGLL,5250.53776,N,00542.34920,E,214005.00,A,A*66
$GPRMC,214006.00,A,5250.53784,N,00542.34919,E,0.081,,070420,,,A*73
$GPVTG,,T,,M,0.081,N,0.151,K,A*2F
$GPGGA,214006.00,5250.53784,N,00542.34919,E,1,09,1.03,-3.9,M,45.8,M,,*72
!AIVDM,1,1,,B,13aL?W0P00PJ9SNN?1dP0?v6281s,0*4F
$GPGSA,A,3,11,32,14,28,22,03,10,08,17,,,,2.01,1.03,1.73*04
$GPGSV,3,1,10,03,39,230,14,08,31,170,26,10,08,058,30,11,65,149,29*7C
$GPGSV,3,2,10,14,43,097,40,17,19,316,29,22,66,224,33,27,04,155,*74
!AIVDM,1,1,,B,13`nu=PP000J9A4N?7Uh0?v60<0V,0*09
$GPGSV,3,3,10,28,26,288,32,32,38,065,42*7A
$GPGLL,5250.53784,N,00542.34919,E,214006.00,A,A*62
!AIVDM,1,1,,B,13P<JdP000PJ76<N>wBJH6r80H27,0*64
$GPRMC,214007.00,A,5250.53792,N,00542.34920,E,0.124,,070420,,,A*71
$GPVTG,,T,,M,0.124,N,0.229,K,A*2D
$GPGGA,214007.00,5250.53792,N,00542.34920,E,1,09,1.02,-3.7,M,45.8,M,,*71
$GPGSA,A,3,11,32,14,28,22,03,10,08,17,,,,2.01,1.02,1.73*05
$GPGSV,3,1,10,03,39,230,13,08,31,170,27,10,08,058,30,11,65,149,29*7A
$GPGSV,3,2,10,14,43,097,40,17,19,316,30,22,66,224,33,27,04,155,*7C
$GPGSV,3,3,10,28,26,288,32,32,38,065,42*7A
$GPGLL,5250.53792,N,00542.34920,E,214007.00,A,A*6E
!AIVDM,1,1,,A,13aNoh0000PJ7>HN>wl@?Vv:0D2;,0*24
$GPRMC,214008.00,A,5250.53799,N,00542.34922,E,0.090,,070420,,,A*79
$GPVTG,,T,,M,0.090,N,0.167,K,A*2A
$GPGGA,214008.00,5250.53799,N,00542.34922,E,1,09,1.02,-3.5,M,45.8,M,,*75
$GPGSA,A,3,11,32,14,28,22,03,10,08,17,,,,2.01,1.02,1.73*05
$GPGSV,3,1,10,03,39,230,13,08,31,170,27,10,08,058,30,11,65,149,29*7A
$GPGSV,3,2,10,14,43,097,40,17,19,316,30,22,66,224,33,27,04,155,*7C
$GPGSV,3,3,10,28,26,288,32,32,38,065,42*7A
$GPGLL,5250.53799,N,00542.34922,E,214008.00,A,A*68
$GPRMC,214009.00,A,5250.53803,N,00542.34922,E,0.026,,070420,,,A*79
!AIVDM,1,1,,B,B3aQ6Wh0086QhpWSk46g?wRUoP06,0*56
$GPVTG,,T,,M,0.026,N,0.048,K,A*2B
$GPGGA,214009.00,5250.53803,N,00542.34922,E,1,09,1.02,-3.4,M,45.8,M,,*79
$GPGSA,A,3,11,32,14,28,22,03,10,08,17,,,,2.01,1.02,1.73*05
$GPGSV,3,1,10,03,39,230,12,08,31,170,26,10,08,058,30,11,65,149,29*7A
$GPGSV,3,2,10,14,43,097,39,17,19,316,30,22,66,224,34,27,04,155,*75
$GPGSV,3,3,10,28,26,288,32,32,38,065,42*7A
$GPGLL,5250.53803,N,00542.34922,E,214009.00,A,A*65
$GPRMC,214010.00,A,5250.53808,N,00542.34920,E,0.112,,070420,,,A*7E
$GPVTG,,T,,M,0.112,N,0.207,K,A*24
$GPGGA,214010.00,5250.53808,N,00542.34920,E,1,09,1.02,-3.3,M,45.8,M,,*7F
$GPGSA,A,3,11,32,14,28,22,03,10,08,17,,,,2.01,1.02,1.73*05
$GPGSV,3,1,10,03,39,230,11,08,31,170,25,10,08,058,29,11,65,149,29*72
$GPGSV,3,2,10,14,43,097,39,17,19,316,30,22,66,224,34,27,04,155,*75
$GPGSV,3,3,10,28,26,288,31,32,38,065,42*79
$GPGLL,5250.53808,N,00542.34920,E,214010.00,A,A*64
!AIVDM,2,1,4,A,53aGEvp000010;S3KH05H4q@T00000000000000U1@:33tl>0431CCAD,0*0C
!AIVDM,2,2,4,A,P00000000000008,2*48
$GPRMC,214011.00,A,5250.53812,N,00542.34918,E,0.100,,070420,,,A*7C
$GPVTG,,T,,M,0.100,N,0.185,K,A*2E
$GPGGA,214011.00,5250.53812,N,00542.34918,E,1,09,1.02,-3.3,M,45.8,M,,*7E
$GPGSA,A,3,11,32,14,28,22,03,10,08,17,,,,2.01,1.02,1.73*05
$GPGSV,3,1,10,03,39,230,10,08,31,170,25,10,08,058,28,11,65,149,29*72
$GPGSV,3,2,10,14,43,097,39,17,19,316,31,22,66,224,34,27,04,155,*74
!AIVDM,1,1,,A,33`soB5P00PJ7OrN?2jN4?v@2Dj:,0*11
$GPGSV,3,3,10,28,26,288,31,32,38,065,42*79
$GPGLL,5250.53812,N,00542.34918,E,214011.00,A,A*65
!AIVDM,1,1,,B,13aGrVHP000J8V8N?5B@0?vB085E,0*14
$GPRMC,214012.00,A,5250.53814,N,00542.34917,E,0.068,,070420,,,A*79
$GPVTG,,T,,M,0.068,N,0.125,K,A*2B
$GPGGA,214012.00,5250.53814,N,00542.34917,E,1,09,1.02,-3.3,M,45.8,M,,*74
$GPGSA,A,3,11,32,14,28,22,03,10,08,17,,,,2.01,1.02,1.73*05
$GPGSV,3,1,10,03,39,230,10,08,31,170,25,10,08,058,28,11,65,149,30*7A
$GPGSV,3,2,10,14,43,097,39,17,19,316,32,22,66,224,34,27,04,155,*77
$GPGSV,3,3,10,28,26,288,32,32,38,065,42*7A
$GPGLL,5250.53814,N,00542.34917,E,214012.00,A,A*6F
$GPRMC,214013.00,A,5250.53816,N,00542.34917,E,0.017,,070420,,,A*72
$GPVTG,,T,,M,0.017,N,0.031,K,A*27
$GPGGA,214013.00,5250.53816,N,00542.34917,E,1,09,1.02,-3.3,M,45.8,M,,*77
$GPGSA,A,3,11,32,14,28,22,03,10,08,17,,,,2.01,1.02,1.73*05
$GPGSV,3,1,10,03,39,230,10,08,31,170,26,10,08,058,28,11,65,149,31*78
$GPGSV,3,2,10,14,43,097,39,17,19,316,31,22,66,224,34,27,04,155,*74
!AIVDM,1,1,,B,H3`lOl1<4iE@T00000000000000,2*72
$GPGSV,3,3,10,28,26,288,31,32,38,065,42*79
$GPGLL,5250.53816,N,00542.34917,E,214013.00,A,A*6C
!AIVDM,1,1,,B,140Ut9@P000J9DjN?1Lh0?vF0D1A,0*2A
$GPRMC,214014.00,A,5250.53816,N,00542.34917,E,0.041,,070420,,,A*76
$GPVTG,,T,,M,0.041,N,0.076,K,A*27
$GPGGA,214014.00,5250.53816,N,00542.34917,E,1,09,1.02,-3.3,M,45.8,M,,*70
$GPGSA,A,3,11,32,14,28,22,03,10,08,17,,,,2.01,1.02,1.73*05
$GPGSV,3,1,10,03,39,230,10,08,31,170,27,10,08,058,28,11,65,149,32*7A
$GPGSV,3,2,10,14,43,097,39,17,19,316,31,22,66,224,34,27,04,155,*74
!AIVDM,1,1,,A,13aDq30P00PJ8B`N?0?h0?vF286e,0*53
$GPGSV,3,3,10,28,26,288,31,32,38,065,42*79
$GPGLL,5250.53816,N,00542.34917,E,214014.00,A,A*6B
$GPRMC,214015.00,A,5250.53816,N,00542.34917,E,0.027,,070420,,,A*77
$GPVTG,,T,,M,0.027,N,0.050,K,A*23
$GPGGA,214015.00,5250.53816,N,00542.34917,E,1,09,1.02,-3.3,M,45.8,M,,*71
$GPGSA,A,3,11,32,14,28,22,03,10,08,17,,,,2.01,1.02,1.73*05
$GPGSV,3,1,10,03,39,230,10,08,31,170,29,10,08,058,29,11,65,149,32*75
$GPGSV,3,2,10,14,43,097,39,17,19,316,30,22,66,224,33,27,04,155,*72
$GPGSV,3,3,10,28,26,288,32,32,38,065,43*7B
$GPGLL,5250.53816,N,00542.34917,E,214015.00,A,A*6A
!AIVDM,1,1,,B,33=MNJ5000PJ8QPN?4:WK@V:PDT:,0*42
$GPRMC,214016.00,A,5250.53815,N,00542.34920,E,0.015,,070420,,,A*72
$GPVTG,,T,,M,0.015,N,0.029,K,A*2C
$GPGGA,214016.00,5250.53815,N,00542.34920,E,1,09,1.02,-3.3,M,45.8,M,,*75
$GPGSA,A,3,11,32,14,28,22,03,10,08,17,,,,2.01,1.02,1.73*05
$GPGSV,3,1,10,03,39,230,10,08,31,170,31,10,08,058,29,11,65,149,33*7D
$GPGSV,3,2,10,14,43,097,39,17,19,316,29,22,66,224,32,27,04,155,24*7D
$GPGSV,3,3,10,28,26,288,32,32,38,065,43*7B
$GPGLL,5250.53815,N,00542.34920,E,214016.00,A,A*6E
!AIVDM,1,1,,A,13aL?W0P00PJ9RvN?1`h0?vL2H8?,0*06
$GPRMC,214017.00,A,5250.53819,N,00542.34921,E,0.028,,070420,,,A*70
$GPVTG,,T,,M,0.028,N,0.053,K,A*2F
!AIVDM,1,1,,A,13P<JdP000PJ76@N>wBSH6pL0H8E,0*0C
$GPGGA,214017.00,5250.53819,N,00542.34921,E,1,09,1.02,-3.1,M,45.8,M,,*7B
$GPGSA,A,3,11,32,14,28,22,03,10,08,17,,,,2.01,1.02,1.73*05
$GPGSV,3,1,10,03,39,230,07,08,31,170,32,10,08,058,29,11,65,149,34*7F
$GPGSV,3,2,10,14,43,097,39,17,19,316,28,22,66,224,32,27,04,155,25*7D
$GPGSV,3,3,10,28,26,288,32,32,38,065,43*7B
$GPGLL,5250.53819,N,00542.34921,E,214017.00,A,A*62
!AIVDM,1,1,,A,13`nu=PP000J9A2N?7T8f?vL088a,0*4A
$GPRMC,214018.00,A,5250.53813,N,00542.34923,E,0.020,,070420,,,A*7F
$GPVTG,,T,,M,0.020,N,0.038,K,A*2A
$GPGGA,214018.00,5250.53813,N,00542.34923,E,1,09,1.02,-3.3,M,45.8,M,,*7E
$GPGSA,A,3,11,32,14,28,22,03,10,08,17,,,,2.01,1.02,1.73*05
!AIVDM,1,1,,B,13aNoh0000PJ7>HN>wl@?W0P06bP,0*43
$GPGSV,3,1,10,03,39,230,07,08,31,170,32,10,08,058,29,11,65,149,34*7F
$GPGSV,3,2,10,14,43,097,39,17,19,316,27,22,66,224,32,27,04,155,25*72
$GPGSV,3,3,10,28,26,288,32,32,38,065,43*7B
$GPGLL,5250.53813,N,00542.34923,E,214018.00,A,A*65
!AIVDM,1,1,,B,33aGEvmP00PJ27PN?OeP0?vN2000,0*7C
$GPRMC,214019.00,A,5250.53807,N,00542.34926,E,0.036,,070420,,,A*79
$GPVTG,,T,,M,0.036,N,0.067,K,A*27
$GPGGA,214019.00,5250.53807,N,00542.34926,E,1,09,1.11,-3.4,M,45.8,M,,*7A
$GPGSA,A,3,11,32,14,28,22,03,10,08,17,,,,2.08,1.11,1.76*0B
$GPGSV,3,1,10,03,39,230,07,08,31,170,31,10,08,058,30,11,65,149,34*74
$GPGSV,3,2,10,14,43,097,39,17,19,316,27,22,66,224,32,27,04,155,25*72
$GPGSV,3,3,10,28,26,288,32,32,38,065,43*7B
$GPGLL,5250.53807,N,00542.34926,E,214019.00,A,A*64
$GPRMC,214020.00,A,5250.53804,N,00542.34928,E,0.024,,070420,,,A*7D
$GPVTG,,T,,M,0.024,N,0.045,K,A*24
$GPGGA,214020.00,5250.53804,N,00542.34928,E,1,09,1.11,-3.5,M,45.8,M,,*7C
$GPGSA,A,3,11,32,14,28,22,03,10,08,17,,,,2.08,1.11,1.76*0B
$GPGSV,3,1,10,03,39,230,07,08,31,170,31,10,08,058,31,11,65,149,34*75
$GPGSV,3,2,10,14,43,097,39,17,19,316,26,22,66,224,33,27,04,155,23*74
$GPGSV,3,3,10,28,26,288,33,32,38,065,43*7A
$GPGLL,5250.53804,N,00542.34928,E,214020.00,A,A*63
$GPRMC,214021.00,A,5250.53804,N,00542.34930,E,0.029,,070420,,,A*78
$GPVTG,,T,,M,0.029,N,0.054,K,A*29
$GPGGA,214021.00,5250.53804,N,00542.34930,E,1,09,1.11,-3.4,M,45.8,M,,*75
$GPGSA,A,3,11,32,14,28,22,03,10,08,17,,,,2.08,1.11,1.76*0B
!AIVDM,1,1,,A,13aGrVHP000J8V4N?5Bh0?vT08:g,0*08
$GPGSV,3,1,10,03,39,230,07,08,31,170,31,10,08,058,31,11,65,149,34*75
$GPGSV,3,2,10,14,43,097,39,17,19,316,27,22,66,224,32,27,04,155,*75
$GPGSV,3,3,10,28,26,288,33,32,38,065,43*7A
$GPGLL,5250.53804,N,00542.34930,E,214021.00,A,A*6B
!AIVDM,1,1,,A,13aDp<PP000IwSbN?WlP0?vR26bP,0*75
$GPRMC,214022.00,A,5250.53801,N,00542.34929,E,0.042,,070420,,,A*7B
$GPVTG,,T,,M,0.042,N,0.078,K,A*2A
$GPGGA,214022.00,5250.53801,N,00542.34929,E,1,09,1.11,-3.5,M,45.8,M,,*7A
$GPGSA,A,3,11,32,14,28,22,03,10,08,17,,,,2.08,1.11,1.76*0B
$GPGSV,3,1,10,03,39,230,07,08,31,170,30,10,08,058,31,11,65,149,34*74
$GPGSV,3,2,10,14,43,097,39,17,19,316,26,22,66,224,32,27,04,155,*74
$GPGSV,3,3,10,28,26,288,33,32,38,065,43*7A
$GPGLL,5250.53801,N,00542.34929,E,214022.00,A,A*65
$GPRMC,214023.00,A,5250.53801,N,00542.34928,E,0.046,,070420,,,A*7F
$GPVTG,,T,,M,0.046,N,0.085,K,A*2C
$GPGGA,214023.00,5250.53801,N,00542.34928,E,1,09,1.11,-3.4,M,45.8,M,,*7B
$GPGSA,A,3,11,32,14,28,22,03,10,08,17,,,,2.08,1.11,1.76*0B
$GPGSV,3,1,10,03,39,230,18,08,31,170,30,10,08,058,31,11,65,149,34*7A
$GPGSV,3,2,10,14,43,097,39,17,19,316,26,22,66,224,32,27,04,155,*74
$GPGSV,3,3,10,28,26,288,33,32,38,065,43*7A
$GPGLL,5250.53801,N,00542.34928,E,214023.00,A,A*65
$GPRMC,214024.00,A,5250.53802,N,00542.34930,E,0.086,,070420,,,A*7E
$GPVTG,,T,,M,0.086,N,0.160,K,A*2A
$GPGGA,214024.00,5250.53802,N,00542.34930,E,1,09,1.02,-3.4,M,45.8,M,,*74
$GPGSA,A,3,11,32,14,28,22,03,10,08,17,,,,2.01,1.02,1.73*05
!AIVDM,1,1,,B,13aDq30P00PJ8BnN?0?h0?vb28<O,0*5A
$GPGSV,3,1,10,03,39,230,15,08,31,170,29,10,08,058,31,11,65,149,34*7F
$GPGSV,3,2,10,14,43,097,39,17,19,316,26,22,66,224,32,27,04,155,*74
$GPGSV,3,3,10,28,26,288,33,32,38,065,43*7A
$GPGLL,5250.53802,N,00542.34930,E,214024.00,A,A*68
!AIVDM,1,1,,A,140Ut9@P000J9D`N?1J00?vb06bP,0*69
$GPRMC,214025.00,A,5250.53799,N,00542.34932,E,0.050,,070420,,,A*7B
$GPVTG,,T,,M,0.050,N,0.093,K,A*2C
$GPGGA,214025.00,5250.53799,N,00542.34932,E,1,09,1.02,-3.5,M,45.8,M,,*7B
$GPGSA,A,3,11,32,14,28,22,03,10,08,17,,,,2.01,1.02,1.73*05
$GPGSV,3,1,10,03,39,230,16,08,31,170,28,10,08,058,31,11,65,149,34*7D
$GPGSV,3,2,10,14,43,097,39,17,19,316,26,22,66,224,32,27,04,155,*74
!AIVDM,1,1,,B,13aL?W0P00PJ9S<N?1`P0?vd2@=;,0*57
$GPGSV,3,3,10,28,26,288,33,32,38,065,43*7A
$GPGLL,5250.53799,N,00542.34932,E,214025.00,A,A*66
!AIVDM,1,1,,B,13P<JdP000PJ76BN>wBSGVpf06bP,0*79
$GPRMC,214026.00,A,5250.53796,N,00542.34933,E,0.038,,070420,,,A*78
$GPVTG,,T,,M,0.038,N,0.071,K,A*2E
!AIVDM,1,1,,B,13`jd30P00PIwWVN?aU=DOvd2D0c,0*31
$GPGGA,214026.00,5250.53796,N,00542.34933,E,1,09,1.02,-3.5,M,45.8,M,,*76
$GPGSA,A,3,11,32,14,28,22,03,10,08,17,,,,2.01,1.02,1.73*05
$GPGSV,3,1,10,03,39,230,16,08,31,170,28,10,08,058,31,11,65,149,34*7D
$GPGSV,3,2,10,14,43,097,39,17,19,316,27,22,66,224,32,27,04,155,*75
$GPGSV,3,3,10,28,26,288,33,32,38,065,43*7A
$GPGLL,5250.53796,N,00542.34933,E,214026.00,A,A*6B
$GPRMC,214027.00,A,5250.53791,N,00542.34932,E,0.027,,070420,,,A*71
$GPVTG,,T,,M,0.027,N,0.049,K,A*2B
$GPGGA,214027.00,5250.53791,N,00542.34932,E,1,09,1.02,-3.6,M,45.8,M,,*72
$GPGSA,A,3,11,32,14,28,22,03,10,08,17,,,,2.01,1.02,1.73*05
$GPGSV,3,1,10,03,39,230,13,08,31,170,28,10,08,058,30,11,65,149,34*79
$GPGSV,3,2,10,14,43,097,39,17,19,316,28,22,66,224,32,27,04,155,*7A
$GPGSV,3,3,10,28,26,288,33,32,38,065,43*7A
$GPGLL,5250.53791,N,00542.34932,E,214027.00,A,A*6C
!AIVDM,1,1,,B,13`nu=PP000J9@dN?7Sh0?vh0<0V,0*00
$GPRMC,214028.00,A,5250.53783,N,00542.34930,E,0.019,,070420,,,A*72
$GPVTG,,T,,M,0.019,N,0.035,K,A*2D
$GPGGA,214028.00,5250.53783,N,00542.34930,E,1,09,1.02,-3.7,M,45.8,M,,*7D
$GPGSA,A,3,11,32,14,28,22,03,10,08,17,,,,2.01,1.02,1.73*05
!AIVDM,1,1,,A,13aNoh0000PJ7>FN>wlP?W0l0<2;,0*53
$GPGSV,3,1,10,03,39,230,13,08,31,170,29,10,08,058,30,11,65,149,34*78
$GPGSV,3,2,10,14,43,097,39,17,19,316,29,22,66,224,32,27,04,155,*7B
$GPGSV,3,3,10,28,26,288,33,32,38,065,43*7A
$GPGLL,5250.53783,N,00542.34930,E,214028.00,A,A*62
!AIVDM,2,1,1,B,53P<JdT000038DE?R21Hu>0@u8u@PD622222220`0`:444bWN3C1CCAD,0*49
!AIVDM,2,2,1,B,gg5kEp5sCCk1CTh,2*1E
$GPRMC,214029.00,A,5250.53777,N,00542.34928,E,0.038,,070420,,,A*72
$GPVTG,,T,,M,0.038,N,0.070,K,A*2F
$GPGGA,214029.00,5250.53777,N,00542.34928,E,1,09,1.02,-3.7,M,45.8,M,,*7E
$GPGSA,A,3,11,32,14,28,22,03,10,08,17,,,,2.01,1.02,1.73*05
$GPGSV,3,1,10,03,39,230,10,08,31,170,28,10,08,058,30,11,65,149,34*7A
$GPGSV,3,2,10,14,43,097,39,17,19,316,29,22,66,224,32,27,04,155,*7B
!AIVDM,1,1,,A,33`p;dE000PJ7rPN?4RAPV<j0Ddr,0*77
$GPGSV,3,3,10,28,26,288,34,32,38,065,43*7D
$GPGLL,5250.53777,N,00542.34928,E,214029.00,A,A*61
$GPRMC,214030.00,A,5250.53769,N,00542.34928,E,0.070,,070420,,,A*79
$GPVTG,,T,,M,0.070,N,0.130,K,A*26
$GPGGA,214030.00,5250.53769,N,00542.34928,E,1,09,1.02,-3.9,M,45.8,M,,*77
$GPGSA,A,3,11,32,14,28,22,03,10,08,17,,,,2.01,1.02,1.73*05
$GPGSV,3,1,10,03,39,230,10,08,31,170,27,10,08,058,30,11,65,149,34*75
$GPGSV,3,2,10,14,43,097,39,17,19,316,29,22,66,224,31,27,04,155,*78
$GPGSV,3,3,10,28,26,288,33,32,38,065,43*7A
$GPGLL,5250.53769,N,00542.34928,E,214030.00,A,A*66
$GPRMC,214031.00,A,5250.53759,N,00542.34928,E,0.087,,070420,,,A*73
$GPVTG,,T,,M,0.087,N,0.161,K,A*2A
$GPGGA,214031.00,5250.53759,N,00542.34928,E,1,09,1.02,-4.0,M,45.8,M,,*7B
$GPGSA,A,3,11,32,14,28,22,03,10,08,17,,,,2.01,1.02,1.73*05
$GPGSV,3,1,10,03,39,230,10,08,31,170,27,10,08,058,30,11,65,149,34*75
$GPGSV,3,2,10,14,43,097,39,17,19,316,29,22,66,224,31,27,04,155,22*78
$GPGSV,3,3,10,28,26,288,33,32,38,065,43*7A
$GPGLL,5250.53759,N,00542.34928,E,214031.00,A,A*64
$GPRMC,214032.00,A,5250.53749,N,00542.34928,E,0.078,,070420,,,A*71
$GPVTG,,T,,M,0.078,N,0.145,K,A*2C
$GPGGA,214032.00,5250.53749,N,00542.34928,E,1,09,1.02,-4.2,M,45.8,M,,*7B
$GPGSA,A,3,11,32,14,28,22,03,10,08,17,,,,2.01,1.02,1.73*05
$GPGSV,3,1,10,03,39,230,10,08,31,170,28,10,08,058,29,11,65,149,34*72
!AIVDM,1,1,,B,13aGrVHP000J8V@N?5D@0?vr0HA?,0*24
$GPGSV,3,2,10,14,43,097,39,17,19,316,28,22,66,224,31,27,04,155,*79
$GPGSV,3,3,10,28,26,288,33,32,38,065,43*7A
$GPGLL,5250.53749,N,00542.34928,E,214032.00,A,A*66
$GPRMC,214033.00,A,5250.53744,N,00542.34927,E,0.028,,070420,,,A*77
$GPVTG,,T,,M,0.028,N,0.052,K,A*2E
$GPGGA,214033.00,5250.53744,N,00542.34927,E,1,09,1.02,-4.2,M,45.8,M,,*78
$GPGSA,A,3,11,32,14,28,22,03,10,08,17,,,,2.01,1.02,1.72*04
$GPGSV,3,1,10,03,39,230,13,08,31,170,29,10,08,058,30,11,65,149,34*78
$GPGSV,3,2,10,14,43,097,39,17,19,316,28,22,66,224,30,27,04,155,*78
$GPGSV,3,3,10,28,26,288,32,32,38,065,43*7B
$GPGLL,5250.53744,N,00542.34927,E,214033.00,A,A*65
$GPRMC,214034.00,A,5250.53740,N,00542.34926,E,0.072,,070420,,,A*7A
$GPVTG,,T,,M,0.072,N,0.134,K,A*20
$GPGGA,214034.00,5250.53740,N,00542.34926,E,1,09,1.02,-4.2,M,45.8,M,,*7A
$GPGSA,A,3,11,32,14,28,22,03,10,08,17,,,,2.00,1.02,1.72*05
$GPGSV,3,1,10,03,39,230,21,08,31,170,28,10,08,058,30,11,65,149,34*78
!AIVDM,1,1,,B,140Ut9@P000J9DRN?1IP0?vv06bP,0*2F
$GPGSV,3,2,10,14,43,097,39,17,19,316,27,22,66,224,30,27,04,155,*77
$GPGSV,3,3,10,28,26,288,33,32,38,065,43*7A
$GPGLL,5250.53740,N,00542.34926,E,214034.00,A,A*67
!AIVDM,1,1,,B,33`hBOEP?w<tSF0l4Q@>4?wv0qiP,0*15
!AIVDM,1,1,,A,33`kEwmP00PJ8INN?1Nf4?w02Dnr,0*49
!AIVDM,1,1,,A,13aDq30P00PJ8BpN?0?00?w028Bm,0*10
$GPRMC,214035.00,A,5250.53736,N,00542.34926,E,0.096,,070420,,,A*70
$GPVTG,,T,,M,0.096,N,0.178,K,A*22
$GPGGA,214035.00,5250.53736,N,00542.34926,E,1,09,1.02,-4.2,M,45.8,M,,*7A
$GPGSA,A,3,11,32,14,28,22,03,10,08,17,,,,2.00,1.02,1.72*05
$GPGSV,3,1,10,03,39,230,23,08,31,170,28,10,08,058,30,11,65,149,34*7A
$GPGSV,3,2,10,14,43,097,39,17,19,316,27,22,66,224,31,27,04,155,*76
$GPGSV,3,3,10,28,26,288,32,32,38,065,43*7B
$GPGLL,5250.53736,N,00542.34926,E,214035.00,A,A*67
!AIVDM,1,1,,A,13P<JdP000PJ76@N>wBK:ns206bP,0*72
$GPRMC,214036.00,A,5250.53732,N,00542.34927,E,0.046,,070420,,,A*7B
$GPVTG,,T,,M,0.046,N,0.085,K,A*2C
$GPGGA,214036.00,5250.53732,N,00542.34927,E,1,09,1.02,-4.3,M,45.8,M,,*7D
$GPGSA,A,3,11,32,14,28,22,03,10,08,17,,,,2.00,1.02,1.72*05
$GPGSV,3,1,10,03,39,230,24,08,31,170,29,10,08,058,30,11,65,149,34*7C
$GPGSV,3,2,10,14,43,097,39,17,19,316,26,22,66,224,30,27,04,155,*76
$GPGSV,3,3,10,28,26,288,32,32,38,065,43*7B
$GPGLL,5250.53732,N,00542.34927,E,214036.00,A,A*61
!AIVDM,1,1,,A,13aL?W0P00PJ9T@N?1ch0?w22<0V,0*5F
$GPRMC,214037.00,A,5250.53730,N,00542.34926,E,0.026,,070420,,,A*7F
$GPVTG,,T,,M,0.026,N,0.047,K,A*24
$GPGGA,214037.00,5250.53730,N,00542.34926,E,1,09,1.02,-4.4,M,45.8,M,,*78
$GPGSA,A,3,11,32,14,28,22,03,10,08,17,,,,2.00,1.02,1.72*05
!AIVDM,1,1,,A,33`nu=PP000J9@VN?7SP0?w40BuS,0*68
!AIVDM,1,1,,B,13aNoh0000PJ7>BN>wm@?W160HD7,0*10
$GPGSV,3,1,10,03,39,230,24,08,31,170,30,10,08,058,30,11,65,149,34*74
$GPGSV,3,2,10,14,43,097,39,17,19,316,27,22,66,224,30,27,04,155,*77
$GPGSV,3,3,10,28,26,288,33,32,38,065,43*7A
$GPGLL,5250.53730,N,00542.34926,E,214037.00,A,A*63
$GPRMC,214038.00,A,5250.53727,N,00542.34923,E,0.018,,070420,,,A*7E
$GPVTG,,T,,M,0.018,N,0.033,K,A*2A
$GPGGA,214038.00,5250.53727,N,00542.34923,E,1,09,1.02,-4.5,M,45.8,M,,*75
$GPGSA,A,3,11,32,14,28,22,03,10,08,17,,,,2.00,1.02,1.72*05
$GPGSV,3,1,10,03,39,230,22,08,31,170,29,10,08,058,29,11,65,149,34*72
$GPGSV,3,2,10,14,43,097,39,17,19,316,27,22,66,224,30,27,04,155,23*76
$GPGSV,3,3,10,28,26,288,33,32,38,065,43*7A
$GPGLL,5250.53727,N,00542.34923,E,214038.00,A,A*6F
!AIVDM,2,1,5,A,53aNa=l0000107KWG>0LE8vl:22222222222221?7`@4440Ht831CCAD,0*57
!AIVDM,2,2,5,A,`88888888888880,2*79
$GPRMC,214039.00,A,5250.53726,N,00542.34920,E,0.027,,070420,,,A*71
$GPVTG,,T,,M,0.027,N,0.050,K,A*23
$GPGGA,214039.00,5250.53726,N,00542.34920,E,1,09,1.02,-4.5,M,45.8,M,,*76
$GPGSA,A,3,11,32,14,28,22,03,10,08,17,,,,2.00,1.02,1.72*05
$GPGSV,3,1,10,03,39,230,22,08,31,170,28,10,08,058,29,11,65,149,34*73
$GPGSV,3,2,10,14,43,097,39,17,19,316,28,22,66,224,30,27,04,155,*78
$GPGSV,3,3,10,28,26,288,34,32,38,065,43*7D
$GPGLL,5250.53726,N,00542.34920,E,214039.00,A,A*6C
!AIVDM,1,1,,B,33aIk>U0000J9lJN?8NN41m80Dfb,0*31
$GPRMC,214040.00,A,5250.53723,N,00542.34916,E,0.071,,070420,,,A*7C
$GPVTG,,T,,M,0.071,N,0.132,K,A*25
$GPGGA,214040.00,5250.53723,N,00542.34916,E,1,09,1.02,-4.6,M,45.8,M,,*7B
$GPGSA,A,3,11,32,14,28,22,03,10,08,17,,,,2.00,1.02,1.72*05
$GPGSV,3,1,10,03,39,230,22,08,31,170,27,10,08,058,30,11,65,149,34*74
$GPGSV,3,2,10,14,43,097,39,17,19,316,29,22,66,224,30,27,04,155,*79
!AIVDM,1,1,,A,13aDp<PP000IwSPN?WlP0?w:2HEv,0*51
$GPGSV,3,3,10,28,26,288,34,32,38,065,43*7D
$GPGLL,5250.53723,N,00542.34916,E,214040.00,A,A*62
$GPRMC,214041.00,A,5250.53720,N,00542.34913,E,0.101,,070420,,,A*7D
$GPVTG,,T,,M,0.101,N,0.186,K,A*2C
$GPGGA,214041.00,5250.53720,N,00542.34913,E,1,09,1.10,-4.7,M,45.8,M,,*7E
$GPGSA,A,3,11,32,14,28,22,03,10,08,17,,,,2.07,1.10,1.75*06
$GPGSV,3,1,10,03,39,230,23,08,31,170,26,10,08,058,29,11,65,149,34*7C
$GPGSV,3,2,10,14,43,097,40,17,19,316,31,22,66,224,30,27,04,155,22*7E
$GPGSV,3,3,10,28,26,288,34,32,38,065,43*7D
$GPGLL,5250.53720,N,00542.34913,E,214041.00,A,A*65
!AIVDM,2,1,6,A,53`o0Fp2F9T10@h4000lE9LE=A8ttl000000000o10P734efN4C1CCAD,0*29
!AIVDM,2,2,6,A,P00000000000000,2*42
!AIVDM,1,1,,A,339fMC5000PJ8TpN?46@CPW:0Dgb,0*48
$GPRMC,214042.00,A,5250.53720,N,00542.34912,E,0.036,,070420,,,A*7A
$GPVTG,,T,,M,0.036,N,0.067,K,A*27
$GPGGA,214042.00,5250.53720,N,00542.34912,E,1,09,1.10,-4.7,M,45.8,M,,*7C
$GPGSA,A,3,11,32,14,28,22,03,10,08,17,,,,2.07,1.10,1.75*06
$GPGSV,3,1,10,03,39,230,23,08,31,170,25,10,08,058,29,11,65,149,34*7F
!AIVDM,1,1,,A,13aGrVHP000J8VFN?5Eh0?w>0L0f,0*69
$GPGSV,3,2,10,14,43,097,40,17,19,316,32,22,66,224,30,27,04,155,23*7C
$GPGSV,3,3,10,28,26,288,35,32,38,065,42*7D
$GPGLL,5250.53720,N,00542.34912,E,214042.00,A,A*67
$GPRMC,214043.00,A,5250.53722,N,00542.34909,E,0.032,,070420,,,A*77
$GPVTG,,T,,M,0.032,N,0.059,K,A*2E
$GPGGA,214043.00,5250.53722,N,00542.34909,E,1,09,1.10,-4.7,M,45.8,M,,*75
$GPGSA,A,3,11,32,14,28,22,03,10,08,17,,,,2.07,1.10,1.75*06
$GPGSV,3,1,10,03,39,230,22,08,31,170,24,10,08,058,29,11,65,149,33*78
!AIVDM,1,1,,A,140Ut9@P000J9DbN?1IP0?w@0<1A,0*63
$GPGSV,3,2,10,14,43,097,40,17,19,316,32,22,66,224,30,27,04,155,24*7B
$GPGSV,3,3,10,28,26,288,35,32,38,065,42*7D
$GPGLL,5250.53722,N,00542.34909,E,214043.00,A,A*6E
!AIVDM,1,1,,A,33`hBOEP?w<tSF0l4Q@>4?wv0kDb,0*13
$GPRMC,214044.00,A,5250.53727,N,00542.34907,E,0.021,,070420,,,A*79
$GPVTG,,T,,M,0.021,N,0.039,K,A*2A
$GPGGA,214044.00,5250.53727,N,00542.34907,E,1,09,1.10,-4.6,M,45.8,M,,*78
$GPGSA,A,3,11,32,14,28,22,03,10,08,17,,,,2.07,1.10,1.75*06
!AIVDM,1,1,,A,B3`fMU00006RE77SjVRoGwlUCP06,0*26
$GPGSV,3,1,10,03,39,230,20,08,31,170,23,10,08,058,29,11,65,149,34*7A
$GPGSV,3,2,10,14,43,097,40,17,19,316,31,22,66,224,31,27,04,155,25*78
$GPGSV,3,3,10,28,26,288,35,32,38,065,42*7D
$GPGLL,5250.53727,N,00542.34907,E,214044.00,A,A*62
$GPRMC,214045.00,A,5250.53731,N,00542.34905,E,0.031,,070420,,,A*7C
$GPVTG,,T,,M,0.031,N,0.058,K,A*2C
$GPGGA,214045.00,5250.53731,N,00542.34905,E,1,09,1.10,-4.5,M,45.8,M,,*7F
$GPGSA,A,3,11,32,14,28,22,03,10,08,17,,,,2.07,1.10,1.75*06
!AIVDM,1,1,,B,13aDq30P00PJ8BfN?0>@0?wD2HHl,0*7B
$GPGSV,3,1,10,03,39,230,17,08,31,170,23,10,08,058,29,11,65,149,34*7E
$GPGSV,3,2,10,14,43,097,40,17,19,316,31,22,66,224,31,27,04,155,25*78
$GPGSV,3,3,10,28,26,288,35,32,38,065,42*7D
$GPGLL,5250.53731,N,00542.34905,E,214045.00,A,A*66
!AIVDM,1,1,,B,13P<JdP000PJ76BN>wBeRnqF00SH,0*6C
$GPRMC,214046.00,A,5250.53737,N,00542.34905,E,0.068,,070420,,,A*75
!AIVDM,1,1,,B,13aL?W0P00PJ9TrN?1f00?wF20Si,0*17
$GPVTG,,T,,M,0.068,N,0.125,K,A*2B
$GPGGA,214046.00,5250.53737,N,00542.34905,E,1,09,1.10,-4.3,M,45.8,M,,*7C
$GPGSA,A,3,11,32,14,28,22,03,10,08,17,,,,2.07,1.10,1.75*06
$GPGSV,3,1,10,03,39,230,17,08,31,170,24,10,08,058,29,11,65,149,34*79
$GPGSV,3,2,10,14,43,097,40,17,19,316,31,22,66,224,32,27,04,155,25*7B
$GPGSV,3,3,10,28,26,288,35,32,38,065,42*7D
$GPGLL,5250.53737,N,00542.34905,E,214046.00,A,A*63
$GPRMC,214047.00,A,5250.53745,N,00542.34901,E,0.060,,070420,,,A*7D
$GPVTG,,T,,M,0.060,N,0.110,K,A*25
$GPGGA,214047.00,5250.53745,N,00542.34901,E,1,09,1.10,-4.1,M,45.8,M,,*7E
$GPGSA,A,3,11,32,14,28,22,03,10,08,17,,,,2.06,1.10,1.75*07
$GPGSV,3,1,10,03,39,230,19,08,31,170,26,10,08,058,29,11,65,149,34*75
!AIVDM,1,1,,B,13`nu=PP000J9@8N?7S`n?wH06bP,0*75
$GPGSV,3,2,10,14,43,097,41,17,19,316,31,22,66,224,32,27,04,155,24*7B
$GPGSV,3,3,10,28,26,288,34,32,38,065,42*7C
$GPGLL,5250.53745,N,00542.34901,E,214047.00,A,A*63
!AIVDM,1,1,,A,13aNoh0000PJ7>HN>wmh?W1J0<29,0*41
$GPRMC,214048.00,A,5250.53751,N,00542.34898,E,0.008,,070420,,,A*78
$GPVTG,,T,,M,0.008,N,0.015,K,A*2F
$GPGGA,214048.00,5250.53751,N,00542.34898,E,1,09,1.10,-4.1,M,45.8,M,,*75
$GPGSA,A,3,11,32,14,28,22,03,10,08,17,,,,2.06,1.10,1.75*07
$GPGSV,3,1,10,03,39,230,19,08,31,170,25,10,08,058,29,11,65,149,34*76
!AIVDM,1,1,,B,33`hBOEP?w<tSF0l4Q@>4?wv0j<:,0*31
$GPGSV,3,2,10,14,43,097,41,17,19,316,31,22,66,224,32,27,04,155,23*7C
$GPGSV,3,3,10,28,26,288,34,32,38,065,42*7C
$GPGLL,5250.53751,N,00542.34898,E,214048.00,A,A*68
$GPRMC,214049.00,A,5250.53748,N,00542.34896,E,0.020,,070420,,,A*75
$GPVTG,,T,,M,0.020,N,0.037,K,A*25
$GPGGA,214049.00,5250.53748,N,00542.34896,E,1,09,1.10,-4.2,M,45.8,M,,*71
$GPGSA,A,3,11,32,14,28,22,03,10,08,17,,,,2.06,1.10,1.74*06
$GPGSV,3,1,10,03,39,230,18,08,31,170,26,10,08,058,29,11,65,149,35*75
$GPGSV,3,2,10,14,43,097,40,17,19,316,31,22,66,224,32,27,04,155,22*7C
$GPGSV,3,3,10,28,26,288,34,32,38,065,42*7C
$GPGLL,5250.53748,N,00542.34896,E,214049.00,A,A*6F
$GPRMC,214050.00,A,5250.53747,N,00542.34895,E,0.031,,070420,,,A*71
$GPVTG,,T,,M,0.031,N,0.058,K,A*2C
$GPGGA,214050.00,5250.53747,N,00542.34895,E,1,09,1.10,-4.3,M,45.8,M,,*74
$GPGSA,A,3,11,32,14,28,22,03,10,08,17,,,,2.06,1.10,1.74*06
$GPGSV,3,1,10,03,39,230,16,08,31,170,27,10,08,058,29,11,65,149,34*7B
$GPGSV,3,2,10,14,43,097,40,17,19,316,30,22,66,224,31,27,04,155,21*7D
$GPGSV,3,3,10,28,26,288,34,32,38,065,43*7D
$GPGLL,5250.53747,N,00542.34895,E,214050.00,A,A*6B
$GPRMC,214051.00,A,5250.53745,N,00542.34894,E,0.040,,070420,,,A*75
$GPVTG,,T,,M,0.040,N,0.074,K,A*24
$GPGGA,214051.00,5250.53745,N,00542.34894,E,1,09,1.10,-4.4,M,45.8,M,,*71
$GPGSA,A,3,11,32,14,28,22,03,10,08,17,,,,2.06,1.10,1.74*06
$GPGSV,3,1,10,03,39,230,15,08,31,170,27,10,08,058,29,11,65,149,34*78
$GPGSV,3,2,10,14,43,097,40,17,19,316,30,22,66,224,31,27,04,155,21*7D
$GPGSV,3,3,10,28,26,288,34,32,38,065,43*7D
$GPGLL,5250.53745,N,00542.34894,E,214051.00,A,A*69
$GPRMC,214052.00,A,5250.53744,N,00542.34891,E,0.064,,070420,,,A*74
$GPVTG,,T,,M,0.064,N,0.119,K,A*28
$GPGGA,214052.00,5250.53744,N,00542.34891,E,1,09,1.10,-4.5,M,45.8,M,,*77
$GPGSA,A,3,11,32,14,28,22,03,10,08,17,,,,2.06,1.10,1.74*06
$GPGSV,3,1,10,03,39,230,14,08,31,170,28,10,08,058,29,11,65,149,34*76
$GPGSV,3,2,10,14,43,097,40,17,19,316,30,22,66,224,31,27,04,155,21*7D
$GPGSV,3,3,10,28,26,288,33,32,38,065,43*7A
$GPGLL,5250.53744,N,00542.34891,E,214052.00,A,A*6E
!AIVDM,1,1,,B,13aGrVHP000J8VLN?5FP0?wR00S8,0*76
$GPRMC,214053.00,A,5250.53744,N,00542.34888,E,0.118,,070420,,,A*77
$GPVTG,,T,,M,0.118,N,0.218,K,A*20
$GPGGA,214053.00,5250.53744,N,00542.34888,E,1,09,1.10,-4.6,M,45.8,M,,*7D
$GPGSA,A,3,11,32,14,28,22,03,10,08,17,,,,2.06,1.10,1.74*06
$GPGSV,3,1,10,03,39,230,13,08,31,170,28,10,08,058,29,11,65,149,35*70
$GPGSV,3,2,10,14,43,097,40,17,19,316,31,22,66,224,30,27,04,155,21*7D
$GPGSV,3,3,10,28,26,288,33,32,38,065,43*7A
$GPGLL,5250.53744,N,00542.34888,E,214053.00,A,A*67
!AIVDM,1,1,,B,140Ut9@P000J9DVN?1JP0?wT00SP,0*3C
$GPRMC,214054.00,A,5250.53742,N,00542.34887,E,0.046,,070420,,,A*73
$GPVTG,,T,,M,0.046,N,0.085,K,A*2C
$GPGGA,214054.00,5250.53742,N,00542.34887,E,1,09,1.10,-4.8,M,45.8,M,,*7D
$GPGSA,A,3,11,32,14,28,22,03,10,08,17,,,,2.06,1.10,1.74*06
$GPGSV,3,1,10,03,39,230,17,08,31,170,28,10,08,058,29,11,65,149,34*75
$GPGSV,3,2,10,14,43,097,40,17,19,316,30,22,66,224,30,27,04,155,21*7C
$GPGSV,3,3,10,28,26,288,33,32,38,065,43*7A
$GPGLL,5250.53742,N,00542.34887,E,214054.00,A,A*69
!AIVDM,1,1,,A,13aDq30P00PJ8B`N?0>h0?wV2<0?,0*1B
$GPRMC,214055.00,A,5250.53741,N,00542.34885,E,0.038,,070420,,,A*7A
$GPVTG,,T,,M,0.038,N,0.071,K,A*2E
$GPGGA,214055.00,5250.53741,N,00542.34885,E,1,09,1.10,-4.9,M,45.8,M,,*7C
$GPGSA,A,3,11,32,14,28,22,03,10,08,17,,,,2.06,1.10,1.74*06
$GPGSV,3,1,10,03,39,230,19,08,31,170,28,10,07,058,30,11,65,149,34*7C
!AIVDM,1,1,,A,13aL?W0P00PJ9T4N?1c@0?w`2<0V,0*51
$GPGSV,3,2,10,14,43,097,40,17,19,316,30,22,66,224,29,27,04,155,19*7F
$GPGSV,3,3,10,28,26,288,33,32,38,065,43*7A
$GPGLL,5250.53741,N,00542.34885,E,214055.00,A,A*69
$GPRMC,214056.00,A,5250.53740,N,00542.34886,E,0.109,,070420,,,A*78
$GPVTG,,T,,M,0.109,N,0.201,K,A*28
$GPGGA,214056.00,5250.53740,N,00542.34886,E,1,09,1.02,-5.0,M,45.8,M,,*76
$GPGSA,A,3,11,32,14,28,22,03,10,08,17,,,,2.00,1.02,1.72*05
$GPGSV,3,1,10,03,39,230,20,08,31,170,28,10,07,058,30,11,65,149,34*76
$GPGSV,3,2,10,14,43,097,40,17,19,316,31,22,66,224,29,27,04,155,19*7E
$GPGSV,3,3,10,28,26,288,33,32,38,065,43*7A
$GPGLL,5250.53740,N,00542.34886,E,214056.00,A,A*68
!AIVDM,1,1,,A,13P<JdP000PJ76DN>wBms6qd0HOO,0*59
!AIVDM,1,1,,B,13aNoh0000PJ7>PN>wn0?W1d08OP,0*3F
$GPRMC,214057.00,A,5250.53741,N,00542.34883,E,0.057,,070420,,,A*77
$GPVTG,,T,,M,0.057,N,0.105,K,A*25
$GPGGA,214057.00,5250.53741,N,00542.34883,E,1,09,1.02,-5.0,M,45.8,M,,*73
$GPGSA,A,3,11,32,14,28,22,03,10,08,17,,,,2.00,1.02,1.72*05
$GPGSV,3,1,10,03,39,230,20,08,31,170,28,10,07,058,30,11,65,149,34*76
$GPGSV,3,2,10,14,43,097,40,17,19,316,32,22,66,224,29,27,04,155,21*76
$GPGSV,3,3,10,28,26,288,33,32,38,065,43*7A
$GPGLL,5250.53741,N,00542.34883,E,214057.00,A,A*6D
!AIVDM,1,1,,A,13`nu=PP000J9?lN?7S`pgwf0@PA,0*60
$GPRMC,214058.00,A,5250.53747,N,00542.34881,E,0.033,,070420,,,A*7E
$GPVTG,,T,,M,0.033,N,0.061,K,A*24
$GPGGA,214058.00,5250.53747,N,00542.34881,E,1,09,1.02,-4.9,M,45.8,M,,*70
$GPGSA,A,3,11,32,14,28,22,03,10,08,17,,,,2.00,1.02,1.72*05
$GPGSV,3,1,10,03,39,230,22,08,31,170,28,10,07,058,30,11,65,149,34*74
$GPGSV,3,2,10,14,43,097,40,17,19,316,32,22,66,224,28,27,04,155,20*76
$GPGSV,3,3,10,28,26,288,33,32,38,065,43*7A
$GPGLL,5250.53747,N,00542.34881,E,214058.00,A,A*66
$GPRMC,214059.00,A,5250.53749,N,00542.34879,E,0.020,,070420,,,A*74
$GPVTG,,T,,M,0.020,N,0.037,K,A*25
$GPGGA,214059.00,5250.53749,N,00542.34879,E,1,09,1.02,-4.9,M,45.8,M,,*78
$GPGSA,A,3,11,32,14,28,22,03,10,08,17,,,,2.00,1.02,1.72*05
$GPGSV,3,1,10,03,39,230,21,08,31,170,29,10,07,058,30,11,65,149,34*76
$GPGSV,3,2,10,14,43,096,40,17,19,316,31,22,66,224,29,27,04,155,20*75
$GPGSV,3,3,10,28,26,288,33,32,38,065,43*7A
$GPGLL,5250.53749,N,00542.34879,E,214059.00,A,A*6E
$GPRMC,214100.00,A,5250.53752,N,00542.34874,E,0.070,,070420,,,A*7B
$GPVTG,,T,,M,0.070,N,0.130,K,A*26
$GPGGA,214100.00,5250.53752,N,00542.34874,E,1,09,1.02,-4.9,M,45.8,M,,*72
$GPGSA,A,3,11,32,14,28,22,03,10,08,17,,,,2.00,1.02,1.71*06
$GPGSV,3,1,10,03,39,230,20,08,31,170,29,10,07,058,30,11,65,149,34*77
$GPGSV,3,2,10,14,43,096,40,17,19,316,32,22,66,224,29,27,04,155,21*77
$GPGSV,3,3,10,28,26,288,33,32,38,065,43*7A
$GPGLL,5250.53752,N,00542.34874,E,214100.00,A,A*64
$GPRMC,214101.00,A,5250.53753,N,00542.34872,E,0.020,,070420,,,A*78
$GPVTG,,T,,M,0.020,N,0.037,K,A*25
$GPGGA,214101.00,5250.53753,N,00542.34872,E,1,09,1.02,-4.8,M,45.8,M,,*75
!AIVDM,1,1,,A,13aGrVHP000J8VNN?5F@0?wl08R9,0*51
$GPGSA,A,3,11,32,14,28,22,03,10,08,17,,,,1.99,1.02,1.71*05
$GPGSV,3,1,10,03,39,230,19,08,31,170,29,10,07,058,30,11,65,149,34*7D
$GPGSV,3,2,10,14,43,096,40,17,19,316,32,22,66,224,28,27,04,155,22*75
$GPGSV,3,3,10,28,26,288,33,32,38,065,43*7A
$GPGLL,5250.53753,N,00542.34872,E,214101.00,A,A*62
$GPRMC,214102.00,A,5250.53753,N,00542.34868,E,0.043,,070420,,,A*75
$GPVTG,,T,,M,0.043,N,0.080,K,A*2C
$GPGGA,214102.00,5250.53753,N,00542.34868,E,1,09,1.02,-4.8,M,45.8,M,,*7D
$GPGSA,A,3,11,32,14,28,22,03,10,08,17,,,,1.99,1.02,1.71*05
$GPGSV,3,1,10,03,39,230,17,08,31,170,29,10,07,058,30,11,65,149,35*72
$GPGSV,3,2,10,14,43,096,40,17,19,315,32,22,66,224,29,27,04,155,23*76
!AIVDM,2,1,2,B,53=MNJ400003TP7;O?5ADV0U<h622222222222150b23878C04C1CCAD,0*1A
!AIVDM,2,2,2,B,`88888888888880,2*7D
$GPGSV,3,3,10,28,26,288,33,32,38,065,43*7A
$GPGLL,5250.53753,N,00542.34868,E,214102.00,A,A*6A
!AIVDM,1,1,,B,H39sGlTU7B=40054;omlo0103314,0*4D
$GPRMC,214103.00,A,5250.53758,N,00542.34866,E,0.056,,070420,,,A*75
$GPVTG,,T,,M,0.056,N,0.104,K,A*25
$GPGGA,214103.00,5250.53758,N,00542.34866,E,1,09,1.02,-4.6,M,45.8,M,,*77
$GPGSA,A,3,11,32,14,28,22,03,10,08,17,,,,1.99,1.02,1.71*05
$GPGSV,3,1,10,03,39,230,15,08,31,170,29,10,07,058,30,11,65,149,35*70
$GPGSV,3,2,10,14,43,096,40,17,19,315,32,22,66,224,29,27,04,155,24*71
$GPGSV,3,3,10,28,26,288,33,32,38,065,42*7B
!AIVDM,1,1,,B,33aNa=mP000J7gBN?5pcqOv22DRr,0*78
$GPGLL,5250.53758,N,00542.34866,E,214103.00,A,A*6E
!AIVDM,1,1,,B,83=MNJ0j2d=><>LNL2`hq@O55:00,0*67
$GPRMC,214104.00,A,5250.53759,N,00542.34863,E,0.020,,070420,,,A*77
$GPVTG,,T,,M,0.020,N,0.037,K,A*25
$GPGGA,214104.00,5250.53759,N,00542.34863,E,1,09,1.10,-4.5,M,45.8,M,,*74
$GPGSA,A,3,11,32,14,28,22,03,10,08,17,,,,2.06,1.10,1.74*06
$GPGSV,3,1,10,03,39,230,13,08,31,170,29,10,07,058,30,11,65,149,35*76
!AIVDM,1,1,,A,140Ut9@P000J9DNN?1Jh0?v200Rk,0*42
$GPGSV,3,2,10,14,43,096,40,17,19,315,32,22,66,224,29,27,04,155,24*71
$GPGSV,3,3,10,28,26,288,32,32,38,065,42*7A
$GPGLL,5250.53759,N,00542.34863,E,214104.00,A,A*6D
!AIVDM,1,1,,B,13aDq30P00PJ8BjN?0?00?v22L0?,0*5E
$GPRMC,214105.00,A,5250.53757,N,00542.34862,E,0.046,,070420,,,A*79
$GPVTG,,T,,M,0.046,N,0.085,K,A*2C
$GPGGA,214105.00,5250.53757,N,00542.34862,E,1,08,1.10,-4.5,M,45.8,M,,*7B
$GPGSA,A,3,11,32,14,28,22,10,08,17,,,,,2.06,1.10,1.74*05
$GPGSV,3,1,10,03,39,230,09,08,31,170,28,10,07,058,30,11,65,149,35*7C
$GPGSV,3,2,10,14,43,096,40,17,19,315,32,22,66,224,28,27,04,155,24*70
$GPGSV,3,3,10,28,26,288,32,32,38,065,42*7A
$GPGLL,5250.53757,N,00542.34862,E,214105.00,A,A*63
$GPRMC,214106.00,A,5250.53755,N,00542.34860,E,0.067,,070420,,,A*79
$GPVTG,,T,,M,0.067,N,0.124,K,A*25
$GPGGA,214106.00,5250.53755,N,00542.34860,E,1,08,1.10,-4.5,M,45.8,M,,*78
!AIVDM,1,1,,B,13aL?W0P00PJ9T4N?1ch0?v626bT,0*77
$GPGSA,A,3,11,32,14,28,22,10,08,17,,,,,2.06,1.10,1.74*05
$GPGSV,3,1,10,03,39,230,09,08,31,170,28,10,07,058,30,11,65,149,35*7C
$GPGSV,3,2,10,14,43,096,40,17,19,315,32,22,66,224,28,27,04,155,23*77
!AIVDM,1,1,,B,13`nu=PP000J9?jN?7S@0?v60822,0*65
$GPGSV,3,3,10,28,26,288,32,32,38,065,42*7A
$GPGLL,5250.53755,N,00542.34860,E,214106.00,A,A*60
!AIVDM,1,1,,B,13P<JdP000PJ76FN>wBb9Fp80D0R,0*5E
$GPRMC,214107.00,A,5250.53755,N,00542.34858,E,0.026,,070420,,,A*76
$GPVTG,,T,,M,0.026,N,0.047,K,A*24
$GPGGA,214107.00,5250.53755,N,00542.34858,E,1,09,1.02,-4.5,M,45.8,M,,*70
$GPGSA,A,3,11,32,14,28,22,03,10,08,17,,,,1.99,1.02,1.71*05
$GPGSV,3,1,10,03,39,230,13,08,31,170,28,10,07,058,30,11,65,149,35*77
$GPGSV,3,2,10,14,43,096,40,17,19,315,32,22,67,224,28,27,04,155,23*76
$GPGSV,3,3,10,28,26,288,32,32,38,065,42*7A
$GPGLL,5250.53755,N,00542.34858,E,214107.00,A,A*6A
!AIVDM,1,1,,A,13aNoh0000PJ7>VN>wn0?W0:0@2i,0*59
$GPRMC,214108.00,A,5250.53756,N,00542.34856,E,0.067,,070420,,,A*71
$GPVTG,,T,,M,0.067,N,0.125,K,A*24
$GPGGA,214108.00,5250.53756,N,00542.34856,E,1,09,1.02,-4.5,M,45.8,M,,*72
$GPGSA,A,3,11,32,14,28,22,03,10,08,17,,,,1.99,1.02,1.71*05
$GPGSV,3,1,10,03,39,230,17,08,31,170,27,10,07,058,31,11,65,149,35*7D
$GPGSV,3,2,10,14,43,096,40,17,19,315,33,22,67,224,28,27,04,155,22*76
$GPGSV,3,3,10,28,26,288,32,32,38,065,42*7A
$GPGLL,5250.53756,N,00542.34856,E,214108.00,A,A*68
$GPRMC,214109.00,A,5250.53756,N,00542.34854,E,0.018,,070420,,,A*7A
$GPVTG,,T,,M,0.018,N,0.033,K,A*2A
$GPGGA,214109.00,5250.53756,N,00542.34854,E,1,09,1.02,-4.4,M,45.8,M,,*70
$GPGSA,A,3,11,32,14,28,22,03,10,08,17,,,,1.99,1.02,1.71*05
$GPGSV,3,1,10,03,39,230,19,08,31,170,26,10,07,058,31,11,65,149,35*72
$GPGSV,3,2,10,14,43,096,40,17,19,315,33,22,67,224,28,27,04,155,21*75
$GPGSV,3,3,10,28,26,288,31,32,38,065,42*79
$GPGLL,5250.53756,N,00542.34854,E,214109.00,A,A*6B
!AIVDM,1,1,,B,H3`lOl4UCBD5<50@6pjkl01`441t,0*16
$GPRMC,214110.00,A,5250.53755,N,00542.34853,E,0.009,,070420,,,A*76
$GPVTG,,T,,M,0.009,N,0.017,K,A*2C
$GPGGA,214110.00,5250.53755,N,00542.34853,E,1,09,1.02,-4.3,M,45.8,M,,*7B
$GPGSA,A,3,11,32,14,28,22,03,10,08,17,,,,1.99,1.02,1.71*05
$GPGSV,3,1,10,03,39,230,20,08,31,170,26,10,07,058,31,11,65,149,35*78
$GPGSV,3,2,10,14,43,096,40,17,19,315,34,22,67,224,28,27,04,155,20*73
$GPGSV,3,3,10,28,26,288,31,32,38,065,42*79
$GPGLL,5250.53755,N,00542.34853,E,214110.00,A,A*67
!AIVDM,1,1,,B,B39sGlP00P6Qp<WSjHOQ3wSQjDKb,0*67
$GPRMC,214111.00,A,5250.53756,N,00542.34854,E,0.025,,070420,,,A*7D
$GPVTG,,T,,M,0.025,N,0.047,K,A*27
$GPGGA,214111.00,5250.53756,N,00542.34854,E,1,09,1.02,-4.3,M,45.8,M,,*7E
$GPGSA,A,3,11,32,14,28,22,03,10,08,17,,,,1.99,1.02,1.71*05
$GPGSV,3,1,10,03,39,230,20,08,31,170,27,10,07,058,31,11,65,149,35*79
$GPGSV,3,2,10,14,43,096,40,17,19,315,34,22,67,224,28,27,04,155,20*73
$GPGSV,3,3,10,28,26,288,32,32,38,065,42*7A
$GPGLL,5250.53756,N,00542.34854,E,214111.00,A,A*62
!AIVDM,1,1,,B,13aGrVHP000J8VFN?5Eh0?vB06bT,0*0D
$GPRMC,214112.00,A,5250.53757,N,00542.34855,E,0.037,,070420,,,A*7D
$GPVTG,,T,,M,0.037,N,0.068,K,A*29
$GPGGA,214112.00,5250.53757,N,00542.34855,E,1,09,1.02,-4.1,M,45.8,M,,*7F
$GPGSA,A,3,11,32,14,28,22,03,10,08,17,,,,1.99,1.02,1.71*05
$GPGSV,3,1,10,03,39,230,20,08,31,170,25,10,07,058,31,11,65,149,34*7A
$GPGSV,3,2,10,14,43,096,40,17,19,315,34,22,67,224,28,27,03,156,21*76
$GPGSV,3,3,10,28,26,288,31,32,38,065,42*79
$GPGLL,5250.53757,N,00542.34855,E,214112.00,A,A*61
$GPRMC,214113.00,A,5250.53755,N,00542.34856,E,0.042,,070420,,,A*7F
$GPVTG,,T,,M,0.042,N,0.078,K,A*2A
$GPGGA,214113.00,5250.53755,N,00542.34856,E,1,09,1.02,-4.1,M,45.8,M,,*7F
$GPGSA,A,3,11,32,14,28,22,03,10,08,17,,,,1.99,1.02,1.71*05
$GPGSV,3,1,10,03,39,230,18,08,31,170,24,10,07,058,31,11,65,149,34*70
$GPGSV,3,2,10,14,43,096,40,17,19,315,34,22,67,224,28,27,03,156,21*76
$GPGSV,3,3,10,28,26,287,32,32,38,065,42*75
$GPGLL,5250.53755,N,00542.34856,E,214113.00,A,A*61
!AIVDM,1,1,,B,340Ut9@P000J9DJN?1L00?vF0@oC,0*08
$GPRMC,214114.00,A,5250.53750,N,00542.34857,E,0.074,,070420,,,A*79
$GPVTG,,T,,M,0.074,N,0.136,K,A*24
$GPGGA,214114.00,5250.53750,N,00542.34857,E,1,09,1.02,-4.1,M,45.8,M,,*7C
$GPGSA,A,3,11,32,14,28,22,03,10,08,17,,,,1.99,1.02,1.71*05
$GPGSV,3,1,10,03,39,230,16,08,31,170,25,10,07,058,31,11,65,149,35*7E
!AIVDM,1,1,,A,13aDq30P00PJ8BVN?0>P0?vF26bT,0*37
$GPGSV,3,2,10,14,43,096,40,17,19,315,34,22,67,224,27,27,03,156,22*7A
$GPGSV,3,3,10,28,26,287,32,32,38,065,42*75
$GPGLL,5250.53750,N,00542.34857,E,214114.00,A,A*62
$GPRMC,214115.00,A,5250.53743,N,00542.34858,E,0.046,,070420,,,A*74
$GPVTG,,T,,M,0.046,N,0.086,K,A*2F
$GPGGA,214115.00,5250.53743,N,00542.34858,E,1,09,1.02,-4.2,M,45.8,M,,*73
$GPGSA,A,3,11,32,14,28,22,03,10,08,17,,,,1.99,1.02,1.71*05
$GPGSV,3,1,10,03,39,230,14,08,31,170,26,10,07,058,30,11,65,149,34*7F
$GPGSV,3,2,10,14,43,096,40,17,19,315,34,22,67,224,27,27,03,156,23*7B
$GPGSV,3,3,10,28,26,287,32,32,38,065,42*75
$GPGLL,5250.53743,N,00542.34858,E,214115.00,A,A*6E
$GPRMC,214116.00,A,5250.53732,N,00542.34860,E,0.035,,070420,,,A*7E
$GPVTG,,T,,M,0.035,N,0.065,K,A*26
$GPGGA,214116.00,5250.53732,N,00542.34860,E,1,09,1.02,-4.4,M,45.8,M,,*7B
$GPGSA,A,3,11,32,14,28,22,03,10,08,17,,,,1.99,1.02,1.71*05
$GPGSV,3,1,10,03,39,230,14,08,31,170,26,10,07,058,30,11,65,149,34*7F
$GPGSV,3,2,10,14,43,096,40,17,19,315,34,22,67,224,27,27,03,156,23*7B
$GPGSV,3,3,10,28,26,287,32,32,38,065,42*75
$GPGLL,5250.53732,N,00542.34860,E,214116.00,A,A*60
!AIVDM,1,1,,A,13aL?W0P00PJ9SbN?1c00?vL2D0V,0*25
$GPRMC,214117.00,A,5250.53724,N,00542.34862,E,0.090,,070420,,,A*75
$GPVTG,,T,,M,0.090,N,0.166,K,A*2B
!AIVDM,1,1,,A,13P<JdP000PJ76BN>wB`h6pL0D0R,0*0E
$GPGGA,214117.00,5250.53724,N,00542.34862,E,1,09,1.02,-4.5,M,45.8,M,,*7E
!AIVDM,1,1,,B,33aB9AUP00PJ9o6N?7g3PwvJ2DNb,0*52
$GPGSA,A,3,11,32,14,28,22,03,10,08,17,,,,1.99,1.02,1.71*05
$GPGSV,3,1,10,03,39,230,11,08,31,170,25,10,07,058,31,11,65,149,35*79
$GPGSV,3,2,10,14,43,096,40,17,19,315,33,22,67,224,28,27,03,156,23*73
$GPGSV,3,3,10,28,26,287,32,32,38,064,42*74
$GPGLL,5250.53724,N,00542.34862,E,214117.00,A,A*64
!AIVDM,1,1,,A,13`nu=PP000J9?fN?7S@0?vL06bT,0*28
$GPRMC,214118.00,A,5250.53712,N,00542.34863,E,0.088,,070420,,,A*77
$GPVTG,,T,,M,0.088,N,0.163,K,A*27
$GPGGA,214118.00,5250.53712,N,00542.34863,E,1,09,1.02,-4.7,M,45.8,M,,*77
$GPGSA,A,3,11,32,14,28,22,03,10,08,17,,,,1.99,1.02,1.71*05
!AIVDM,1,1,,B,13aNoh0000PJ7>hN>wn0?W0P00RW,0*20
$GPGSV,3,1,10,03,39,230,11,08,31,170,26,10,07,058,30,11,65,149,35*7B
$GPGSV,3,2,10,14,43,096,40,17,19,315,33,22,67,224,29,27,03,156,23*72
$GPGSV,3,3,10,28,26,287,32,32,38,064,42*74
$GPGLL,5250.53712,N,00542.34863,E,214118.00,A,A*6F
$GPRMC,214119.00,A,5250.53701,N,00542.34864,E,0.050,,070420,,,A*76
$GPVTG,,T,,M,0.050,N,0.093,K,A*2C
$GPGGA,214119.00,5250.53701,N,00542.34864,E,1,09,1.02,-4.9,M,45.8,M,,*7D
$GPGSA,A,3,11,32,14,28,22,03,10,08,17,,,,1.99,1.02,1.71*05
$GPGSV,3,1,10,03,39,230,11,08,31,170,26,10,07,058,30,11,65,149,35*7B
$GPGSV,3,2,10,14,43,096,40,17,19,315,33,22,67,224,29,27,03,156,23*72
$GPGSV,3,3,10,28,26,287,33,32,38,064,42*75
$GPGLL,5250.53701,N,00542.34864,E,214119.00,A,A*6B
$GPRMC,214120.00,A,5250.53690,N,00542.34863,E,0.012,,070420,,,A*74
$GPVTG,,T,,M,0.012,N,0.022,K,A*20
$GPGGA,214120.00,5250.53690,N,00542.34863,E,1,09,1.02,-5.1,M,45.8,M,,*70
$GPGSA,A,3,11,32,14,28,22,03,10,08,17,,,,1.99,1.02,1.71*05
$GPGSV,3,1,10,03,39,230,11,08,31,170,25,10,07,058,30,11,65,149,35*78
$GPGSV,3,2,10,14,43,096,40,17,19,315,32,22,67,224,29,27,03,156,22*72
$GPGSV,3,3,10,28,26,287,33,32,38,064,42*75
$GPGLL,5250.53690,N,00542.34863,E,214120.00,A,A*6F
$GPRMC,214121.00,A,5250.53666,N,00542.34861,E,0.146,,070420,,,A*7E
$GPVTG,,T,,M,0.146,N,0.270,K,A*25
$GPGGA,214121.00,5250.53666,N,00542.34861,E,1,08,1.10,-5.7,M,45.8,M,,*7E
$GPGSA,A,3,11,32,14,28,22,10,08,17,,,,,2.05,1.10,1.73*01
!AIVDM,1,1,,A,13aGrVHP000J8V<N?5DP0?vT06bT,0*5B
$GPGSV,3,1,10,03,39,230,07,08,31,170,24,10,07,058,30,11,65,149,35*7E
!AIVDM,2,1,3,B,540UvTh00000PGOKS>1HU=@60<h5=<T<6222220t41;8352@03k1CCAD,0*44
!AIVDM,2,2,3,B,`88888888888880,2*7C
$GPGSV,3,2,10,14,43,096,40,17,19,315,31,22,67,224,30,27,03,156,20*7B
$GPGSV,3,3,10,28,26,287,33,32,38,064,41*76
$GPGLL,5250.53666,N,00542.34861,E,214121.00,A,A*65
!AIVDM,1,1,,A,13aDp<PP000IwSRN?WmP0?vR20RU,0*77
$GPRMC,214122.00,A,5250.53657,N,00542.34861,E,0.112,,070420,,,A*7E
$GPVTG,,T,,M,0.112,N,0.208,K,A*2B
$GPGGA,214122.00,5250.53657,N,00542.34861,E,1,09,1.02,-5.8,M,45.8,M,,*72
$GPGSA,A,3,11,32,14,28,22,03,10,08,17,,,,1.99,1.02,1.71*05
$GPGSV,3,1,10,03,39,230,15,08,31,170,24,10,07,058,29,11,65,149,35*75
$GPGSV,3,2,10,14,43,096,40,17,19,315,31,22,67,224,30,27,03,156,19*71
$GPGSV,3,3,10,28,26,287,33,32,38,064,41*76
$GPGLL,5250.53657,N,00542.34861,E,214122.00,A,A*64
$GPRMC,214123.00,A,5250.53648,N,00542.34862,E,0.088,,070420,,,A*70
$GPVTG,,T,,M,0.088,N,0.162,K,A*26
$GPGGA,214123.00,5250.53648,N,00542.34862,E,1,09,1.02,-6.0,M,45.8,M,,*75
$GPGSA,A,3,11,32,14,28,22,03,10,08,17,,,,1.99,1.02,1.71*05
$GPGSV,3,1,10,03,39,230,17,08,31,170,26,10,07,058,29,11,65,149,35*75
$GPGSV,3,2,10,14,43,096,40,17,19,315,31,22,67,224,29,27,03,156,19*79
$GPGSV,3,3,10,28,26,287,33,32,38,064,41*76
$GPGLL,5250.53648,N,00542.34862,E,214123.00,A,A*68
$GPRMC,214124.00,A,5250.53639,N,00542.34859,E,0.097,,070420,,,A*77
$GPVTG,,T,,M,0.097,N,0.179,K,A*22
$GPGGA,214124.00,5250.53639,N,00542.34859,E,1,09,1.02,-6.2,M,45.8,M,,*7E
$GPGSA,A,3,11,32,14,28,22,03,10,08,17,,,,1.99,1.02,1.71*05
!AIVDM,1,1,,B,13aDq30P00PJ8BNN?0=P0?vb26bT,0*0B
$GPGSV,3,1,10,03,39,230,18,08,31,170,25,10,07,058,29,11,65,149,35*79
$GPGSV,3,2,10,14,43,096,40,17,19,315,31,22,67,224,28,27,03,156,19*78
$GPGSV,3,3,10,28,26,287,32,32,38,064,41*77
$GPGLL,5250.53639,N,00542.34859,E,214124.00,A,A*61
!AIVDM,1,1,,A,140Ut9@P000J9DNN?1MP0?vb00RV,0*10
$GPRMC,214125.00,A,5250.53632,N,00542.34856,E,0.024,,070420,,,A*7A
$GPVTG,,T,,M,0.024,N,0.044,K,A*25
$GPGGA,214125.00,5250.53632,N,00542.34856,E,1,09,1.02,-6.3,M,45.8,M,,*7A
$GPGSA,A,3,11,32,14,28,22,03,10,08,17,,,,1.99,1.02,1.71*05
$GPGSV,3,1,10,03,39,230,15,08,31,170,23,10,07,058,29,11,65,149,35*72
$GPGSV,3,2,10,14,43,096,40,17,19,315,31,22,67,224,29,27,03,156,20*73
!AIVDM,1,1,,B,13aL?W0P00PJ9SnN?1fP0?vd2<0V,0*1F
$GPGSV,3,3,10,28,26,287,32,32,38,064,42*74
$GPGLL,5250.53632,N,00542.34856,E,214125.00,A,A*64
!AIVDM,1,1,,B,13P<JdP000PJ76DN>wC=1Vnf00SQ,0*4E
$GPRMC,214126.00,A,5250.53621,N,00542.34853,E,0.036,,070420,,,A*7D
$GPVTG,,T,,M,0.036,N,0.066,K,A*26
$GPGGA,214126.00,5250.53621,N,00542.34853,E,1,09,1.02,-6.5,M,45.8,M,,*78
$GPGSA,A,3,11,32,14,28,22,03,10,08,17,,,,1.99,1.02,1.71*05
$GPGSV,3,1,10,03,39,230,12,08,31,170,23,10,07,058,29,11,65,149,35*75
$GPGSV,3,2,10,14,43,096,40,17,19,315,32,22,67,224,28,27,03,156,20*71
$GPGSV,3,3,10,28,26,287,32,32,38,064,42*74
$GPGLL,5250.53621,N,00542.34853,E,214126.00,A,A*60
!AIVDM,1,1,,B,33aEP35P00PJ7VlN?4M8owvdRDjb,0*34
$GPRMC,214127.00,A,5250.53615,N,00542.34851,E,0.068,,070420,,,A*72
$GPVTG,,T,,M,0.068,N,0.126,K,A*28
$GPGGA,214127.00,5250.53615,N,00542.34851,E,1,09,1.02,-6.6,M,45.8,M,,*7F
$GPGSA,A,3,11,32,14,28,22,03,10,08,17,,,,1.99,1.02,1.71*05
$GPGSV,3,1,10,03,39,230,14,08,31,170,23,10,07,058,29,11,65,149,35*73
$GPGSV,3,2,10,14,43,096,40,17,19,315,33,22,67,224,28,27,03,156,20*70
$GPGSV,3,3,10,28,26,287,32,32,38,064,42*74
$GPGLL,5250.53615,N,00542.34851,E,214127.00,A,A*64
!AIVDM,1,1,,B,13`nu=PP000J9?fN?7SP0?vh08>P,0*49
$GPRMC,214128.00,A,5250.53606,N,00542.34848,E,0.091,,070420,,,A*71
$GPVTG,,T,,M,0.091,N,0.168,K,A*24
$GPGGA,214128.00,5250.53606,N,00542.34848,E,1,09,1.02,-6.8,M,45.8,M,,*74
$GPGSA,A,3,11,32,14,28,22,03,10,08,17,,,,1.99,1.02,1.70*04
!AIVDM,1,1,,A,33aNoh0000PJ7>nN>wmh?W0l064S,0*24
$GPGSV,3,1,10,03,39,230,14,08,31,170,23,10,07,058,30,11,65,149,34*7A
$GPGSV,3,2,10,14,43,096,40,17,19,315,34,22,67,224,28,27,03,156,19*7D
$GPGSV,3,3,10,28,26,287,32,32,38,064,42*74
$GPGLL,5250.53606,N,00542.34848,E,214128.00,A,A*61
$GPRMC,214129.00,A,5250.53602,N,00542.34846,E,0.022,,070420,,,A*72
$GPVTG,,T,,M,0.022,N,0.040,K,A*27
$GPGGA,214129.00,5250.53602,N,00542.34846,E,1,09,1.02,-6.9,M,45.8,M,,*7E
$GPGSA,A,3,11,32,14,28,22,03,10,08,17,,,,1.98,1.02,1.70*05
$GPGSV,3,1,10,03,39,230,15,08,31,170,22,10,07,058,29,11,65,149,35*73
$GPGSV,3,2,10,14,43,096,40,17,19,315,33,22,67,224,29,27,03,156,19*7B
$GPGSV,3,3,10,28,26,287,32,32,38,064,42*74
$GPGLL,5250.53602,N,00542.34846,E,214129.00,A,A*6A
$GPRMC,214130.00,A,5250.53601,N,00542.34844,E,0.010,,070420,,,A*7A
$GPVTG,,T,,M,0.010,N,0.018,K,A*2B
$GPGGA,214130.00,5250.53601,N,00542.34844,E,1,09,1.02,-7.0,M,45.8,M,,*7F
$GPGSA,A,3,11,32,14,28,22,03,10,08,17,,,,1.98,1.02,1.70*05
$GPGSV,3,1,10,03,39,230,16,08,31,170,23,10,07,058,29,11,65,149,34*70
$GPGSV,3,2,10,14,43,096,40,17,19,315,33,22,67,224,30,27,03,156,19*73
$GPGSV,3,3,10,28,26,287,32,32,38,064,42*74
$GPGLL,5250.53601,N,00542.34844,E,214130.00,A,A*63
$GPRMC,214131.00,A,5250.53597,N,00542.34842,E,0.032,,070420,,,A*71
$GPVTG,,T,,M,0.032,N,0.060,K,A*24
$GPGGA,214131.00,5250.53597,N,00542.34842,E,1,09,1.02,-7.0,M,45.8,M,,*74
$GPGSA,A,3,11,32,14,28,22,03,10,08,17,,,,1.98,1.02,1.70*05
$GPGSV,3,1,10,03,39,230,17,08,31,170,25,10,07,058,28,11,65,149,33*71
$GPGSV,3,2,10,14,43,096,40,17,19,315,34,22,67,224,30,27,03,156,21*7F
$GPGSV,3,3,10,28,26,287,32,32,38,064,42*74
$GPGLL,5250.53597,N,00542.34842,E,214131.00,A,A*68
!AIVDM,1,1,,A,35R3Vn50000J9adN?8@siGjp0E1r,0*42
$GPRMC,214132.00,A,5250.53598,N,00542.34841,E,0.023,,070420,,,A*7E
$GPVTG,,T,,M,0.023,N,0.042,K,A*24
$GPGGA,214132.00,5250.53598,N,00542.34841,E,1,09,1.02,-6.9,M,45.8,M,,*73
$GPGSA,A,3,11,32,14,28,22,03,10,08,17,,,,1.98,1.02,1.70*05
$GPGSV,3,1,10,03,39,230,16,08,31,170,26,10,07,058,29,11,65,149,33*72
!AIVDM,1,1,,B,13aGrVHP000J8V6N?5Ch0?vr0D0g,0*58
$GPGSV,3,2,10,14,43,096,40,17,19,315,34,22,67,224,29,27,03,156,22*74
$GPGSV,3,3,10,28,26,287,33,32,38,064,42*75
$GPGLL,5250.53598,N,00542.34841,E,214132.00,A,A*67
$GPRMC,214133.00,A,5250.53596,N,00542.34840,E,0.013,,070420,,,A*73
$GPVTG,,T,,M,0.013,N,0.025,K,A*26
$GPGGA,214133.00,5250.53596,N,00542.34840,E,1,09,1.02,-6.8,M,45.8,M,,*7C
$GPGSA,A,3,11,32,14,28,22,03,10,08,17,,,,1.98,1.02,1.70*05
$GPGSV,3,1,10,03,39,230,14,08,31,170,24,10,07,058,29,11,65,149,34*75
$GPGSV,3,2,10,14,43,096,40,17,19,315,34,22,67,224,29,27,03,156,21*77
$GPGSV,3,3,10,28,26,287,33,32,38,064,42*75
$GPGLL,5250.53596,N,00542.34840,E,214133.00,A,A*69
$GPRMC,214134.00,A,5250.53598,N,00542.34841,E,0.029,,070420,,,A*72
$GPVTG,,T,,M,0.029,N,0.053,K,A*2E
$GPGGA,214134.00,5250.53598,N,00542.34841,E,1,09,1.02,-6.7,M,45.8,M,,*7B
$GPGSA,A,3,11,32,14,28,22,03,10,08,17,,,,1.98,1.02,1.70*05
$GPGSV,3,1,10,03,39,230,13,08,31,170,25,10,07,058,29,11,65,149,34*73
!AIVDM,1,1,,B,140Ut9@P000J9DLN?1NP0?vv00Ro,0*3F
$GPGSV,3,2,10,14,43,096,40,17,19,315,35,22,67,224,29,27,03,156,21*76
$GPGSV,3,3,10,28,26,287,33,32,38,064,42*75
$GPGLL,5250.53598,N,00542.34841,E,214134.00,A,A*61
!AIVDM,1,1,,A,13aDq30P00PJ8B6N?0<@0?w026bT,0*32
$GPRMC,214135.00,A,5250.53600,N,00542.34843,E,0.015,,070420,,,A*7C
$GPVTG,,T,,M,0.015,N,0.028,K,A*2D
$GPGGA,214135.00,5250.53600,N,00542.34843,E,1,09,1.02,-6.5,M,45.8,M,,*78
$GPGSA,A,3,11,32,14,28,22,03,10,08,17,,,,1.98,1.02,1.70*05
$GPGSV,3,1,10,03,39,230,12,08,31,170,25,10,07,058,29,11,65,149,34*72
$GPGSV,3,2,10,14,43,096,40,17,19,315,35,22,67,224,29,27,03,156,22*75
$GPGSV,3,3,10,28,26,287,32,32,38,064,41*77
$GPGLL,5250.53600,N,00542.34843,E,214135.00,A,A*60
!AIVDM,1,1,,A,13P<JdP000PJ76FN>wCbfFo200Rl,0*3E
$GPRMC,214136.00,A,5250.53603,N,00542.34846,E,0.055,,070420,,,A*7D
$GPVTG,,T,,M,0.055,N,0.101,K,A*23
$GPGGA,214136.00,5250.53603,N,00542.34846,E,1,09,1.02,-6.4,M,45.8,M,,*7C
$GPGSA,A,3,11,32,14,28,22,03,10,08,17,,,,1.98,1.02,1.70*05
$GPGSV,3,1,10,03,39,230,12,08,31,170,25,10,07,058,29,11,65,149,35*73
$GPGSV,3,2,10,14,43,096,39,17,19,315,35,22,67,224,28,27,03,156,21*79
$GPGSV,3,3,10,28,26,287,31,32,38,064,41*74
$GPGLL,5250.53603,N,00542.34846,E,214136.00,A,A*65
!AIVDM,1,1,,A,B3`lOl00086Ql=7SjfcQ3whQnE1:,0*41
!AIVDM,1,1,,A,13aL?W0P00PJ9SvN?1h@0?w228Ch,0*04
$GPRMC,214137.00,A,5250.53606,N,00542.34848,E,0.085,,070420,,,A*7A
$GPVTG,,T,,M,0.085,N,0.157,K,A*2D
$GPGGA,214137.00,5250.53606,N,00542.34848,E,1,09,1.09,-6.1,M,45.8,M,,*78
$GPGSA,A,3,11,32,14,28,22,03,10,08,17,,,,2.04,1.09,1.72*0A
!AIVDM,1,1,,A,13`nu=PP000J9?`N?7RICww40@D8,0*58
!AIVDM,1,1,,B,13aNoh0000PJ7>nN>wmP?W160D29,0*58
$GPGSV,3,1,10,03,39,230,12,08,31,170,23,10,07,058,30,11,65,149,35*7D
$GPGSV,3,2,10,14,43,096,39,17,19,315,35,22,67,224,28,27,03,156,19*72
$GPGSV,3,3,10,28,26,287,31,32,38,064,41*74
$GPGLL,5250.53606,N,00542.34848,E,214137.00,A,A*6F
!AIVDM,2,1,7,A,53`kEwp000010?OW3D1aL4iEL00000000000000U2H005u2=0431CCAD,0*27
!AIVDM,2,2,7,A,P00000000000000,2*43
$GPRMC,214138.00,A,5250.53607,N,00542.34851,E,0.064,,070420,,,A*73
$GPVTG,,T,,M,0.064,N,0.118,K,A*29
$GPGGA,214138.00,5250.53607,N,00542.34851,E,1,09,1.09,-6.0,M,45.8,M,,*7F
$GPGSA,A,3,11,32,14,28,22,03,10,08,17,,,,2.04,1.09,1.72*0A
$GPGSV,3,1,10,03,39,230,11,08,31,170,24,10,07,058,29,11,65,149,35*71
$GPGSV,3,2,10,14,43,096,39,17,19,315,36,22,67,224,28,27,03,156,17*7F
$GPGSV,3,3,10,28,26,287,29,32,38,064,41*7D
$GPGLL,5250.53607,N,00542.34851,E,214138.00,A,A*69
$GPRMC,214139.00,A,5250.53611,N,00542.34855,E,0.062,,070420,,,A*77
$GPVTG,,T,,M,0.062,N,0.114,K,A*23
$GPGGA,214139.00,5250.53611,N,00542.34855,E,1,09,1.09,-5.7,M,45.8,M,,*79
$GPGSA,A,3,11,32,14,28,22,03,10,08,17,,,,2.04,1.09,1.72*0A
$GPGSV,3,1,10,03,39,230,11,08,31,170,26,10,07,058,30,11,65,149,35*7B
!AIVDM,1,1,,A,H3`fMU0PE=@T400000000000000,2*79
$GPGSV,3,2,10,14,43,096,39,17,19,315,36,22,67,224,27,27,03,156,16*71
!AIVDM,1,1,,A,H3`fMU4TF5C@5B0@3okhp01h1140,0*16
$GPGSV,3,3,10,28,26,287,29,32,38,064,41*7D
$GPGLL,5250.53611,N,00542.34855,E,214139.00,A,A*6B
$GPRMC,214140.00,A,5250.53617,N,00542.34859,E,0.032,,070420,,,A*76
$GPVTG,,T,,M,0.032,N,0.059,K,A*2E
$GPGGA,214140.00,5250.53617,N,00542.34859,E,1,09,1.09,-5.3,M,45.8,M,,*79
$GPGSA,A,3,11,32,14,28,22,03,10,08,17,,,,2.04,1.09,1.72*0A
$GPGSV,3,1,10,03,39,230,12,08,31,170,27,10,07,058,30,11,65,149,35*79
$GPGSV,3,2,10,14,43,096,39,17,19,315,36,22,67,224,28,27,03,156,15*7D
!AIVDM,1,1,,A,33aDp<PP000IwSRN?WmP0?w:23GS,0*0C
$GPGSV,3,3,10,28,26,287,28,32,38,064,41*7C
$GPGLL,5250.53617,N,00542.34859,E,214140.00,A,A*6F
!AIVDM,1,1,,A,83`kEwhj2d<dtuttt@G8FSWE5000,0*50
$GPRMC,214141.00,A,5250.53619,N,00542.34865,E,0.016,,070420,,,A*70
!AIVDM,2,1,8,A,53`hBO@0000107;OW<1@T`l4000000000000000U0h<14t0Ht4000000,0*22
!AIVDM,2,2,8,A,000000000000000,2*2C
$GPVTG,,T,,M,0.016,N,0.030,K,A*27
$GPGGA,214141.00,5250.53619,N,00542.34865,E,1,09,1.09,-5.1,M,45.8,M,,*7B
!AIVDM,1,1,,B,83`hBO@j2d<d<<NMd@EHF3W@5000,0*42
$GPGSA,A,3,11,32,14,28,22,03,10,08,17,,,,2.04,1.09,1.72*0A
$GPGSV,3,1,10,03,39,230,14,08,31,170,26,10,07,058,30,11,65,149,34*7F
$GPGSV,3,2,10,14,43,096,39,17,19,315,36,22,67,224,27,27,03,156,15*72
$GPGSV,3,3,10,28,26,287,27,32,38,064,41*73
$GPGLL,5250.53619,N,00542.34865,E,214141.00,A,A*6F
!AIVDM,2,1,4,B,53aIk>`000010OW7S80L45=@E8h4p@000000000Q:0665t0Ht0000000,0*4B
!AIVDM,2,2,4,B,000000000000000,2*23
$GPRMC,214142.00,A,5250.53621,N,00542.34871,E,0.047,,070420,,,A*79
$GPVTG,,T,,M,0.047,N,0.087,K,A*2F
$GPGGA,214142.00,5250.53621,N,00542.34871,E,1,09,1.09,-4.9,M,45.8,M,,*7F
$GPGSA,A,3,11,32,14,28,22,03,10,08,17,,,,2.04,1.09,1.72*0A
!AIVDM,1,1,,B,83aIk>Pj2d<dte=LLAcPo@QP0100,0*16
$GPGSV,3,1,10,03,39,230,14,08,31,170,26,10,07,058,30,11,65,149,35*7E
!AIVDM,1,1,,A,13aGrVHP000J8V8N?5D00?w>0HG5,0*6E
$GPGSV,3,2,10,14,43,096,39,17,19,315,37,22,67,224,28,27,03,156,17*7E
$GPGSV,3,3,10,28,26,287,27,32,38,064,41*73
$GPGLL,5250.53621,N,00542.34871,E,214142.00,A,A*62
$GPRMC,214143.00,A,5250.53618,N,00542.34875,E,0.024,,070420,,,A*73
$GPVTG,,T,,M,0.024,N,0.045,K,A*24
$GPGGA,214143.00,5250.53618,N,00542.34875,E,1,09,1.02,-4.7,M,45.8,M,,*75
$GPGSA,A,3,11,32,14,28,22,03,10,08,17,,,,1.98,1.02,1.70*05
$GPGSV,3,1,10,03,39,230,14,08,31,170,26,10,07,058,30,11,65,149,34*7F
!AIVDM,1,1,,A,140Ut9@P000J9DbN?1Nh0?w@08Gb,0*0D
$GPGSV,3,2,10,14,43,096,39,17,19,315,37,22,67,224,28,27,03,156,18*71
$GPGSV,3,3,10,28,26,287,28,32,38,064,40*7D
$GPGLL,5250.53618,N,00542.34875,E,214143.00,A,A*6D
$GPRMC,214144.00,A,5250.53616,N,00542.34876,E,0.029,,070420,,,A*74
$GPVTG,,T,,M,0.029,N,0.055,K,A*28
$GPGGA,214144.00,5250.53616,N,00542.34876,E,1,09,1.02,-4.5,M,45.8,M,,*7D
