$GPGSV,2,1,08,23,07,084,00,28,07,160,00,08,66,189,45,29,14,273,00*73
$GPGSV,2,2,08,10,50,304,37,04,16,200,36,02,34,242,43,27,72,076,43*72
{"class":"SKY","time":"2005-06-09T14:34:12.280Z","gdop":5.27,"hdop":2.38,"pdop":4.24,"tdop":3.13,"xdop":1.70,"ydop":1.67,"vdop":3.51,"nSat":8,"uSat":5,"satellites":[{"PRN":23,"gnssid":0,"svid":23,"az":84.0,"el":7.0,"ss":0.0,"used":false},{"PRN":28,"gnssid":0,"svid":28,"az":160.5,"el":7.0,"ss":0.0,"used":false},{"PRN":8,"gnssid":0,"svid":8,"az":189.0,"el":65.5,"ss":44.8,"used":true},{"PRN":29,"gnssid":0,"svid":29,"az":273.0,"el":13.5,"ss":0.0,"used":false},{"PRN":10,"gnssid":0,"svid":10,"az":304.5,"el":50.5,"ss":37.2,"used":true},{"PRN":4,"gnssid":0,"svid":4,"az":199.5,"el":16.0,"ss":36.5,"used":true},{"PRN":2,"gnssid":0,"svid":2,"az":241.5,"el":34.5,"ss":43.1,"used":true},{"PRN":27,"gnssid":0,"svid":27,"az":76.5,"el":71.5,"ss":43.0,"used":true}]}
$GPZDA,143412.28,09,06,2005,00,00*65
$GPGGA,143412.28,4629.8900547,N,0734.0471328,E,1,05,2.38,1352.10,M,45.589,M,,*6F
$GPRMC,143412.28,A,4629.8900547,N,0734.0471328,E,0.1776,10.379,090605,2.3,E*66
$GPGSA,A,3,8,10,4,2,27,,,,,,,,2.4,2.4,3.5*0E
$GPGBS,143412.28,25.546,25.003,80.721,,,,*72
{"class":"TPV","mode":3,"time":"2005-06-09T14:34:12.280Z","ept":0.005,"lat":46.498167579,"lon":7.567452213,"altHAE":1397.6895,"altMSL":1352.1000,"alt":1352.1000,"epx":25.546,"epy":25.003,"epv":80.721,"track":10.3789,"magtrack":12.7006,"magvar":2.3,"speed":0.091,"climb":-0.085,"ecefx":4360967.00,"ecefy":579356.00,"ecefz":4604554.00,"ecefvx":-0.12,"ecefvy":0.00,"ecefvz":0.00,"velN":0.090,"velE":0.016,"velD":0.085,"geoidSep":45.589,"eph":45.277,"sep":45.600}
{"class":"SKY","time":"2005-06-09T14:34:12.280Z","gdop":5.27,"hdop":2.38,"pdop":2.40,"tdop":3.13,"xdop":1.70,"ydop":1.67,"vdop":3.51}
$GPGSV,2,1,08,23,06,084,00,28,08,160,00,08,66,189,43,29,14,273,00*7B
$GPGSV,2,2,08,10,50,304,36,04,16,200,36,02,34,242,44,27,72,076,43*74
{"class":"SKY","time":"2005-06-09T14:34:13.280Z","gdop":5.27,"hdop":2.38,"pdop":2.40,"tdop":3.13,"xdop":1.70,"ydop":1.67,"vdop":3.51,"nSat":8,"uSat":5,"satellites":[{"PRN":23,"gnssid":0,"svid":23,"az":84.0,"el":6.5,"ss":0.0,"used":false},{"PRN":28,"gnssid":0,"svid":28,"az":160.5,"el":7.5,"ss":0.0,"used":false},{"PRN":8,"gnssid":0,"svid":8,"az":189.0,"el":65.5,"ss":43.4,"used":true},{"PRN":29,"gnssid":0,"svid":29,"az":273.0,"el":13.5,"ss":0.0,"used":false},{"PRN":10,"gnssid":0,"svid":10,"az":304.5,"el":50.5,"ss":36.2,"used":true},{"PRN":4,"gnssid":0,"svid":4,"az":199.5,"el":16.0,"ss":35.6,"used":true},{"PRN":2,"gnssid":0,"svid":2,"az":241.5,"el":34.5,"ss":44.5,"used":true},{"PRN":27,"gnssid":0,"svid":27,"az":76.5,"el":71.5,"ss":43.0,"used":true}]}
$GPZDA,143413.28,09,06,2005,00,00*64
$GPGGA,143413.28,4629.8904593,N,0734.0473386,E,1,05,2.38,1350.01,M,45.589,M,,*67
$GPRMC,143413.28,A,4629.8904593,N,0734.0473386,E,0.1776,10.379,090605,2.3,E*6C
$GPGSA,A,3,8,10,4,2,27,,,,,,,,2.4,2.4,3.5*0E
$GPGBS,143413.28,25.546,25.003,80.721,,,,*73
{"class":"TPV","mode":3,"time":"2005-06-09T14:34:13.280Z","ept":0.005,"lat":46.498174322,"lon":7.567455643,"altHAE":1395.5993,"altMSL":1350.0099,"alt":1350.0099,"epx":25.546,"epy":25.003,"epv":80.721,"track":10.3789,"magtrack":12.7006,"magvar":2.3,"speed":0.091,"climb":-0.085,"eps":51.09,"epc":161.44,"ecefx":4360965.00,"ecefy":579356.00,"ecefz":4604553.00,"ecefvx":-0.12,"ecefvy":0.00,"ecefvz":0.00,"velN":0.090,"velE":0.016,"velD":0.085,"geoidSep":45.589,"eph":45.277,"sep":45.600}
{"class":"SKY","time":"2005-06-09T14:34:13.280Z","gdop":5.27,"hdop":2.38,"pdop":2.40,"tdop":3.13,"xdop":1.70,"ydop":1.67,"vdop":3.51}
$GPGSV,2,1,08,23,06,084,00,28,08,160,00,08,66,189,44,29,14,273,00*7C
$GPGSV,2,2,08,10,50,304,38,04,16,200,35,02,34,242,44,27,72,076,42*78
{"class":"SKY","time":"2005-06-09T14:34:14.280Z","gdop":5.27,"hdop":2.38,"pdop":2.40,"tdop":3.13,"xdop":1.70,"ydop":1.67,"vdop":3.51,"nSat":8,"uSat":5,"satellites":[{"PRN":23,"gnssid":0,"svid":23,"az":84.0,"el":6.5,"ss":0.0,"used":false},{"PRN":28,"gnssid":0,"svid":28,"az":160.5,"el":7.5,"ss":0.0,"used":false},{"PRN":8,"gnssid":0,"svid":8,"az":189.0,"el":65.5,"ss":44.4,"used":true},{"PRN":29,"gnssid":0,"svid":29,"az":273.0,"el":13.5,"ss":0.0,"used":false},{"PRN":10,"gnssid":0,"svid":10,"az":304.5,"el":50.5,"ss":37.7,"used":true},{"PRN":4,"gnssid":0,"svid":4,"az":199.5,"el":16.0,"ss":35.3,"used":true},{"PRN":2,"gnssid":0,"svid":2,"az":241.5,"el":34.5,"ss":44.1,"used":true},{"PRN":27,"gnssid":0,"svid":27,"az":76.5,"el":71.5,"ss":42.3,"used":true}]}
$GPZDA,143414.28,09,06,2005,00,00*63
$GPGGA,143414.28,4629.8908473,N,0734.0474415,E,1,05,2.38,1349.33,M,45.589,M,,*60
$GPRMC,143414.28,A,4629.8908473,N,0734.0474415,E,0.0000,0.000,090605,2.3,E*59
$GPGSA,A,3,8,10,4,2,27,,,,,,,,2.4,2.4,3.5*0E
$GPGBS,143414.28,25.546,25.003,80.721,,,,*74
{"class":"TPV","mode":3,"time":"2005-06-09T14:34:14.280Z","ept":0.005,"lat":46.498180788,"lon":7.567457358,"altHAE":1394.9170,"altMSL":1349.3275,"alt":1349.3275,"epx":25.546,"epy":25.003,"epv":80.721,"track":0.0000,"magtrack":2.3218,"magvar":2.3,"speed":0.000,"climb":0.000,"eps":51.09,"epc":161.44,"ecefx":4360964.00,"ecefy":579356.00,"ecefz":4604553.00,"ecefvx":0.00,"ecefvy":0.00,"ecefvz":0.00,"velN":0.000,"velE":0.000,"velD":0.000,"geoidSep":45.589,"eph":45.277,"sep":45.600}
{"class":"SKY","time":"2005-06-09T14:34:14.280Z","gdop":5.27,"hdop":2.38,"pdop":2.40,"tdop":3.13,"xdop":1.70,"ydop":1.67,"vdop":3.51}
$GPGSV,2,1,08,23,06,084,00,28,08,160,00,08,66,189,45,29,14,273,00*7D
$GPGSV,2,2,08,10,50,304,38,04,16,200,35,02,34,242,43,27,72,076,43*7E
{"class":"SKY","time":"2005-06-09T14:34:15.280Z","gdop":5.27,"hdop":2.38,"pdop":2.40,"tdop":3.13,"xdop":1.70,"ydop":1.67,"vdop":3.51,"nSat":8,"uSat":5,"satellites":[{"PRN":23,"gnssid":0,"svid":23,"az":84.0,"el":6.5,"ss":0.0,"used":false},{"PRN":28,"gnssid":0,"svid":28,"az":160.5,"el":7.5,"ss":0.0,"used":false},{"PRN":8,"gnssid":0,"svid":8,"az":189.0,"el":65.5,"ss":44.8,"used":true},{"PRN":29,"gnssid":0,"svid":29,"az":273.0,"el":13.5,"ss":0.0,"used":false},{"PRN":10,"gnssid":0,"svid":10,"az":304.5,"el":50.5,"ss":37.5,"used":true},{"PRN":4,"gnssid":0,"svid":4,"az":199.5,"el":16.0,"ss":34.8,"used":true},{"PRN":2,"gnssid":0,"svid":2,"az":241.5,"el":34.5,"ss":43.1,"used":true},{"PRN":27,"gnssid":0,"svid":27,"az":76.5,"el":71.5,"ss":42.8,"used":true}]}
$GPZDA,143415.28,09,06,2005,00,00*62
$GPGGA,143415.28,4629.8912353,N,0734.0475444,E,1,05,2.38,1348.65,M,45.589,M,,*68
$GPRMC,143415.28,A,4629.8912353,N,0734.0475444,E,0.1776,10.379,090605,2.3,E*68
$GPGSA,A,3,8,10,4,2,27,,,,,,,,2.4,2.4,3.5*0E
$GPGBS,143415.28,25.546,25.003,80.721,,,,*75
{"class":"TPV","mode":3,"time":"2005-06-09T14:34:15.280Z","ept":0.005,"lat":46.498187255,"lon":7.567459073,"altHAE":1394.2346,"altMSL":1348.6451,"alt":1348.6451,"epx":25.546,"epy":25.003,"epv":80.721,"track":10.3789,"magtrack":12.7006,"magvar":2.3,"speed":0.091,"climb":-0.085,"eps":51.09,"epc":161.44,"ecefx":4360963.00,"ecefy":579356.00,"ecefz":4604553.00,"ecefvx":-0.12,"ecefvy":0.00,"ecefvz":0.00,"velN":0.090,"velE":0.016,"velD":0.085,"geoidSep":45.589,"eph":45.277,"sep":45.600}
{"class":"SKY","time":"2005-06-09T14:34:15.280Z","gdop":5.27,"hdop":2.38,"pdop":2.40,"tdop":3.13,"xdop":1.70,"ydop":1.67,"vdop":3.51}
$GPGSV,2,1,08,23,06,084,00,28,08,160,00,08,66,189,44,29,14,273,00*7C
$GPGSV,2,2,08,10,50,304,36,04,16,200,32,02,34,242,39,27,72,076,41*78
{"class":"SKY","time":"2005-06-09T14:34:16.280Z","gdop":5.27,"hdop":2.38,"pdop":2.40,"tdop":3.13,"xdop":1.70,"ydop":1.67,"vdop":3.51,"nSat":8,"uSat":5,"satellites":[{"PRN":23,"gnssid":0,"svid":23,"az":84.0,"el":6.5,"ss":0.0,"used":false},{"PRN":28,"gnssid":0,"svid":28,"az":160.5,"el":7.5,"ss":0.0,"used":false},{"PRN":8,"gnssid":0,"svid":8,"az":189.0,"el":65.5,"ss":43.6,"used":true},{"PRN":29,"gnssid":0,"svid":29,"az":273.0,"el":13.5,"ss":0.0,"used":false},{"PRN":10,"gnssid":0,"svid":10,"az":304.5,"el":50.5,"ss":35.9,"used":true},{"PRN":4,"gnssid":0,"svid":4,"az":199.5,"el":16.0,"ss":32.3,"used":true},{"PRN":2,"gnssid":0,"svid":2,"az":241.5,"el":34.5,"ss":39.2,"used":true},{"PRN":27,"gnssid":0,"svid":27,"az":76.5,"el":71.5,"ss":41.1,"used":true}]}
$GPZDA,143416.28,09,06,2005,00,00*61
$GPGGA,143416.28,4629.8908639,N,0734.0475444,E,1,05,2.38,1347.92,M,45.589,M,,*6E
$GPRMC,143416.28,A,4629.8908639,N,0734.0475444,E,0.1776,10.379,090605,2.3,E*69
$GPGSA,A,3,8,10,4,2,27,,,,,,,,2.4,2.4,3.5*0E
$GPGBS,143416.28,25.546,25.003,80.721,,,,*76
{"class":"TPV","mode":3,"time":"2005-06-09T14:34:16.280Z","ept":0.005,"lat":46.498181064,"lon":7.567459073,"altHAE":1393.5092,"altMSL":1347.9198,"alt":1347.9198,"epx":25.546,"epy":25.003,"epv":80.721,"track":10.3789,"magtrack":12.7006,"magvar":2.3,"speed":0.091,"climb":-0.085,"eps":51.09,"epc":161.44,"ecefx":4360963.00,"ecefy":579356.00,"ecefz":4604552.00,"ecefvx":-0.12,"ecefvy":0.00,"ecefvz":0.00,"velN":0.090,"velE":0.016,"velD":0.085,"geoidSep":45.589,"eph":45.277,"sep":45.600}
{"class":"SKY","time":"2005-06-09T14:34:16.280Z","gdop":5.27,"hdop":2.38,"pdop":2.40,"tdop":3.13,"xdop":1.70,"ydop":1.67,"vdop":3.51}
$GPGSV,2,1,08,23,06,084,00,28,08,160,00,08,66,189,46,29,14,273,00*7E
$GPGSV,2,2,08,10,50,304,38,04,16,200,34,02,34,242,41,27,72,076,41*7F
{"class":"SKY","time":"2005-06-09T14:34:17.280Z","gdop":5.27,"hdop":2.38,"pdop":2.40,"tdop":3.13,"xdop":1.70,"ydop":1.67,"vdop":3.51,"nSat":8,"uSat":5,"satellites":[{"PRN":23,"gnssid":0,"svid":23,"az":84.0,"el":6.5,"ss":0.0,"used":false},{"PRN":28,"gnssid":0,"svid":28,"az":160.5,"el":7.5,"ss":0.0,"used":false},{"PRN":8,"gnssid":0,"svid":8,"az":189.0,"el":65.5,"ss":45.5,"used":true},{"PRN":29,"gnssid":0,"svid":29,"az":273.0,"el":13.5,"ss":0.0,"used":false},{"PRN":10,"gnssid":0,"svid":10,"az":304.5,"el":50.5,"ss":37.8,"used":true},{"PRN":4,"gnssid":0,"svid":4,"az":199.5,"el":16.0,"ss":33.6,"used":true},{"PRN":2,"gnssid":0,"svid":2,"az":241.5,"el":34.5,"ss":41.2,"used":true},{"PRN":27,"gnssid":0,"svid":27,"az":76.5,"el":71.5,"ss":41.4,"used":true}]}
$GPZDA,143417.28,09,06,2005,00,00*60
$GPGGA,143417.28,4629.8912519,N,0734.0476473,E,1,05,2.38,1347.24,M,45.589,M,,*6F
$GPRMC,143417.28,A,4629.8912519,N,0734.0476473,E,0.1673,180.000,090605,2.3,E*54
$GPGSA,A,3,8,10,4,2,27,,,,,,,,2.4,2.4,3.5*0E
$GPGBS,143417.28,25.546,25.003,80.721,,,,*77
{"class":"TPV","mode":3,"time":"2005-06-09T14:34:17.280Z","ept":0.005,"lat":46.498187531,"lon":7.567460788,"altHAE":1392.8268,"altMSL":1347.2374,"alt":1347.2374,"epx":25.546,"epy":25.003,"epv":80.721,"track":180.0000,"magtrack":182.3218,"magvar":2.3,"speed":0.086,"climb":-0.091,"eps":51.09,"epc":161.44,"ecefx":4360962.00,"ecefy":579356.00,"ecefz":4604552.00,"ecefvx":0.00,"ecefvy":0.00,"ecefvz":-0.12,"velN":-0.086,"velE":0.000,"velD":0.091,"geoidSep":45.589,"eph":45.277,"sep":45.600}
{"class":"SKY","time":"2005-06-09T14:34:17.280Z","gdop":5.27,"hdop":2.38,"pdop":2.40,"tdop":3.13,"xdop":1.70,"ydop":1.67,"vdop":3.51}
$GPGSV,2,1,08,23,06,084,00,28,08,160,00,08,66,189,46,29,14,273,00*7E
$GPGSV,2,2,08,10,50,304,37,04,16,200,36,02,34,242,43,27,72,076,41*70
{"class":"SKY","time":"2005-06-09T14:34:18.280Z","gdop":5.27,"hdop":2.38,"pdop":2.40,"tdop":3.13,"xdop":1.70,"ydop":1.67,"vdop":3.51,"nSat":8,"uSat":5,"satellites":[{"PRN":23,"gnssid":0,"svid":23,"az":84.0,"el":6.5,"ss":0.0,"used":false},{"PRN":28,"gnssid":0,"svid":28,"az":160.5,"el":7.5,"ss":0.0,"used":false},{"PRN":8,"gnssid":0,"svid":8,"az":189.0,"el":65.5,"ss":45.5,"used":true},{"PRN":29,"gnssid":0,"svid":29,"az":273.0,"el":13.5,"ss":0.0,"used":false},{"PRN":10,"gnssid":0,"svid":10,"az":304.5,"el":50.5,"ss":37.1,"used":true},{"PRN":4,"gnssid":0,"svid":4,"az":199.5,"el":16.0,"ss":36.1,"used":true},{"PRN":2,"gnssid":0,"svid":2,"az":241.5,"el":34.5,"ss":43.2,"used":true},{"PRN":27,"gnssid":0,"svid":27,"az":76.5,"el":71.5,"ss":41.3,"used":true}]}
$GPZDA,143418.28,09,06,2005,00,00*6F
$GPGGA,143418.28,4629.8916399,N,0734.0477502,E,1,05,2.38,1346.56,M,45.589,M,,*68
$GPRMC,143418.28,A,4629.8916399,N,0734.0477502,E,0.1776,10.379,090605,2.3,E*66
$GPGSA,A,3,8,10,4,2,27,,,,,,,,2.4,2.4,3.5*0E
$GPGBS,143418.28,25.546,25.003,80.721,,,,*78
{"class":"TPV","mode":3,"time":"2005-06-09T14:34:18.280Z","ept":0.005,"lat":46.498193998,"lon":7.567462504,"altHAE":1392.1445,"altMSL":1346.5550,"alt":1346.5550,"epx":25.546,"epy":25.003,"epv":80.721,"track":10.3789,"magtrack":12.7006,"magvar":2.3,"speed":0.091,"climb":-0.085,"eps":51.09,"epc":161.44,"ecefx":4360961.00,"ecefy":579356.00,"ecefz":4604552.00,"ecefvx":-0.12,"ecefvy":0.00,"ecefvz":0.00,"velN":0.090,"velE":0.016,"velD":0.085,"geoidSep":45.589,"eph":45.277,"sep":45.600}
{"class":"SKY","time":"2005-06-09T14:34:18.280Z","gdop":5.27,"hdop":2.38,"pdop":2.40,"tdop":3.13,"xdop":1.70,"ydop":1.67,"vdop":3.51}
$GPGSV,2,1,08,23,06,084,00,28,08,160,00,08,66,189,45,29,14,273,00*7D
$GPGSV,2,2,08,10,50,304,38,04,16,200,36,02,34,242,42,27,72,076,42*7D
{"class":"SKY","time":"2005-06-09T14:34:19.280Z","gdop":5.27,"hdop":2.38,"pdop":2.40,"tdop":3.13,"xdop":1.70,"ydop":1.67,"vdop":3.51,"nSat":8,"uSat":5,"satellites":[{"PRN":23,"gnssid":0,"svid":23,"az":84.0,"el":6.5,"ss":0.0,"used":false},{"PRN":28,"gnssid":0,"svid":28,"az":160.5,"el":7.5,"ss":0.0,"used":false},{"PRN":8,"gnssid":0,"svid":8,"az":189.0,"el":65.5,"ss":45.0,"used":true},{"PRN":29,"gnssid":0,"svid":29,"az":273.0,"el":13.5,"ss":0.0,"used":false},{"PRN":10,"gnssid":0,"svid":10,"az":304.5,"el":50.5,"ss":37.5,"used":true},{"PRN":4,"gnssid":0,"svid":4,"az":199.5,"el":16.0,"ss":36.1,"used":true},{"PRN":2,"gnssid":0,"svid":2,"az":241.5,"el":34.5,"ss":42.2,"used":true},{"PRN":27,"gnssid":0,"svid":27,"az":76.5,"el":71.5,"ss":41.8,"used":true}]}
$GPZDA,143419.28,09,06,2005,00,00*6E
$GPGGA,143419.28,4629.8916399,N,0734.0477502,E,1,05,2.38,1346.56,M,45.589,M,,*69
$GPRMC,143419.28,A,4629.8916399,N,0734.0477502,E,0.0000,0.000,090605,2.3,E*5C
$GPGSA,A,3,8,10,4,2,27,,,,,,,,2.4,2.4,3.5*0E
$GPGBS,143419.28,25.546,25.003,80.721,,,,*79
{"class":"TPV","mode":3,"time":"2005-06-09T14:34:19.280Z","ept":0.005,"lat":46.498193998,"lon":7.567462504,"altHAE":1392.1445,"altMSL":1346.5550,"alt":1346.5550,"epx":25.546,"epy":25.003,"epv":80.721,"track":0.0000,"magtrack":2.3218,"magvar":2.3,"speed":0.000,"climb":0.000,"eps":51.09,"epc":161.44,"ecefx":4360961.00,"ecefy":579356.00,"ecefz":4604552.00,"ecefvx":0.00,"ecefvy":0.00,"ecefvz":0.00,"velN":0.000,"velE":0.000,"velD":0.000,"geoidSep":45.589,"eph":45.277,"sep":45.600}
{"class":"SKY","time":"2005-06-09T14:34:19.280Z","gdop":5.27,"hdop":2.38,"pdop":2.40,"tdop":3.13,"xdop":1.70,"ydop":1.67,"vdop":3.51}
$GPGSV,2,1,08,23,06,084,00,28,08,160,00,08,66,189,45,29,14,273,00*7D
$GPGSV,2,2,08,10,50,304,37,04,16,200,36,02,34,242,42,27,72,076,43*73
{"class":"SKY","time":"2005-06-09T14:34:20.280Z","gdop":5.27,"hdop":2.38,"pdop":2.40,"tdop":3.13,"xdop":1.70,"ydop":1.67,"vdop":3.51,"nSat":8,"uSat":5,"satellites":[{"PRN":23,"gnssid":0,"svid":23,"az":84.0,"el":6.5,"ss":0.0,"used":false},{"PRN":28,"gnssid":0,"svid":28,"az":160.5,"el":7.5,"ss":0.0,"used":false},{"PRN":8,"gnssid":0,"svid":8,"az":189.0,"el":65.5,"ss":45.0,"used":true},{"PRN":29,"gnssid":0,"svid":29,"az":273.0,"el":13.5,"ss":0.0,"used":false},{"PRN":10,"gnssid":0,"svid":10,"az":304.5,"el":50.5,"ss":37.2,"used":true},{"PRN":4,"gnssid":0,"svid":4,"az":199.5,"el":16.0,"ss":36.3,"used":true},{"PRN":2,"gnssid":0,"svid":2,"az":241.5,"el":34.5,"ss":41.8,"used":true},{"PRN":27,"gnssid":0,"svid":27,"az":76.5,"el":71.5,"ss":42.6,"used":true}]}
$GPZDA,143420.28,09,06,2005,00,00*64
$GPGGA,143420.28,4629.8916914,N,0734.0469756,E,1,05,2.38,1346.46,M,45.589,M,,*61
$GPRMC,143420.28,A,4629.8916914,N,0734.0469756,E,0.0000,0.000,090605,2.3,E*55
$GPGSA,A,3,8,10,4,2,27,,,,,,,,2.4,2.4,3.5*0E
$GPGBS,143420.28,25.546,25.003,80.721,,,,*73
{"class":"TPV","mode":3,"time":"2005-06-09T14:34:20.280Z","ept":0.005,"lat":46.498194857,"lon":7.567449593,"altHAE":1392.0538,"altMSL":1346.4643,"alt":1346.4643,"epx":25.546,"epy":25.003,"epv":80.721,"track":0.0000,"magtrack":2.3218,"magvar":2.3,"speed":0.000,"climb":0.000,"eps":51.09,"epc":161.44,"ecefx":4360961.00,"ecefy":579355.00,"ecefz":4604552.00,"ecefvx":0.00,"ecefvy":0.00,"ecefvz":0.00,"velN":0.000,"velE":0.000,"velD":0.000,"geoidSep":45.589,"eph":45.277,"sep":45.600}
{"class":"SKY","time":"2005-06-09T14:34:20.280Z","gdop":5.27,"hdop":2.38,"pdop":2.40,"tdop":3.13,"xdop":1.70,"ydop":1.67,"vdop":3.51}
$GPGSV,2,1,08,23,06,084,00,28,08,160,00,08,66,189,46,29,14,273,00*7E
$GPGSV,2,2,08,10,50,304,36,04,16,200,36,02,34,242,42,27,72,076,42*73
{"class":"SKY","time":"2005-06-09T14:34:21.280Z","gdop":5.27,"hdop":2.38,"pdop":2.40,"tdop":3.13,"xdop":1.70,"ydop":1.67,"vdop":3.51,"nSat":8,"uSat":5,"satellites":[{"PRN":23,"gnssid":0,"svid":23,"az":84.0,"el":6.5,"ss":0.0,"used":false},{"PRN":28,"gnssid":0,"svid":28,"az":160.5,"el":7.5,"ss":0.0,"used":false},{"PRN":8,"gnssid":0,"svid":8,"az":189.0,"el":65.5,"ss":45.8,"used":true},{"PRN":29,"gnssid":0,"svid":29,"az":273.0,"el":13.5,"ss":0.0,"used":false},{"PRN":10,"gnssid":0,"svid":10,"az":304.5,"el":50.5,"ss":36.3,"used":true},{"PRN":4,"gnssid":0,"svid":4,"az":199.5,"el":16.0,"ss":36.5,"used":true},{"PRN":2,"gnssid":0,"svid":2,"az":241.5,"el":34.5,"ss":41.5,"used":true},{"PRN":27,"gnssid":0,"svid":27,"az":76.5,"el":71.5,"ss":42.5,"used":true}]}
$GPZDA,143421.28,09,06,2005,00,00*65
$GPGGA,143421.28,4629.8920795,N,0734.0470785,E,1,05,2.38,1345.78,M,45.589,M,,*6A
$GPRMC,143421.28,A,4629.8920795,N,0734.0470785,E,0.1776,10.379,090605,2.3,E*6B
$GPGSA,A,3,8,10,4,2,27,,,,,,,,2.4,2.4,3.5*0E
$GPGBS,143421.28,25.546,25.003,80.721,,,,*72
{"class":"TPV","mode":3,"time":"2005-06-09T14:34:21.280Z","ept":0.005,"lat":46.498201324,"lon":7.567451308,"altHAE":1391.3714,"altMSL":1345.7820,"alt":1345.7820,"epx":25.546,"epy":25.003,"epv":80.721,"track":10.3788,"magtrack":12.7006,"magvar":2.3,"speed":0.091,"climb":-0.085,"eps":51.09,"epc":161.44,"ecefx":4360960.00,"ecefy":579355.00,"ecefz":4604552.00,"ecefvx":-0.12,"ecefvy":0.00,"ecefvz":0.00,"velN":0.090,"velE":0.016,"velD":0.085,"geoidSep":45.589,"eph":45.277,"sep":45.600}
{"class":"SKY","time":"2005-06-09T14:34:21.280Z","gdop":5.27,"hdop":2.38,"pdop":2.40,"tdop":3.13,"xdop":1.70,"ydop":1.67,"vdop":3.51}
$GPGSV,2,1,08,23,06,084,00,28,08,160,00,08,66,189,46,29,14,273,00*7E
$GPGSV,2,2,08,10,50,304,36,04,16,200,37,02,34,242,42,27,72,076,42*72
{"class":"SKY","time":"2005-06-09T14:34:22.280Z","gdop":5.27,"hdop":2.38,"pdop":2.40,"tdop":3.13,"xdop":1.70,"ydop":1.67,"vdop":3.51,"nSat":8,"uSat":5,"satellites":[{"PRN":23,"gnssid":0,"svid":23,"az":84.0,"el":6.5,"ss":0.0,"used":false},{"PRN":28,"gnssid":0,"svid":28,"az":160.5,"el":7.5,"ss":0.0,"used":false},{"PRN":8,"gnssid":0,"svid":8,"az":189.0,"el":65.5,"ss":45.8,"used":true},{"PRN":29,"gnssid":0,"svid":29,"az":273.0,"el":13.5,"ss":0.0,"used":false},{"PRN":10,"gnssid":0,"svid":10,"az":304.5,"el":50.5,"ss":36.4,"used":true},{"PRN":4,"gnssid":0,"svid":4,"az":199.5,"el":16.0,"ss":36.9,"used":true},{"PRN":2,"gnssid":0,"svid":2,"az":241.5,"el":34.5,"ss":42.2,"used":true},{"PRN":27,"gnssid":0,"svid":27,"az":76.5,"el":71.5,"ss":42.5,"used":true}]}
$GPZDA,143422.28,09,06,2005,00,00*66
$GPGGA,143422.28,4629.8920795,N,0734.0470785,E,1,05,2.38,1345.78,M,45.589,M,,*69
$GPRMC,143422.28,A,4629.8920795,N,0734.0470785,E,0.1776,10.379,090605,2.3,E*68
$GPGSA,A,3,8,10,4,2,27,,,,,,,,2.4,2.4,3.5*0E
$GPGBS,143422.28,25.546,25.003,80.721,,,,*71
{"class":"TPV","mode":3,"time":"2005-06-09T14:34:22.280Z","ept":0.005,"lat":46.498201324,"lon":7.567451308,"altHAE":1391.3714,"altMSL":1345.7820,"alt":1345.7820,"epx":25.546,"epy":25.003,"epv":80.721,"track":10.3788,"magtrack":12.7006,"magvar":2.3,"speed":0.091,"climb":-0.085,"eps":51.09,"epc":161.44,"ecefx":4360960.00,"ecefy":579355.00,"ecefz":4604552.00,"ecefvx":-0.12,"ecefvy":0.00,"ecefvz":0.00,"velN":0.090,"velE":0.016,"velD":0.085,"geoidSep":45.589,"eph":45.277,"sep":45.600}
{"class":"SKY","time":"2005-06-09T14:34:22.280Z","gdop":5.27,"hdop":2.38,"pdop":2.40,"tdop":3.13,"xdop":1.70,"ydop":1.67,"vdop":3.51}
