$GPGSV,2,1,07,10,46,196,10,29,68,310,42,28,59,108,40,26,51,304,44*7C
$GPGSV,2,2,07,08,44,058,43,27,16,066,37,21,10,302,00*49
{"class":"SKY","time":"2005-06-19T16:12:23.890Z","gdop":3.59,"hdop":1.49,"pdop":2.98,"tdop":1.99,"xdop":1.02,"ydop":1.09,"vdop":2.58,"nSat":7,"uSat":6,"satellites":[{"PRN":10,"gnssid":0,"svid":10,"az":196.5,"el":45.5,"ss":10.0,"used":true},{"PRN":29,"gnssid":0,"svid":29,"az":310.5,"el":67.5,"ss":41.6,"used":true},{"PRN":28,"gnssid":0,"svid":28,"az":108.0,"el":59.0,"ss":40.4,"used":true},{"PRN":26,"gnssid":0,"svid":26,"az":304.5,"el":51.0,"ss":44.1,"used":true},{"PRN":8,"gnssid":0,"svid":8,"az":58.5,"el":44.5,"ss":43.4,"used":true},{"PRN":27,"gnssid":0,"svid":27,"az":66.0,"el":16.5,"ss":37.1,"used":true},{"PRN":21,"gnssid":0,"svid":21,"az":301.5,"el":10.0,"ss":0.0,"used":false}]}
$GPZDA,161223.89,19,06,2005,00,00*6B
$GPGGA,161223.89,4629.8922698,N,0734.0836864,E,1,06,1.49,1330.28,M,45.589,M,,*64
$GPRMC,161223.89,A,4629.8922698,N,0734.0836864,E,0.1673,180.000,190605,2.3,E*54
$GPGSA,A,3,10,29,28,26,8,27,,,,,,,3.2,1.5,2.6*0A
$GPGBS,161223.89,15.294,16.316,59.401,,,,*74
{"class":"TPV","mode":3,"time":"2005-06-19T16:12:23.890Z","ept":0.005,"lat":46.498204496,"lon":7.568061439,"altHAE":1375.8717,"altMSL":1330.2831,"alt":1330.2831,"epx":15.294,"epy":16.316,"epv":59.401,"track":180.0000,"magtrack":182.3219,"magvar":2.3,"speed":0.086,"climb":-0.091,"ecefx":4360943.00,"ecefy":579400.00,"ecefz":4604541.00,"ecefvx":0.00,"ecefvy":0.00,"ecefvz":-0.12,"velN":-0.086,"velE":0.000,"velD":0.091,"geoidSep":45.589,"eph":28.326,"sep":60.800}
{"class":"SKY","time":"2005-06-19T16:12:23.890Z","gdop":3.59,"hdop":1.49,"pdop":3.20,"tdop":1.99,"xdop":1.02,"ydop":1.09,"vdop":2.58}
$GPGSV,2,1,07,10,46,196,08,29,68,310,41,28,59,108,40,26,51,304,43*71
$GPGSV,2,2,07,08,44,058,42,27,16,066,36,21,10,302,00*49
{"class":"SKY","time":"2005-06-19T16:12:24.890Z","gdop":3.59,"hdop":1.49,"pdop":3.20,"tdop":1.99,"xdop":1.02,"ydop":1.09,"vdop":2.58,"nSat":7,"uSat":6,"satellites":[{"PRN":10,"gnssid":0,"svid":10,"az":196.5,"el":45.5,"ss":8.1,"used":true},{"PRN":29,"gnssid":0,"svid":29,"az":310.5,"el":67.5,"ss":41.4,"used":true},{"PRN":28,"gnssid":0,"svid":28,"az":108.0,"el":59.0,"ss":39.6,"used":true},{"PRN":26,"gnssid":0,"svid":26,"az":304.5,"el":51.0,"ss":43.4,"used":true},{"PRN":8,"gnssid":0,"svid":8,"az":58.5,"el":44.5,"ss":42.3,"used":true},{"PRN":27,"gnssid":0,"svid":27,"az":66.0,"el":16.5,"ss":36.0,"used":true},{"PRN":21,"gnssid":0,"svid":21,"az":301.5,"el":10.0,"ss":0.0,"used":false}]}
$GPZDA,161224.89,19,06,2005,00,00*6C
$GPGGA,161224.89,4629.8922698,N,0734.0836864,E,1,06,1.49,1330.28,M,45.589,M,,*63
$GPRMC,161224.89,A,4629.8922698,N,0734.0836864,E,0.1776,10.380,190605,2.3,E*64
$GPGSA,A,3,10,29,28,26,8,27,,,,,,,3.2,1.5,2.6*0A
$GPGBS,161224.89,15.294,16.316,59.401,,,,*73
{"class":"TPV","mode":3,"time":"2005-06-19T16:12:24.890Z","ept":0.005,"lat":46.498204496,"lon":7.568061439,"altHAE":1375.8717,"altMSL":1330.2831,"alt":1330.2831,"epx":15.294,"epy":16.316,"epv":59.401,"track":10.3797,"magtrack":12.7016,"magvar":2.3,"speed":0.091,"climb":-0.085,"eps":32.63,"epc":118.80,"ecefx":4360943.00,"ecefy":579400.00,"ecefz":4604541.00,"ecefvx":-0.12,"ecefvy":0.00,"ecefvz":0.00,"velN":0.090,"velE":0.016,"velD":0.085,"geoidSep":45.589,"eph":28.326,"sep":60.800}
{"class":"SKY","time":"2005-06-19T16:12:24.890Z","gdop":3.59,"hdop":1.49,"pdop":3.20,"tdop":1.99,"xdop":1.02,"ydop":1.09,"vdop":2.58}
$GPGSV,2,1,07,10,46,196,33,29,68,310,42,28,59,108,42,26,51,304,43*78
$GPGSV,2,2,07,08,44,058,44,27,16,066,36,21,10,302,00*4F
{"class":"SKY","time":"2005-06-19T16:12:25.890Z","gdop":3.59,"hdop":1.49,"pdop":3.20,"tdop":1.99,"xdop":1.02,"ydop":1.09,"vdop":2.58,"nSat":7,"uSat":6,"satellites":[{"PRN":10,"gnssid":0,"svid":10,"az":196.5,"el":45.5,"ss":33.4,"used":true},{"PRN":29,"gnssid":0,"svid":29,"az":310.5,"el":67.5,"ss":42.4,"used":true},{"PRN":28,"gnssid":0,"svid":28,"az":108.0,"el":59.0,"ss":42.4,"used":true},{"PRN":26,"gnssid":0,"svid":26,"az":304.5,"el":51.0,"ss":43.1,"used":true},{"PRN":8,"gnssid":0,"svid":8,"az":58.5,"el":44.5,"ss":43.5,"used":true},{"PRN":27,"gnssid":0,"svid":27,"az":66.0,"el":16.5,"ss":36.2,"used":true},{"PRN":21,"gnssid":0,"svid":21,"az":301.5,"el":10.0,"ss":0.0,"used":false}]}
$GPZDA,161225.89,19,06,2005,00,00*6D
$GPGGA,161225.89,4629.8922698,N,0734.0836864,E,1,06,1.49,1330.28,M,45.589,M,,*62
$GPRMC,161225.89,A,4629.8922698,N,0734.0836864,E,0.1673,180.000,190605,2.3,E*52
$GPGSA,A,3,10,29,28,26,8,27,,,,,,,1.4,1.5,2.6*0E
$GPGBS,161225.89,15.294,16.316,59.401,,,,*72
{"class":"TPV","mode":3,"time":"2005-06-19T16:12:25.890Z","ept":0.005,"lat":46.498204496,"lon":7.568061439,"altHAE":1375.8717,"altMSL":1330.2831,"alt":1330.2831,"epx":15.294,"epy":16.316,"epv":59.401,"track":180.0000,"magtrack":182.3219,"magvar":2.3,"speed":0.086,"climb":-0.091,"eps":32.63,"epc":118.80,"ecefx":4360943.00,"ecefy":579400.00,"ecefz":4604541.00,"ecefvx":0.00,"ecefvy":0.00,"ecefvz":-0.12,"velN":-0.086,"velE":0.000,"velD":0.091,"geoidSep":45.589,"eph":28.326,"sep":26.600}
{"class":"SKY","time":"2005-06-19T16:12:25.890Z","gdop":3.59,"hdop":1.49,"pdop":1.40,"tdop":1.99,"xdop":1.02,"ydop":1.09,"vdop":2.58}
$GPGSV,2,1,07,10,46,196,31,29,68,310,43,28,59,108,42,26,51,304,45*7D
$GPGSV,2,2,07,08,44,058,46,27,16,066,42,21,10,302,00*4E
{"class":"SKY","time":"2005-06-19T16:12:26.890Z","gdop":3.59,"hdop":1.49,"pdop":1.40,"tdop":1.99,"xdop":1.02,"ydop":1.09,"vdop":2.58,"nSat":7,"uSat":6,"satellites":[{"PRN":10,"gnssid":0,"svid":10,"az":196.5,"el":45.5,"ss":30.8,"used":true},{"PRN":29,"gnssid":0,"svid":29,"az":310.5,"el":67.5,"ss":42.6,"used":true},{"PRN":28,"gnssid":0,"svid":28,"az":108.0,"el":59.0,"ss":42.5,"used":true},{"PRN":26,"gnssid":0,"svid":26,"az":304.5,"el":51.0,"ss":45.4,"used":true},{"PRN":8,"gnssid":0,"svid":8,"az":58.5,"el":44.5,"ss":45.7,"used":true},{"PRN":27,"gnssid":0,"svid":27,"az":66.0,"el":16.5,"ss":41.8,"used":true},{"PRN":21,"gnssid":0,"svid":21,"az":301.5,"el":10.0,"ss":0.0,"used":false}]}
$GPZDA,161226.89,19,06,2005,00,00*6E
$GPGGA,161226.89,4629.8922698,N,0734.0836864,E,1,06,1.49,1330.28,M,45.589,M,,*61
$GPRMC,161226.89,A,4629.8922698,N,0734.0836864,E,0.0000,0.000,190605,2.3,E*5B
$GPGSA,A,3,10,29,28,26,8,27,,,,,,,1.4,1.5,2.6*0E
$GPGBS,161226.89,15.294,16.316,59.401,,,,*71
{"class":"TPV","mode":3,"time":"2005-06-19T16:12:26.890Z","ept":0.005,"lat":46.498204496,"lon":7.568061439,"altHAE":1375.8717,"altMSL":1330.2831,"alt":1330.2831,"epx":15.294,"epy":16.316,"epv":59.401,"track":0.0000,"magtrack":2.3219,"magvar":2.3,"speed":0.000,"climb":0.000,"eps":32.63,"epc":118.80,"ecefx":4360943.00,"ecefy":579400.00,"ecefz":4604541.00,"ecefvx":0.00,"ecefvy":0.00,"ecefvz":0.00,"velN":0.000,"velE":0.000,"velD":0.000,"geoidSep":45.589,"eph":28.326,"sep":26.600}
{"class":"SKY","time":"2005-06-19T16:12:26.890Z","gdop":3.59,"hdop":1.49,"pdop":1.40,"tdop":1.99,"xdop":1.02,"ydop":1.09,"vdop":2.58}
$GPGSV,2,1,07,10,46,196,33,29,68,310,40,28,59,108,41,26,51,304,43*79
$GPGSV,2,2,07,08,44,058,44,27,16,066,40,21,10,302,00*4E
{"class":"SKY","time":"2005-06-19T16:12:27.890Z","gdop":3.59,"hdop":1.49,"pdop":1.40,"tdop":1.99,"xdop":1.02,"ydop":1.09,"vdop":2.58,"nSat":7,"uSat":6,"satellites":[{"PRN":10,"gnssid":0,"svid":10,"az":196.5,"el":45.5,"ss":33.4,"used":true},{"PRN":29,"gnssid":0,"svid":29,"az":310.5,"el":67.5,"ss":39.8,"used":true},{"PRN":28,"gnssid":0,"svid":28,"az":108.0,"el":59.0,"ss":41.1,"used":true},{"PRN":26,"gnssid":0,"svid":26,"az":304.5,"el":51.0,"ss":42.8,"used":true},{"PRN":8,"gnssid":0,"svid":8,"az":58.5,"el":44.5,"ss":43.9,"used":true},{"PRN":27,"gnssid":0,"svid":27,"az":66.0,"el":16.5,"ss":40.2,"used":true},{"PRN":21,"gnssid":0,"svid":21,"az":301.5,"el":10.0,"ss":0.0,"used":false}]}
$GPZDA,161227.89,19,06,2005,00,00*6F
$GPGGA,161227.89,4629.8918983,N,0734.0836864,E,1,06,1.49,1329.56,M,45.589,M,,*6D
$GPRMC,161227.89,A,4629.8918983,N,0734.0836864,E,0.1673,180.000,190605,2.3,E*5C
$GPGSA,A,3,10,29,28,26,8,27,,,,,,,1.4,1.5,2.6*0E
$GPGBS,161227.89,15.294,16.316,59.401,,,,*70
{"class":"TPV","mode":3,"time":"2005-06-19T16:12:27.890Z","ept":0.005,"lat":46.498198305,"lon":7.568061439,"altHAE":1375.1463,"altMSL":1329.5578,"alt":1329.5578,"epx":15.294,"epy":16.316,"epv":59.401,"track":180.0000,"magtrack":182.3219,"magvar":2.3,"speed":0.086,"climb":-0.091,"eps":32.63,"epc":118.80,"ecefx":4360943.00,"ecefy":579400.00,"ecefz":4604540.00,"ecefvx":0.00,"ecefvy":0.00,"ecefvz":-0.12,"velN":-0.086,"velE":0.000,"velD":0.091,"geoidSep":45.589,"eph":28.326,"sep":26.600}
{"class":"SKY","time":"2005-06-19T16:12:27.890Z","gdop":3.59,"hdop":1.49,"pdop":1.40,"tdop":1.99,"xdop":1.02,"ydop":1.09,"vdop":2.58}
$GPGSV,2,1,07,10,46,196,34,29,68,310,40,28,59,108,43,26,51,304,43*7C
$GPGSV,2,2,07,08,44,058,42,27,16,066,39,21,10,302,00*46
{"class":"SKY","time":"2005-06-19T16:12:28.890Z","gdop":3.59,"hdop":1.49,"pdop":1.40,"tdop":1.99,"xdop":1.02,"ydop":1.09,"vdop":2.58,"nSat":7,"uSat":6,"satellites":[{"PRN":10,"gnssid":0,"svid":10,"az":196.5,"el":45.5,"ss":34.3,"used":true},{"PRN":29,"gnssid":0,"svid":29,"az":310.5,"el":67.5,"ss":39.9,"used":true},{"PRN":28,"gnssid":0,"svid":28,"az":108.0,"el":59.0,"ss":43.1,"used":true},{"PRN":26,"gnssid":0,"svid":26,"az":304.5,"el":51.0,"ss":42.7,"used":true},{"PRN":8,"gnssid":0,"svid":8,"az":58.5,"el":44.5,"ss":42.1,"used":true},{"PRN":27,"gnssid":0,"svid":27,"az":66.0,"el":16.5,"ss":38.6,"used":true},{"PRN":21,"gnssid":0,"svid":21,"az":301.5,"el":10.0,"ss":0.0,"used":false}]}
$GPZDA,161228.89,19,06,2005,00,00*60
$GPGGA,161228.89,4629.8918983,N,0734.0836864,E,1,06,1.49,1329.56,M,45.589,M,,*62
$GPRMC,161228.89,A,4629.8918983,N,0734.0836864,E,0.0000,0.000,190605,2.3,E*59
$GPGSA,A,3,10,29,28,26,8,27,,,,,,,1.4,1.5,2.6*0E
$GPGBS,161228.89,15.294,16.316,59.401,,,,*7F
{"class":"TPV","mode":3,"time":"2005-06-19T16:12:28.890Z","ept":0.005,"lat":46.498198305,"lon":7.568061439,"altHAE":1375.1463,"altMSL":1329.5578,"alt":1329.5578,"epx":15.294,"epy":16.316,"epv":59.401,"track":0.0000,"magtrack":2.3219,"magvar":2.3,"speed":0.000,"climb":0.000,"eps":32.63,"epc":118.80,"ecefx":4360943.00,"ecefy":579400.00,"ecefz":4604540.00,"ecefvx":0.00,"ecefvy":0.00,"ecefvz":0.00,"velN":0.000,"velE":0.000,"velD":0.000,"geoidSep":45.589,"eph":28.326,"sep":26.600}
{"class":"SKY","time":"2005-06-19T16:12:28.890Z","gdop":3.59,"hdop":1.49,"pdop":1.40,"tdop":1.99,"xdop":1.02,"ydop":1.09,"vdop":2.58}
$GPGSV,2,1,07,10,46,196,35,29,68,310,39,28,59,108,43,26,51,304,43*73
$GPGSV,2,2,07,08,44,058,42,27,16,066,38,21,10,302,00*47
{"class":"SKY","time":"2005-06-19T16:12:29.890Z","gdop":3.59,"hdop":1.49,"pdop":1.40,"tdop":1.99,"xdop":1.02,"ydop":1.09,"vdop":2.58,"nSat":7,"uSat":6,"satellites":[{"PRN":10,"gnssid":0,"svid":10,"az":196.5,"el":45.5,"ss":35.4,"used":true},{"PRN":29,"gnssid":0,"svid":29,"az":310.5,"el":67.5,"ss":39.0,"used":true},{"PRN":28,"gnssid":0,"svid":28,"az":108.0,"el":59.0,"ss":43.1,"used":true},{"PRN":26,"gnssid":0,"svid":26,"az":304.5,"el":51.0,"ss":43.2,"used":true},{"PRN":8,"gnssid":0,"svid":8,"az":58.5,"el":44.5,"ss":42.0,"used":true},{"PRN":27,"gnssid":0,"svid":27,"az":66.0,"el":16.5,"ss":37.5,"used":true},{"PRN":21,"gnssid":0,"svid":21,"az":301.5,"el":10.0,"ss":0.0,"used":false}]}
$GPZDA,161229.89,19,06,2005,00,00*61
$GPGGA,161229.89,4629.8918983,N,0734.0836864,E,1,06,1.49,1329.56,M,45.589,M,,*63
$GPRMC,161229.89,A,4629.8918983,N,0734.0836864,E,0.0000,0.000,190605,2.3,E*58
$GPGSA,A,3,10,29,28,26,8,27,,,,,,,1.4,1.5,2.6*0E
$GPGBS,161229.89,15.294,16.316,59.401,,,,*7E
{"class":"TPV","mode":3,"time":"2005-06-19T16:12:29.890Z","ept":0.005,"lat":46.498198305,"lon":7.568061439,"altHAE":1375.1463,"altMSL":1329.5578,"alt":1329.5578,"epx":15.294,"epy":16.316,"epv":59.401,"track":0.0000,"magtrack":2.3219,"magvar":2.3,"speed":0.000,"climb":0.000,"eps":32.63,"epc":118.80,"ecefx":4360943.00,"ecefy":579400.00,"ecefz":4604540.00,"ecefvx":0.00,"ecefvy":0.00,"ecefvz":0.00,"velN":0.000,"velE":0.000,"velD":0.000,"geoidSep":45.589,"eph":28.326,"sep":26.600}
{"class":"SKY","time":"2005-06-19T16:12:29.890Z","gdop":3.59,"hdop":1.49,"pdop":1.40,"tdop":1.99,"xdop":1.02,"ydop":1.09,"vdop":2.58}
$GPGSV,2,1,07,10,46,196,37,29,68,310,40,28,59,108,45,26,51,304,42*78
$GPGSV,2,2,07,08,44,058,42,27,16,066,38,21,10,302,00*47
{"class":"SKY","time":"2005-06-19T16:12:30.890Z","gdop":3.59,"hdop":1.49,"pdop":1.40,"tdop":1.99,"xdop":1.02,"ydop":1.09,"vdop":2.58,"nSat":7,"uSat":6,"satellites":[{"PRN":10,"gnssid":0,"svid":10,"az":196.5,"el":45.5,"ss":36.8,"used":true},{"PRN":29,"gnssid":0,"svid":29,"az":310.5,"el":67.5,"ss":40.1,"used":true},{"PRN":28,"gnssid":0,"svid":28,"az":108.0,"el":59.0,"ss":44.7,"used":true},{"PRN":26,"gnssid":0,"svid":26,"az":304.5,"el":51.0,"ss":42.4,"used":true},{"PRN":8,"gnssid":0,"svid":8,"az":58.5,"el":44.5,"ss":42.4,"used":true},{"PRN":27,"gnssid":0,"svid":27,"az":66.0,"el":16.5,"ss":37.9,"used":true},{"PRN":21,"gnssid":0,"svid":21,"az":301.5,"el":10.0,"ss":0.0,"used":false}]}
$GPZDA,161230.89,19,06,2005,00,00*69
$GPGGA,161230.89,4629.8918983,N,0734.0836864,E,1,06,1.49,1329.56,M,45.589,M,,*6B
$GPRMC,161230.89,A,4629.8918983,N,0734.0836864,E,0.0000,0.000,190605,2.3,E*50
$GPGSA,A,3,10,29,28,26,8,27,,,,,,,1.4,1.5,2.6*0E
$GPGBS,161230.89,15.294,16.316,59.401,,,,*76
{"class":"TPV","mode":3,"time":"2005-06-19T16:12:30.890Z","ept":0.005,"lat":46.498198305,"lon":7.568061439,"altHAE":1375.1463,"altMSL":1329.5578,"alt":1329.5578,"epx":15.294,"epy":16.316,"epv":59.401,"track":0.0000,"magtrack":2.3219,"magvar":2.3,"speed":0.000,"climb":0.000,"eps":32.63,"epc":118.80,"ecefx":4360943.00,"ecefy":579400.00,"ecefz":4604540.00,"ecefvx":0.00,"ecefvy":0.00,"ecefvz":0.00,"velN":0.000,"velE":0.000,"velD":0.000,"geoidSep":45.589,"eph":28.326,"sep":26.600}
{"class":"SKY","time":"2005-06-19T16:12:30.890Z","gdop":3.59,"hdop":1.49,"pdop":1.40,"tdop":1.99,"xdop":1.02,"ydop":1.09,"vdop":2.58}
