$GPGGA,113938.50,3842.86006889,N,11705.43645510,W,2,09,1.5,1864.182,M,-44.296,M,1.4,0000*45
{"class":"TPV","status":2,"mode":3,"lat":38.714334482,"lon":-117.090607585,"altHAE":1819.8860,"altMSL":1864.1820,"alt":1864.1820,"magvar":12.4,"geoidSep":-44.296,"eph":7.125,"dgpsAge":1.4,"dgpsSta":0}
{"class":"SKY","hdop":1.50,"uSat":9}
$GPRMC,113938.50,A,3842.86006889,N,11705.43645510,W,0.011,46.405,231122,999.9000,E,D*2E
{"class":"TPV","status":2,"mode":3,"time":"2022-11-23T11:39:38.500Z","ept":0.005,"lat":38.714334482,"lon":-117.090607585,"altHAE":1819.8860,"altMSL":1864.1820,"alt":1864.1820,"track":46.4050,"magtrack":686.3050,"magvar":999.9,"speed":0.006,"geoidSep":-44.296,"eph":7.125,"dgpsAge":1.4,"dgpsSta":0}
$GPGGA,113939.00,3842.86006288,N,11705.43645704,W,2,09,1.5,1864.172,M,-44.296,M,1.0,0000*46
{"class":"SKY","hdop":1.50,"uSat":9}
$GPRMC,113939.00,A,3842.86006288,N,11705.43645704,W,0.045,235.920,231122,999.9000,E,D*1B
{"class":"TPV","status":2,"mode":3,"time":"2022-11-23T11:39:39.000Z","ept":0.005,"lat":38.714334381,"lon":-117.090607617,"altHAE":1819.8760,"altMSL":1864.1720,"alt":1864.1720,"track":235.9200,"magtrack":875.8200,"magvar":999.9,"speed":0.023,"climb":-0.020,"geoidSep":-44.296,"eph":7.125,"dgpsAge":1.0,"dgpsSta":0}
{"class":"SKY","hdop":1.50,"uSat":9}
$GPGGA,113939.50,3842.86005863,N,11705.43645949,W,2,09,1.5,1864.165,M,-44.296,M,1.4,0000*4A
{"class":"SKY","hdop":1.50,"uSat":9}
$GPRMC,113939.50,A,3842.86005863,N,11705.43645949,W,0.045,239.081,231122,999.9000,E,D*1B
{"class":"TPV","status":2,"mode":3,"time":"2022-11-23T11:39:39.500Z","ept":0.005,"lat":38.714334310,"lon":-117.090607658,"altHAE":1819.8690,"altMSL":1864.1650,"alt":1864.1650,"track":239.0810,"magtrack":878.9810,"magvar":999.9,"speed":0.023,"climb":-0.014,"geoidSep":-44.296,"eph":7.125,"dgpsAge":1.4,"dgpsSta":0}
{"class":"SKY","hdop":1.50,"uSat":9}
$GPGGA,113940.00,3842.86005946,N,11705.43645611,W,2,09,1.5,1864.179,M,-44.296,M,1.0,0000*4C
{"class":"SKY","hdop":1.50,"uSat":9}
$GPRMC,113940.00,A,3842.86005946,N,11705.43645611,W,0.037,275.827,231122,999.9000,E,D*1D
{"class":"TPV","status":2,"mode":3,"time":"2022-11-23T11:39:40.000Z","ept":0.005,"lat":38.714334324,"lon":-117.090607602,"altHAE":1819.8830,"altMSL":1864.1790,"alt":1864.1790,"track":275.8270,"magtrack":915.7270,"magvar":999.9,"speed":0.019,"climb":0.028,"geoidSep":-44.296,"eph":7.125,"dgpsAge":1.0,"dgpsSta":0}
{"class":"SKY","hdop":1.50,"uSat":9}
$GPGGA,113940.50,3842.86005725,N,11705.43645512,W,2,09,1.5,1864.186,M,-44.296,M,1.4,0000*46
{"class":"SKY","hdop":1.50,"uSat":9}
$GPRMC,113940.50,A,3842.86005725,N,11705.43645512,W,0.019,195.717,231122,999.9000,E,D*1E
{"class":"TPV","status":2,"mode":3,"time":"2022-11-23T11:39:40.500Z","ept":0.005,"lat":38.714334288,"lon":-117.090607585,"altHAE":1819.8900,"altMSL":1864.1860,"alt":1864.1860,"track":195.7170,"magtrack":835.6170,"magvar":999.9,"speed":0.010,"climb":0.014,"geoidSep":-44.296,"eph":7.125,"dgpsAge":1.4,"dgpsSta":0}
{"class":"SKY","hdop":1.50,"uSat":9}
$GPGGA,113941.00,3842.86005610,N,11705.43645036,W,2,10,1.2,1864.169,M,-44.296,M,2.0,0000*4F
{"class":"SKY","hdop":1.20,"uSat":10}
$GPRMC,113941.00,A,3842.86005610,N,11705.43645036,W,0.044,99.956,231122,999.9000,E,D*20
{"class":"TPV","status":2,"mode":3,"time":"2022-11-23T11:39:41.000Z","ept":0.005,"lat":38.714334268,"lon":-117.090607506,"altHAE":1819.8730,"altMSL":1864.1690,"alt":1864.1690,"track":99.9560,"magtrack":739.8560,"magvar":999.9,"speed":0.023,"climb":-0.034,"geoidSep":-44.296,"eph":5.700,"dgpsAge":2.0,"dgpsSta":0}
{"class":"SKY","hdop":1.20,"uSat":10}
$GPGGA,113941.50,3842.86006234,N,11705.43644490,W,2,09,1.3,1864.169,M,-44.296,M,1.4,0000*4C
{"class":"SKY","hdop":1.30,"uSat":9}
$GPRMC,113941.50,A,3842.86006234,N,11705.43644490,W,0.026,35.167,231122,999.9000,E,D*25
{"class":"TPV","status":2,"mode":3,"time":"2022-11-23T11:39:41.500Z","ept":0.005,"lat":38.714334372,"lon":-117.090607415,"altHAE":1819.8730,"altMSL":1864.1690,"alt":1864.1690,"track":35.1670,"magtrack":675.0670,"magvar":999.9,"speed":0.013,"climb":0.000,"geoidSep":-44.296,"eph":6.175,"dgpsAge":1.4,"dgpsSta":0}
{"class":"SKY","hdop":1.30,"uSat":9}
$GPGGA,113942.00,3842.86006846,N,11705.43643683,W,2,09,1.3,1864.154,M,-44.296,M,2.0,0000*4B
{"class":"SKY","hdop":1.30,"uSat":9}
$GPRMC,113942.00,A,3842.86006846,N,11705.43643683,W,0.095,64.703,231122,999.9000,E,D*23
{"class":"TPV","status":2,"mode":3,"time":"2022-11-23T11:39:42.000Z","ept":0.005,"lat":38.714334474,"lon":-117.090607281,"altHAE":1819.8580,"altMSL":1864.1540,"alt":1864.1540,"track":64.7030,"magtrack":704.6030,"magvar":999.9,"speed":0.049,"climb":-0.030,"geoidSep":-44.296,"eph":6.175,"dgpsAge":2.0,"dgpsSta":0}
{"class":"SKY","hdop":1.30,"uSat":9}
$GPGGA,113942.50,3842.86007255,N,11705.43642776,W,2,09,1.2,1864.153,M,-44.296,M,1.4,0000*4C
{"class":"SKY","hdop":1.20,"uSat":9}
$GPRMC,113942.50,A,3842.86007255,N,11705.43642776,W,0.040,50.053,231122,999.9000,E,D*28
{"class":"TPV","status":2,"mode":3,"time":"2022-11-23T11:39:42.500Z","ept":0.005,"lat":38.714334542,"lon":-117.090607129,"altHAE":1819.8570,"altMSL":1864.1530,"alt":1864.1530,"track":50.0530,"magtrack":689.9530,"magvar":999.9,"speed":0.021,"climb":-0.002,"geoidSep":-44.296,"eph":5.700,"dgpsAge":1.4,"dgpsSta":0}
{"class":"SKY","hdop":1.20,"uSat":9}
$GPGGA,113943.00,3842.86008157,N,11705.43641405,W,2,09,1.3,1864.147,M,-44.296,M,1.0,0000*42
{"class":"SKY","hdop":1.30,"uSat":9}
$GPRMC,113943.00,A,3842.86008157,N,11705.43641405,W,0.033,241.894,231122,999.9000,E,D*13
{"class":"TPV","status":2,"mode":3,"time":"2022-11-23T11:39:43.000Z","ept":0.005,"lat":38.714334693,"lon":-117.090606901,"altHAE":1819.8510,"altMSL":1864.1470,"alt":1864.1470,"track":241.8940,"magtrack":881.7940,"magvar":999.9,"speed":0.017,"climb":-0.012,"geoidSep":-44.296,"eph":6.175,"dgpsAge":1.0,"dgpsSta":0}
{"class":"SKY","hdop":1.30,"uSat":9}
$GPGGA,113943.50,3842.86008422,N,11705.43641513,W,2,09,1.3,1864.169,M,-44.296,M,1.4,0000*4E
{"class":"SKY","hdop":1.30,"uSat":9}
$GPRMC,113943.50,A,3842.86008422,N,11705.43641513,W,0.043,239.734,231122,999.9000,E,D*1A
{"class":"TPV","status":2,"mode":3,"time":"2022-11-23T11:39:43.500Z","ept":0.005,"lat":38.714334737,"lon":-117.090606919,"altHAE":1819.8730,"altMSL":1864.1690,"alt":1864.1690,"track":239.7340,"magtrack":879.6340,"magvar":999.9,"speed":0.022,"climb":0.044,"geoidSep":-44.296,"eph":6.175,"dgpsAge":1.4,"dgpsSta":0}
{"class":"SKY","hdop":1.30,"uSat":9}
$GPGGA,113944.00,3842.86007927,N,11705.43641857,W,2,09,1.3,1864.185,M,-44.296,M,1.0,0000*40
{"class":"SKY","hdop":1.30,"uSat":9}
$GPRMC,113944.00,A,3842.86007927,N,11705.43641857,W,0.038,253.757,231122,999.9000,E,D*17
{"class":"TPV","status":2,"mode":3,"time":"2022-11-23T11:39:44.000Z","ept":0.005,"lat":38.714334654,"lon":-117.090606976,"altHAE":1819.8890,"altMSL":1864.1850,"alt":1864.1850,"track":253.7570,"magtrack":893.6570,"magvar":999.9,"speed":0.020,"climb":0.032,"geoidSep":-44.296,"eph":6.175,"dgpsAge":1.0,"dgpsSta":0}
{"class":"SKY","hdop":1.30,"uSat":9}
$GPGGA,113944.50,3842.86007409,N,11705.43642288,W,2,09,1.3,1864.209,M,-44.296,M,1.4,0000*4C
{"class":"SKY","hdop":1.30,"uSat":9}
$GPRMC,113944.50,A,3842.86007409,N,11705.43642288,W,0.069,232.566,231122,999.9000,E,D*1B
{"class":"TPV","status":2,"mode":3,"time":"2022-11-23T11:39:44.500Z","ept":0.005,"lat":38.714334568,"lon":-117.090607048,"altHAE":1819.9130,"altMSL":1864.2090,"alt":1864.2090,"track":232.5660,"magtrack":872.4660,"magvar":999.9,"speed":0.035,"climb":0.048,"geoidSep":-44.296,"eph":6.175,"dgpsAge":1.4,"dgpsSta":0}
{"class":"SKY","hdop":1.30,"uSat":9}
$GPGGA,113945.00,3842.86006383,N,11705.43644318,W,2,09,1.2,1864.235,M,-44.296,M,1.0,0000*48
{"class":"SKY","hdop":1.20,"uSat":9}
$GPRMC,113945.00,A,3842.86006383,N,11705.43644318,W,0.114,246.304,231122,999.9000,E,D*1F
{"class":"TPV","status":2,"mode":3,"time":"2022-11-23T11:39:45.000Z","ept":0.005,"lat":38.714334397,"lon":-117.090607386,"altHAE":1819.9390,"altMSL":1864.2350,"alt":1864.2350,"track":246.3040,"magtrack":886.2040,"magvar":999.9,"speed":0.059,"climb":0.052,"geoidSep":-44.296,"eph":5.700,"dgpsAge":1.0,"dgpsSta":0}
{"class":"SKY","hdop":1.20,"uSat":9}
$GPGGA,113945.50,3842.86006251,N,11705.43645093,W,2,09,1.3,1864.253,M,-44.296,M,1.4,0000*47
{"class":"SKY","hdop":1.30,"uSat":9}
$GPRMC,113945.50,A,3842.86006251,N,11705.43645093,W,0.082,273.032,231122,999.9000,E,D*1B
{"class":"TPV","status":2,"mode":3,"time":"2022-11-23T11:39:45.500Z","ept":0.005,"lat":38.714334375,"lon":-117.090607515,"altHAE":1819.9570,"altMSL":1864.2530,"alt":1864.2530,"track":273.0320,"magtrack":912.9320,"magvar":999.9,"speed":0.042,"climb":0.036,"geoidSep":-44.296,"eph":6.175,"dgpsAge":1.4,"dgpsSta":0}
{"class":"SKY","hdop":1.30,"uSat":9}
$GPGGA,113946.00,3842.86004170,N,11705.43647185,W,2,09,1.2,1864.257,M,-44.296,M,1.0,0000*46
{"class":"SKY","hdop":1.20,"uSat":9}
$GPRMC,113946.00,A,3842.86004170,N,11705.43647185,W,0.044,265.149,231122,999.9000,E,D*1B
{"class":"TPV","status":2,"mode":3,"time":"2022-11-23T11:39:46.000Z","ept":0.005,"lat":38.714334028,"lon":-117.090607864,"altHAE":1819.9610,"altMSL":1864.2570,"alt":1864.2570,"track":265.1490,"magtrack":905.0490,"magvar":999.9,"speed":0.023,"climb":0.008,"geoidSep":-44.296,"eph":5.700,"dgpsAge":1.0,"dgpsSta":0}
{"class":"SKY","hdop":1.20,"uSat":9}
$GPGGA,113946.50,3842.86002730,N,11705.43648211,W,2,09,1.2,1864.262,M,-44.296,M,1.4,0000*44
{"class":"SKY","hdop":1.20,"uSat":9}
$GPRMC,113946.50,A,3842.86002730,N,11705.43648211,W,0.012,199.915,231122,999.9000,E,D*19
{"class":"TPV","status":2,"mode":3,"time":"2022-11-23T11:39:46.500Z","ept":0.005,"lat":38.714333788,"lon":-117.090608035,"altHAE":1819.9660,"altMSL":1864.2620,"alt":1864.2620,"track":199.9150,"magtrack":839.8150,"magvar":999.9,"speed":0.006,"climb":0.010,"geoidSep":-44.296,"eph":5.700,"dgpsAge":1.4,"dgpsSta":0}
{"class":"SKY","hdop":1.20,"uSat":9}
$GPGGA,113947.00,3842.85999766,N,11705.43652086,W,2,09,1.2,1864.236,M,-44.296,M,1.0,0000*49
{"class":"SKY","hdop":1.20,"uSat":9}
$GPRMC,113947.00,A,3842.85999766,N,11705.43652086,W,0.009,0.000,231122,999.9000,E,D*17
{"class":"TPV","status":2,"mode":3,"time":"2022-11-23T11:39:47.000Z","ept":0.005,"lat":38.714333294,"lon":-117.090608681,"altHAE":1819.9400,"altMSL":1864.2360,"alt":1864.2360,"track":0.0000,"magtrack":639.9000,"magvar":999.9,"speed":0.005,"climb":-0.052,"geoidSep":-44.296,"eph":5.700,"dgpsAge":1.0,"dgpsSta":0}
{"class":"SKY","hdop":1.20,"uSat":9}
$GPGGA,113947.50,3842.85998143,N,11705.43654306,W,2,09,1.2,1864.240,M,-44.296,M,1.4,0000*44
{"class":"SKY","hdop":1.20,"uSat":9}
$GPRMC,113947.50,A,3842.85998143,N,11705.43654306,W,0.018,40.316,231122,999.9000,E,D*2F
{"class":"TPV","status":2,"mode":3,"time":"2022-11-23T11:39:47.500Z","ept":0.005,"lat":38.714333024,"lon":-117.090609051,"altHAE":1819.9440,"altMSL":1864.2400,"alt":1864.2400,"track":40.3160,"magtrack":680.2160,"magvar":999.9,"speed":0.009,"climb":0.008,"geoidSep":-44.296,"eph":5.700,"dgpsAge":1.4,"dgpsSta":0}
{"class":"SKY","hdop":1.20,"uSat":9}
$GPGGA,113948.00,3842.85995023,N,11705.43658522,W,2,09,1.2,1864.241,M,-44.296,M,1.0,0000*4D
{"class":"SKY","hdop":1.20,"uSat":9}
$GPRMC,113948.00,A,3842.85995023,N,11705.43658522,W,0.031,180.774,231122,999.9000,E,D*15
{"class":"TPV","status":2,"mode":3,"time":"2022-11-23T11:39:48.000Z","ept":0.005,"lat":38.714332504,"lon":-117.090609754,"altHAE":1819.9450,"altMSL":1864.2410,"alt":1864.2410,"track":180.7740,"magtrack":820.6740,"magvar":999.9,"speed":0.016,"climb":0.002,"geoidSep":-44.296,"eph":5.700,"dgpsAge":1.0,"dgpsSta":0}
{"class":"SKY","hdop":1.20,"uSat":9}
$GPGGA,113948.50,3842.85992993,N,11705.43661275,W,2,09,1.2,1864.263,M,-44.296,M,1.4,0000*46
{"class":"SKY","hdop":1.20,"uSat":9}
$GPRMC,113948.50,A,3842.85992993,N,11705.43661275,W,0.052,225.371,231122,999.9000,E,D*12
{"class":"TPV","status":2,"mode":3,"time":"2022-11-23T11:39:48.500Z","ept":0.005,"lat":38.714332165,"lon":-117.090610212,"altHAE":1819.9670,"altMSL":1864.2630,"alt":1864.2630,"track":225.3710,"magtrack":865.2710,"magvar":999.9,"speed":0.027,"climb":0.044,"geoidSep":-44.296,"eph":5.700,"dgpsAge":1.4,"dgpsSta":0}
{"class":"SKY","hdop":1.20,"uSat":9}
$GPGGA,113949.00,3842.85997167,N,11705.43654121,W,2,09,1.2,1864.357,M,-44.296,M,1.0,0000*42
{"class":"SKY","hdop":1.20,"uSat":9}
$GPRMC,113949.00,A,3842.85997167,N,11705.43654121,W,0.048,230.094,231122,999.9000,E,D*13
{"class":"TPV","status":2,"mode":3,"time":"2022-11-23T11:39:49.000Z","ept":0.005,"lat":38.714332861,"lon":-117.090609020,"altHAE":1820.0610,"altMSL":1864.3570,"alt":1864.3570,"track":230.0940,"magtrack":869.9940,"magvar":999.9,"speed":0.025,"climb":0.188,"geoidSep":-44.296,"eph":5.700,"dgpsAge":1.0,"dgpsSta":0}
{"class":"SKY","hdop":1.20,"uSat":9}
$GPGGA,113949.50,3842.85994232,N,11705.43658883,W,2,09,1.2,1864.353,M,-44.296,M,1.4,0000*4A
{"class":"SKY","hdop":1.20,"uSat":9}
$GPRMC,113949.50,A,3842.85994232,N,11705.43658883,W,0.082,262.677,231122,999.9000,E,D*11
{"class":"TPV","status":2,"mode":3,"time":"2022-11-23T11:39:49.500Z","ept":0.005,"lat":38.714332372,"lon":-117.090609814,"altHAE":1820.0570,"altMSL":1864.3530,"alt":1864.3530,"track":262.6770,"magtrack":902.5770,"magvar":999.9,"speed":0.042,"climb":-0.008,"geoidSep":-44.296,"eph":5.700,"dgpsAge":1.4,"dgpsSta":0}
{"class":"SKY","hdop":1.20,"uSat":9}
$GPGGA,113950.00,3842.85992334,N,11705.43661142,W,2,09,1.2,1864.386,M,-44.296,M,1.0,0000*44
{"class":"SKY","hdop":1.20,"uSat":9}
$GPRMC,113950.00,A,3842.85992334,N,11705.43661142,W,0.029,20.233,231122,999.9000,E,D*22
{"class":"TPV","status":2,"mode":3,"time":"2022-11-23T11:39:50.000Z","ept":0.005,"lat":38.714332056,"lon":-117.090610190,"altHAE":1820.0900,"altMSL":1864.3860,"alt":1864.3860,"track":20.2330,"magtrack":660.1330,"magvar":999.9,"speed":0.015,"climb":0.066,"geoidSep":-44.296,"eph":5.700,"dgpsAge":1.0,"dgpsSta":0}
{"class":"SKY","hdop":1.20,"uSat":9}
$GPGGA,113950.50,3842.85991876,N,11705.43661587,W,2,09,1.2,1864.420,M,-44.296,M,1.4,0000*4D
{"class":"SKY","hdop":1.20,"uSat":9}
$GPRMC,113950.50,A,3842.85991876,N,11705.43661587,W,0.031,83.496,231122,999.9000,E,D*2D
{"class":"TPV","status":2,"mode":3,"time":"2022-11-23T11:39:50.500Z","ept":0.005,"lat":38.714331979,"lon":-117.090610265,"altHAE":1820.1240,"altMSL":1864.4200,"alt":1864.4200,"track":83.4960,"magtrack":723.3960,"magvar":999.9,"speed":0.016,"climb":0.068,"geoidSep":-44.296,"eph":5.700,"dgpsAge":1.4,"dgpsSta":0}
{"class":"SKY","hdop":1.20,"uSat":9}
$GPGGA,113951.00,3842.85991581,N,11705.43661598,W,2,09,1.2,1864.473,M,-44.296,M,1.0,0000*40
{"class":"SKY","hdop":1.20,"uSat":9}
$GPRMC,113951.00,A,3842.85991581,N,11705.43661598,W,0.065,252.202,231122,999.9000,E,D*16
{"class":"TPV","status":2,"mode":3,"time":"2022-11-23T11:39:51.000Z","ept":0.005,"lat":38.714331930,"lon":-117.090610266,"altHAE":1820.1770,"altMSL":1864.4730,"alt":1864.4730,"track":252.2020,"magtrack":892.1020,"magvar":999.9,"speed":0.033,"climb":0.106,"geoidSep":-44.296,"eph":5.700,"dgpsAge":1.0,"dgpsSta":0}
{"class":"SKY","hdop":1.20,"uSat":9}
$GPGGA,113951.50,3842.85992187,N,11705.43652334,W,2,09,1.2,1864.536,M,-44.296,M,1.4,0000*40
{"class":"SKY","hdop":1.20,"uSat":9}
$GPRMC,113951.50,A,3842.85992187,N,11705.43652334,W,0.033,282.251,231122,999.9000,E,D*1A
{"class":"TPV","status":2,"mode":3,"time":"2022-11-23T11:39:51.500Z","ept":0.005,"lat":38.714332031,"lon":-117.090608722,"altHAE":1820.2400,"altMSL":1864.5360,"alt":1864.5360,"track":282.2510,"magtrack":922.1510,"magvar":999.9,"speed":0.017,"climb":0.126,"geoidSep":-44.296,"eph":5.700,"dgpsAge":1.4,"dgpsSta":0}
{"class":"SKY","hdop":1.20,"uSat":9}
$GPGGA,113952.00,3842.85994166,N,11705.43613013,W,2,10,1.2,1864.816,M,-44.296,M,1.0,0000*4F
{"class":"SKY","hdop":1.20,"uSat":10}
$GPRMC,113952.00,A,3842.85994166,N,11705.43613013,W,0.010,2.803,231122,999.9000,E,D*10
{"class":"TPV","status":2,"mode":3,"time":"2022-11-23T11:39:52.000Z","ept":0.005,"lat":38.714332361,"lon":-117.090602169,"altHAE":1820.5200,"altMSL":1864.8160,"alt":1864.8160,"track":2.8030,"magtrack":642.7030,"magvar":999.9,"speed":0.005,"climb":0.560,"geoidSep":-44.296,"eph":5.700,"dgpsAge":1.0,"dgpsSta":0}
{"class":"SKY","hdop":1.20,"uSat":10}
$GPGGA,113952.50,3842.85994577,N,11705.43604306,W,2,10,1.2,1865.027,M,-44.296,M,1.4,0000*40
{"class":"SKY","hdop":1.20,"uSat":10}
$GPRMC,113952.50,A,3842.85994577,N,11705.43604306,W,0.024,316.096,231122,999.9000,E,D*15
{"class":"TPV","status":2,"mode":3,"time":"2022-11-23T11:39:52.500Z","ept":0.005,"lat":38.714332430,"lon":-117.090600718,"altHAE":1820.7310,"altMSL":1865.0270,"alt":1865.0270,"track":316.0960,"magtrack":955.9960,"magvar":999.9,"speed":0.012,"climb":0.422,"geoidSep":-44.296,"eph":5.700,"dgpsAge":1.4,"dgpsSta":0}
{"class":"SKY","hdop":1.20,"uSat":10}
$GPGGA,113953.00,3842.85993701,N,11705.43604198,W,2,10,1.2,1865.309,M,-44.296,M,1.0,0000*4E
{"class":"SKY","hdop":1.20,"uSat":10}
$GPRMC,113953.00,A,3842.85993701,N,11705.43604198,W,0.100,259.873,231122,999.9000,E,D*1E
{"class":"TPV","status":2,"mode":3,"time":"2022-11-23T11:39:53.000Z","ept":0.005,"lat":38.714332283,"lon":-117.090600700,"altHAE":1821.0130,"altMSL":1865.3090,"alt":1865.3090,"track":259.8730,"magtrack":899.7730,"magvar":999.9,"speed":0.051,"climb":0.564,"geoidSep":-44.296,"eph":5.700,"dgpsAge":1.0,"dgpsSta":0}
{"class":"SKY","hdop":1.20,"uSat":10}
$GPGGA,113953.50,3842.85993252,N,11705.43606250,W,2,10,1.2,1865.442,M,-44.296,M,1.4,0000*41
{"class":"SKY","hdop":1.20,"uSat":10}
$GPRMC,113953.50,A,3842.85993252,N,11705.43606250,W,0.051,282.900,231122,999.9000,E,D*1B
{"class":"TPV","status":2,"mode":3,"time":"2022-11-23T11:39:53.500Z","ept":0.005,"lat":38.714332209,"lon":-117.090601042,"altHAE":1821.1460,"altMSL":1865.4420,"alt":1865.4420,"track":282.9000,"magtrack":922.8000,"magvar":999.9,"speed":0.026,"climb":0.266,"geoidSep":-44.296,"eph":5.700,"dgpsAge":1.4,"dgpsSta":0}
{"class":"SKY","hdop":1.20,"uSat":10}
$GPGGA,113954.00,3842.85995201,N,11705.43604033,W,2,10,1.2,1865.595,M,-44.296,M,1.0,0000*49
{"class":"SKY","hdop":1.20,"uSat":10}
$GPRMC,113954.00,A,3842.85995201,N,11705.43604033,W,0.019,10.622,231122,999.9000,E,D*26
{"class":"TPV","status":2,"mode":3,"time":"2022-11-23T11:39:54.000Z","ept":0.005,"lat":38.714332533,"lon":-117.090600672,"altHAE":1821.2990,"altMSL":1865.5950,"alt":1865.5950,"track":10.6220,"magtrack":650.5220,"magvar":999.9,"speed":0.010,"climb":0.306,"geoidSep":-44.296,"eph":5.700,"dgpsAge":1.0,"dgpsSta":0}
{"class":"SKY","hdop":1.20,"uSat":10}
$GPGGA,113954.50,3842.85992064,N,11705.43608578,W,2,10,1.2,1865.671,M,-44.296,M,1.4,0000*41
{"class":"SKY","hdop":1.20,"uSat":10}
$GPRMC,113954.50,A,3842.85992064,N,11705.43608578,W,0.091,240.765,231122,999.9000,E,D*16
{"class":"TPV","status":2,"mode":3,"time":"2022-11-23T11:39:54.500Z","ept":0.005,"lat":38.714332011,"lon":-117.090601430,"altHAE":1821.3750,"altMSL":1865.6710,"alt":1865.6710,"track":240.7650,"magtrack":880.6650,"magvar":999.9,"speed":0.047,"climb":0.152,"geoidSep":-44.296,"eph":5.700,"dgpsAge":1.4,"dgpsSta":0}
{"class":"SKY","hdop":1.20,"uSat":10}
$GPGGA,113955.00,3842.85989873,N,11705.43612307,W,2,10,1.2,1865.771,M,-44.296,M,1.0,0000*41
{"class":"SKY","hdop":1.20,"uSat":10}
$GPRMC,113955.00,A,3842.85989873,N,11705.43612307,W,0.018,262.991,231122,999.9000,E,D*17
{"class":"TPV","status":2,"mode":3,"time":"2022-11-23T11:39:55.000Z","ept":0.005,"lat":38.714331646,"lon":-117.090602051,"altHAE":1821.4750,"altMSL":1865.7710,"alt":1865.7710,"track":262.9910,"magtrack":902.8910,"magvar":999.9,"speed":0.009,"climb":0.200,"geoidSep":-44.296,"eph":5.700,"dgpsAge":1.0,"dgpsSta":0}
{"class":"SKY","hdop":1.20,"uSat":10}
$GPGGA,113955.50,3842.85989192,N,11705.43613959,W,2,10,1.2,1865.827,M,-44.296,M,1.4,0000*4A
{"class":"SKY","hdop":1.20,"uSat":10}
$GPRMC,113955.50,A,3842.85989192,N,11705.43613959,W,0.027,238.329,231122,999.9000,E,D*1E
{"class":"TPV","status":2,"mode":3,"time":"2022-11-23T11:39:55.500Z","ept":0.005,"lat":38.714331532,"lon":-117.090602326,"altHAE":1821.5310,"altMSL":1865.8270,"alt":1865.8270,"track":238.3290,"magtrack":878.2290,"magvar":999.9,"speed":0.014,"climb":0.112,"geoidSep":-44.296,"eph":5.700,"dgpsAge":1.4,"dgpsSta":0}
{"class":"SKY","hdop":1.20,"uSat":10}
$GPGGA,113956.00,3842.85988294,N,11705.43615876,W,2,10,1.2,1865.901,M,-44.296,M,1.0,0000*43
{"class":"SKY","hdop":1.20,"uSat":10}
$GPRMC,113956.00,A,3842.85988294,N,11705.43615876,W,0.023,184.884,231122,999.9000,E,D*1A
{"class":"TPV","status":2,"mode":3,"time":"2022-11-23T11:39:56.000Z","ept":0.005,"lat":38.714331382,"lon":-117.090602646,"altHAE":1821.6050,"altMSL":1865.9010,"alt":1865.9010,"track":184.8840,"magtrack":824.7840,"magvar":999.9,"speed":0.012,"climb":0.148,"geoidSep":-44.296,"eph":5.700,"dgpsAge":1.0,"dgpsSta":0}
{"class":"SKY","hdop":1.20,"uSat":10}
$GPGGA,113956.50,3842.85987816,N,11705.43616998,W,2,10,1.2,1865.944,M,-44.296,M,1.4,0000*4E
{"class":"SKY","hdop":1.20,"uSat":10}
$GPRMC,113956.50,A,3842.85987816,N,11705.43616998,W,0.021,205.112,231122,999.9000,E,D*1C
{"class":"TPV","status":2,"mode":3,"time":"2022-11-23T11:39:56.500Z","ept":0.005,"lat":38.714331303,"lon":-117.090602833,"altHAE":1821.6480,"altMSL":1865.9440,"alt":1865.9440,"track":205.1120,"magtrack":845.0120,"magvar":999.9,"speed":0.011,"climb":0.086,"geoidSep":-44.296,"eph":5.700,"dgpsAge":1.4,"dgpsSta":0}
{"class":"SKY","hdop":1.20,"uSat":10}
$GPGGA,113957.00,3842.85987483,N,11705.43617981,W,2,10,1.2,1865.996,M,-44.296,M,1.0,0000*48
{"class":"SKY","hdop":1.20,"uSat":10}
$GPRMC,113957.00,A,3842.85987483,N,11705.43617981,W,0.062,245.514,231122,999.9000,E,D*10
{"class":"TPV","status":2,"mode":3,"time":"2022-11-23T11:39:57.000Z","ept":0.005,"lat":38.714331247,"lon":-117.090602997,"altHAE":1821.7000,"altMSL":1865.9960,"alt":1865.9960,"track":245.5140,"magtrack":885.4140,"magvar":999.9,"speed":0.032,"climb":0.104,"geoidSep":-44.296,"eph":5.700,"dgpsAge":1.0,"dgpsSta":0}
{"class":"SKY","hdop":1.20,"uSat":10}
$GPGGA,113957.50,3842.85986942,N,11705.43618245,W,2,10,1.2,1866.022,M,-44.296,M,1.4,0000*41
{"class":"SKY","hdop":1.20,"uSat":10}
$GPRMC,113957.50,A,3842.85986942,N,11705.43618245,W,0.043,211.630,231122,999.9000,E,D*1F
{"class":"TPV","status":2,"mode":3,"time":"2022-11-23T11:39:57.500Z","ept":0.005,"lat":38.714331157,"lon":-117.090603041,"altHAE":1821.7260,"altMSL":1866.0220,"alt":1866.0220,"track":211.6300,"magtrack":851.5300,"magvar":999.9,"speed":0.022,"climb":0.052,"geoidSep":-44.296,"eph":5.700,"dgpsAge":1.4,"dgpsSta":0}
{"class":"SKY","hdop":1.20,"uSat":10}
$GPGGA,113958.00,3842.85986996,N,11705.43619148,W,2,10,1.2,1866.068,M,-44.296,M,1.0,0000*47
{"class":"SKY","hdop":1.20,"uSat":10}
$GPRMC,113958.00,A,3842.85986996,N,11705.43619148,W,0.037,282.190,231122,999.9000,E,D*17
{"class":"TPV","status":2,"mode":3,"time":"2022-11-23T11:39:58.000Z","ept":0.005,"lat":38.714331166,"lon":-117.090603191,"altHAE":1821.7720,"altMSL":1866.0680,"alt":1866.0680,"track":282.1900,"magtrack":922.0900,"magvar":999.9,"speed":0.019,"climb":0.092,"geoidSep":-44.296,"eph":5.700,"dgpsAge":1.0,"dgpsSta":0}
{"class":"SKY","hdop":1.20,"uSat":10}
