$GNGGA,135651.997,5543.0328,N,03724.7198,E,1,06,01.8,165.6,M,14.6,M,,*73
{"class":"TPV","mode":3,"lat":55.717213333,"lon":37.411996667,"altHAE":180.2000,"altMSL":165.6000,"alt":165.6000,"magvar":11.3,"geoidSep":14.600,"eph":34.200}
{"class":"SKY","hdop":1.80,"uSat":6}
$GNRMC,135651.997,A,5543.0328,N,03724.7198,E,00.00,129.5,051209,,,A*79
{"class":"TPV","mode":3,"time":"2029-07-21T13:56:51.997Z","ept":0.005,"lat":55.717213333,"lon":37.411996667,"altHAE":180.2000,"altMSL":165.6000,"alt":165.6000,"track":129.5000,"magtrack":140.8111,"magvar":11.3,"speed":0.000,"geoidSep":14.600,"eph":34.200}
$PORZD,A,024.2*38
$GNGSA,A,2,19,27,,,,,,,,,,,02.1,01.8,00.9*13
{"class":"TPV","mode":3,"time":"2029-07-21T13:56:51.997Z","ept":0.005,"lat":55.717213333,"lon":37.411996667,"altHAE":180.2000,"altMSL":165.6000,"alt":165.6000,"epv":20.700,"track":129.5000,"magtrack":140.8111,"magvar":11.3,"speed":0.000,"geoidSep":14.600,"eph":34.200,"sep":39.900}
$GNGSA,A,2,67,84,83,75,,,,,,,,,02.1,01.8,00.9*1A
{"class":"TPV","mode":3,"time":"2029-07-21T13:56:51.997Z","ept":0.005,"lat":55.717213333,"lon":37.411996667,"altHAE":180.2000,"altMSL":165.6000,"alt":165.6000,"epv":20.700,"track":129.5000,"magtrack":140.8111,"magvar":11.3,"speed":0.000,"geoidSep":14.600,"eph":34.200,"sep":39.900}
{"class":"SKY","hdop":1.80,"pdop":2.10,"vdop":0.90,"uSat":6}
$GNGGA,135652.997,5543.0328,N,03724.7198,E,1,06,01.8,165.6,M,14.6,M,,*70
{"class":"SKY","hdop":1.80,"pdop":2.10,"vdop":0.90,"uSat":6}
$GNRMC,135652.997,A,5543.0328,N,03724.7198,E,00.00,129.5,051209,,,A*7A
{"class":"TPV","mode":3,"time":"2029-07-21T13:56:52.997Z","ept":0.005,"lat":55.717213333,"lon":37.411996667,"altHAE":180.2000,"altMSL":165.6000,"alt":165.6000,"epv":20.700,"track":129.5000,"magtrack":140.8111,"magvar":11.3,"speed":0.000,"climb":0.000,"epc":41.40,"geoidSep":14.600,"eph":34.200,"sep":39.900}
{"class":"SKY","hdop":1.80,"pdop":2.10,"vdop":0.90,"uSat":6}
$PORZD,A,024.5*3F
$GNGSA,A,2,19,27,,,,,,,,,,,02.1,01.8,00.9*13
{"class":"TPV","mode":3,"time":"2029-07-21T13:56:52.997Z","ept":0.005,"lat":55.717213333,"lon":37.411996667,"altHAE":180.2000,"altMSL":165.6000,"alt":165.6000,"epv":20.700,"track":129.5000,"magtrack":140.8111,"magvar":11.3,"speed":0.000,"climb":0.000,"epc":41.40,"geoidSep":14.600,"eph":34.200,"sep":39.900}
$GNGSA,A,2,67,84,83,75,,,,,,,,,02.1,01.8,00.9*1A
{"class":"TPV","mode":3,"time":"2029-07-21T13:56:52.997Z","ept":0.005,"lat":55.717213333,"lon":37.411996667,"altHAE":180.2000,"altMSL":165.6000,"alt":165.6000,"epv":20.700,"track":129.5000,"magtrack":140.8111,"magvar":11.3,"speed":0.000,"climb":0.000,"epc":41.40,"geoidSep":14.600,"eph":34.200,"sep":39.900}
{"class":"SKY","hdop":1.80,"pdop":2.10,"vdop":0.90,"uSat":6}
$GNGGA,135653.997,5543.0328,N,03724.7198,E,1,06,01.8,165.6,M,14.6,M,,*71
{"class":"SKY","hdop":1.80,"pdop":2.10,"vdop":0.90,"uSat":6}
$GNRMC,135653.997,A,5543.0328,N,03724.7198,E,00.00,129.5,051209,,,A*7B
{"class":"TPV","mode":3,"time":"2029-07-21T13:56:53.997Z","ept":0.005,"lat":55.717213333,"lon":37.411996667,"altHAE":180.2000,"altMSL":165.6000,"alt":165.6000,"epv":20.700,"track":129.5000,"magtrack":140.8111,"magvar":11.3,"speed":0.000,"climb":0.000,"epc":41.40,"geoidSep":14.600,"eph":34.200,"sep":39.900}
{"class":"SKY","hdop":1.80,"pdop":2.10,"vdop":0.90,"uSat":6}
$PORZD,A,024.4*3E
$GPGSV,4,1,14,03,50,217,,06,49,201,,09,10,068,,14,30,153,*74
$GPGSV,4,2,14,18,42,068,,19,58,270,36,21,16,107,,22,76,109,*75
$GPGSV,4,3,14,26,42,127,,27,13,055,25,28,08,344,22,33,11,238,*75
$GPGSV,4,4,14,37,25,199,,39,25,194,*7F
{"class":"TPV","mode":3,"time":"2029-07-21T13:56:53.997Z","ept":0.005,"lat":55.717213333,"lon":37.411996667,"altHAE":180.2000,"altMSL":165.6000,"alt":165.6000,"epv":20.700,"track":129.5000,"magtrack":140.8111,"magvar":11.3,"speed":0.000,"climb":0.000,"epc":41.40,"geoidSep":14.600,"eph":34.200,"sep":39.900}
{"class":"SKY","hdop":1.80,"pdop":2.10,"vdop":0.90,"nSat":14,"uSat":2,"satellites":[{"PRN":3,"gnssid":0,"svid":3,"az":217.0,"el":50.0,"ss":0.0,"used":false},{"PRN":6,"gnssid":0,"svid":6,"az":201.0,"el":49.0,"ss":0.0,"used":false},{"PRN":9,"gnssid":0,"svid":9,"az":68.0,"el":10.0,"ss":0.0,"used":false},{"PRN":14,"gnssid":0,"svid":14,"az":153.0,"el":30.0,"ss":0.0,"used":false},{"PRN":18,"gnssid":0,"svid":18,"az":68.0,"el":42.0,"ss":0.0,"used":false},{"PRN":19,"gnssid":0,"svid":19,"az":270.0,"el":58.0,"ss":36.0,"used":true},{"PRN":21,"gnssid":0,"svid":21,"az":107.0,"el":16.0,"ss":0.0,"used":false},{"PRN":22,"gnssid":0,"svid":22,"az":109.0,"el":76.0,"ss":0.0,"used":false},{"PRN":26,"gnssid":0,"svid":26,"az":127.0,"el":42.0,"ss":0.0,"used":false},{"PRN":27,"gnssid":0,"svid":27,"az":55.0,"el":13.0,"ss":25.0,"used":true},{"PRN":28,"gnssid":0,"svid":28,"az":344.0,"el":8.0,"ss":22.0,"used":false},{"PRN":33,"gnssid":1,"svid":120,"az":238.0,"el":11.0,"ss":0.0,"used":false},{"PRN":37,"gnssid":1,"svid":124,"az":199.0,"el":25.0,"ss":0.0,"used":false},{"PRN":39,"gnssid":1,"svid":126,"az":194.0,"el":25.0,"ss":0.0,"used":false}]}
$GLGSV,2,1,06,66,18,048,,67,72,050,32,75,16,358,39,82,47,171,*6A
$GLGSV,2,2,06,83,66,291,37,84,17,325,34*6F
{"class":"TPV","mode":3,"time":"2029-07-21T13:56:53.997Z","ept":0.005,"lat":55.717213333,"lon":37.411996667,"altHAE":180.2000,"altMSL":165.6000,"alt":165.6000,"epx":13.876,"epy":39.605,"epv":20.700,"track":129.5000,"magtrack":140.8111,"magvar":11.3,"speed":0.000,"climb":0.000,"epc":41.40,"geoidSep":14.600,"eph":34.200,"sep":39.900}
{"class":"SKY","gdop":4.99,"hdop":1.80,"pdop":2.10,"tdop":2.85,"xdop":0.93,"ydop":2.64,"vdop":0.90,"nSat":20,"uSat":6,"satellites":[{"PRN":3,"gnssid":0,"svid":3,"az":217.0,"el":50.0,"ss":0.0,"used":false},{"PRN":6,"gnssid":0,"svid":6,"az":201.0,"el":49.0,"ss":0.0,"used":false},{"PRN":9,"gnssid":0,"svid":9,"az":68.0,"el":10.0,"ss":0.0,"used":false},{"PRN":14,"gnssid":0,"svid":14,"az":153.0,"el":30.0,"ss":0.0,"used":false},{"PRN":18,"gnssid":0,"svid":18,"az":68.0,"el":42.0,"ss":0.0,"used":false},{"PRN":19,"gnssid":0,"svid":19,"az":270.0,"el":58.0,"ss":36.0,"used":true},{"PRN":21,"gnssid":0,"svid":21,"az":107.0,"el":16.0,"ss":0.0,"used":false},{"PRN":22,"gnssid":0,"svid":22,"az":109.0,"el":76.0,"ss":0.0,"used":false},{"PRN":26,"gnssid":0,"svid":26,"az":127.0,"el":42.0,"ss":0.0,"used":false},{"PRN":27,"gnssid":0,"svid":27,"az":55.0,"el":13.0,"ss":25.0,"used":true},{"PRN":28,"gnssid":0,"svid":28,"az":344.0,"el":8.0,"ss":22.0,"used":false},{"PRN":33,"gnssid":1,"svid":120,"az":238.0,"el":11.0,"ss":0.0,"used":false},{"PRN":37,"gnssid":1,"svid":124,"az":199.0,"el":25.0,"ss":0.0,"used":false},{"PRN":39,"gnssid":1,"svid":126,"az":194.0,"el":25.0,"ss":0.0,"used":false},{"PRN":66,"gnssid":6,"svid":2,"az":48.0,"el":18.0,"ss":0.0,"used":false},{"PRN":67,"gnssid":6,"svid":3,"az":50.0,"el":72.0,"ss":32.0,"used":true},{"PRN":75,"gnssid":6,"svid":11,"az":358.0,"el":16.0,"ss":39.0,"used":true},{"PRN":82,"gnssid":6,"svid":18,"az":171.0,"el":47.0,"ss":0.0,"used":false},{"PRN":83,"gnssid":6,"svid":19,"az":291.0,"el":66.0,"ss":37.0,"used":true},{"PRN":84,"gnssid":6,"svid":20,"az":325.0,"el":17.0,"ss":34.0,"used":true}]}
$GNGSA,A,2,19,27,,,,,,,,,,,02.1,01.8,00.9*13
{"class":"TPV","mode":3,"time":"2029-07-21T13:56:53.997Z","ept":0.005,"lat":55.717213333,"lon":37.411996667,"altHAE":180.2000,"altMSL":165.6000,"alt":165.6000,"epx":13.876,"epy":39.605,"epv":20.700,"track":129.5000,"magtrack":140.8111,"magvar":11.3,"speed":0.000,"climb":0.000,"epc":41.40,"geoidSep":14.600,"eph":34.200,"sep":39.900}
$GNGSA,A,2,67,84,83,75,,,,,,,,,02.1,01.8,00.9*1A
{"class":"TPV","mode":3,"time":"2029-07-21T13:56:53.997Z","ept":0.005,"lat":55.717213333,"lon":37.411996667,"altHAE":180.2000,"altMSL":165.6000,"alt":165.6000,"epx":13.876,"epy":39.605,"epv":20.700,"track":129.5000,"magtrack":140.8111,"magvar":11.3,"speed":0.000,"climb":0.000,"epc":41.40,"geoidSep":14.600,"eph":34.200,"sep":39.900}
{"class":"SKY","gdop":4.99,"hdop":1.80,"pdop":2.10,"tdop":2.85,"xdop":0.93,"ydop":2.64,"vdop":0.90,"uSat":6}
$GLGGA,135654.997,5543.0328,N,03724.7197,E,1,04,02.3,165.6,M,14.6,M,,*71
{"class":"SKY","gdop":4.99,"hdop":2.30,"pdop":2.10,"tdop":2.85,"xdop":0.93,"ydop":2.64,"vdop":0.90,"uSat":4}
$GLRMC,135654.997,A,5543.0328,N,03724.7197,E,00.00,129.5,051209,,,A*71
{"class":"TPV","mode":3,"time":"2029-07-21T13:56:54.997Z","ept":0.005,"lat":55.717213333,"lon":37.411995000,"altHAE":180.2000,"altMSL":165.6000,"alt":165.6000,"epx":13.876,"epy":39.605,"epv":20.700,"track":129.5000,"magtrack":140.8111,"magvar":11.3,"speed":0.000,"climb":0.000,"eps":79.21,"epc":41.40,"geoidSep":14.600,"eph":43.700,"sep":39.900}
{"class":"SKY","gdop":4.99,"hdop":2.30,"pdop":2.10,"tdop":2.85,"xdop":0.93,"ydop":2.64,"vdop":0.90,"uSat":4}
$PORZD,A,027.0*39
$GLGSA,A,2,67,84,83,75,,,,,,,,,02.5,02.3,01.0*1C
{"class":"TPV","mode":3,"time":"2029-07-21T13:56:54.997Z","ept":0.005,"lat":55.717213333,"lon":37.411995000,"altHAE":180.2000,"altMSL":165.6000,"alt":165.6000,"epx":13.876,"epy":39.605,"epv":20.700,"track":129.5000,"magtrack":140.8111,"magvar":11.3,"speed":0.000,"climb":0.000,"eps":79.21,"epc":41.40,"geoidSep":14.600,"eph":43.700,"sep":39.900}
{"class":"SKY","gdop":4.99,"hdop":2.30,"pdop":2.50,"tdop":2.85,"xdop":0.93,"ydop":2.64,"vdop":1.00,"uSat":4}
$GNGGA,135655.997,5543.0328,N,03724.7199,E,1,06,01.8,165.6,M,14.6,M,,*76
{"class":"SKY","gdop":4.99,"hdop":1.80,"pdop":2.50,"tdop":2.85,"xdop":0.93,"ydop":2.64,"vdop":1.00,"uSat":6}
$GNRMC,135655.997,A,5543.0328,N,03724.7199,E,00.00,129.5,051209,,,A*7C
{"class":"TPV","mode":3,"time":"2029-07-21T13:56:55.997Z","ept":0.005,"lat":55.717213333,"lon":37.411998333,"altHAE":180.2000,"altMSL":165.6000,"alt":165.6000,"epx":13.876,"epy":39.605,"epv":23.000,"track":129.5000,"magtrack":140.8111,"magvar":11.3,"speed":0.000,"climb":0.000,"eps":79.21,"epc":43.70,"geoidSep":14.600,"eph":34.200,"sep":47.500}
{"class":"SKY","gdop":4.99,"hdop":1.80,"pdop":2.50,"tdop":2.85,"xdop":0.93,"ydop":2.64,"vdop":1.00,"uSat":6}
$PORZD,A,024.5*3F
$GNGSA,A,2,19,27,,,,,,,,,,,02.1,01.8,00.9*13
{"class":"TPV","mode":3,"time":"2029-07-21T13:56:55.997Z","ept":0.005,"lat":55.717213333,"lon":37.411998333,"altHAE":180.2000,"altMSL":165.6000,"alt":165.6000,"epx":13.876,"epy":39.605,"epv":23.000,"track":129.5000,"magtrack":140.8111,"magvar":11.3,"speed":0.000,"climb":0.000,"eps":79.21,"epc":43.70,"geoidSep":14.600,"eph":34.200,"sep":47.500}
$GNGSA,A,2,67,84,83,75,,,,,,,,,02.1,01.8,00.9*1A
{"class":"TPV","mode":3,"time":"2029-07-21T13:56:55.997Z","ept":0.005,"lat":55.717213333,"lon":37.411998333,"altHAE":180.2000,"altMSL":165.6000,"alt":165.6000,"epx":13.876,"epy":39.605,"epv":23.000,"track":129.5000,"magtrack":140.8111,"magvar":11.3,"speed":0.000,"climb":0.000,"eps":79.21,"epc":43.70,"geoidSep":14.600,"eph":34.200,"sep":47.500}
{"class":"SKY","gdop":4.99,"hdop":1.80,"pdop":2.10,"tdop":2.85,"xdop":0.93,"ydop":2.64,"vdop":0.90,"uSat":6}
$GNGGA,135656.997,5543.0329,N,03724.7201,E,1,06,01.8,165.6,M,14.6,M,,*76
{"class":"SKY","gdop":4.99,"hdop":1.80,"pdop":2.10,"tdop":2.85,"xdop":0.93,"ydop":2.64,"vdop":0.90,"uSat":6}
$GNRMC,135656.997,A,5543.0329,N,03724.7201,E,00.00,129.5,051209,,,A*7C
{"class":"TPV","mode":3,"time":"2029-07-21T13:56:56.997Z","ept":0.005,"lat":55.717215000,"lon":37.412001667,"altHAE":180.2000,"altMSL":165.6000,"alt":165.6000,"epx":13.876,"epy":39.605,"epv":20.700,"track":129.5000,"magtrack":140.8111,"magvar":11.3,"speed":0.000,"climb":0.000,"eps":79.21,"epc":43.70,"geoidSep":14.600,"eph":34.200,"sep":39.900}
{"class":"SKY","gdop":4.99,"hdop":1.80,"pdop":2.10,"tdop":2.85,"xdop":0.93,"ydop":2.64,"vdop":0.90,"uSat":6}
$PORZD,A,024.5*3F
$GNGSA,A,2,19,27,,,,,,,,,,,02.1,01.8,00.9*13
{"class":"TPV","mode":3,"time":"2029-07-21T13:56:56.997Z","ept":0.005,"lat":55.717215000,"lon":37.412001667,"altHAE":180.2000,"altMSL":165.6000,"alt":165.6000,"epx":13.876,"epy":39.605,"epv":20.700,"track":129.5000,"magtrack":140.8111,"magvar":11.3,"speed":0.000,"climb":0.000,"eps":79.21,"epc":43.70,"geoidSep":14.600,"eph":34.200,"sep":39.900}
$GNGSA,A,2,67,84,83,75,,,,,,,,,02.1,01.8,00.9*1A
{"class":"TPV","mode":3,"time":"2029-07-21T13:56:56.997Z","ept":0.005,"lat":55.717215000,"lon":37.412001667,"altHAE":180.2000,"altMSL":165.6000,"alt":165.6000,"epx":13.876,"epy":39.605,"epv":20.700,"track":129.5000,"magtrack":140.8111,"magvar":11.3,"speed":0.000,"climb":0.000,"eps":79.21,"epc":43.70,"geoidSep":14.600,"eph":34.200,"sep":39.900}
{"class":"SKY","gdop":4.99,"hdop":1.80,"pdop":2.10,"tdop":2.85,"xdop":0.93,"ydop":2.64,"vdop":0.90,"uSat":6}
$GNGGA,135657.997,5543.0328,N,03724.7204,E,1,06,01.8,165.6,M,14.6,M,,*73
{"class":"SKY","gdop":4.99,"hdop":1.80,"pdop":2.10,"tdop":2.85,"xdop":0.93,"ydop":2.64,"vdop":0.90,"uSat":6}
$GNRMC,135657.997,A,5543.0328,N,03724.7204,E,00.79,159.0,051209,,,A*75
{"class":"TPV","mode":3,"time":"2029-07-21T13:56:57.997Z","ept":0.005,"lat":55.717213333,"lon":37.412006667,"altHAE":180.2000,"altMSL":165.6000,"alt":165.6000,"epx":13.876,"epy":39.605,"epv":20.700,"track":159.0000,"magtrack":170.3111,"magvar":11.3,"speed":0.406,"climb":0.000,"eps":79.21,"epc":41.40,"geoidSep":14.600,"eph":34.200,"sep":39.900}
{"class":"SKY","gdop":4.99,"hdop":1.80,"pdop":2.10,"tdop":2.85,"xdop":0.93,"ydop":2.64,"vdop":0.90,"uSat":6}
$PORZD,A,025.7*3C
$GNGSA,A,2,19,27,,,,,,,,,,,02.1,01.8,00.9*13
{"class":"TPV","mode":3,"time":"2029-07-21T13:56:57.997Z","ept":0.005,"lat":55.717213333,"lon":37.412006667,"altHAE":180.2000,"altMSL":165.6000,"alt":165.6000,"epx":13.876,"epy":39.605,"epv":20.700,"track":159.0000,"magtrack":170.3111,"magvar":11.3,"speed":0.406,"climb":0.000,"eps":79.21,"epc":41.40,"geoidSep":14.600,"eph":34.200,"sep":39.900}
$GNGSA,A,2,67,84,83,75,,,,,,,,,02.1,01.8,00.9*1A
{"class":"TPV","mode":3,"time":"2029-07-21T13:56:57.997Z","ept":0.005,"lat":55.717213333,"lon":37.412006667,"altHAE":180.2000,"altMSL":165.6000,"alt":165.6000,"epx":13.876,"epy":39.605,"epv":20.700,"track":159.0000,"magtrack":170.3111,"magvar":11.3,"speed":0.406,"climb":0.000,"eps":79.21,"epc":41.40,"geoidSep":14.600,"eph":34.200,"sep":39.900}
{"class":"SKY","gdop":4.99,"hdop":1.80,"pdop":2.10,"tdop":2.85,"xdop":0.93,"ydop":2.64,"vdop":0.90,"uSat":6}
$GPGGA,135658.997,5543.0326,N,03724.7205,E,0,,,165.6,M,14.6,M,,*7D
$GPRMC,135658.997,V,5543.0326,N,03724.7205,E,00.79,159.0,051209,,,N*73
$PORZD,V,026.0*2F
$GPGSA,A,1,,,,,,,,,,,,,00.0,00.0,00.0*00
$GPGGA,135659.997,5543.0324,N,03724.7207,E,0,,,165.6,M,14.6,M,,*7C
{"class":"TPV","mode":1,"time":"2029-07-21T13:56:59.997Z","ept":0.005}
$GPRMC,135659.997,V,5543.0324,N,03724.7207,E,00.79,159.0,051209,,,N*72
{"class":"TPV","mode":1,"time":"2029-07-21T13:56:59.997Z","ept":0.005}
$PORZD,V,029.8*28
$GPGSV,4,1,14,03,50,217,,06,49,201,,09,10,068,,14,30,153,*74
$GPGSV,4,2,14,18,42,068,,19,58,270,,21,16,107,,22,76,109,*70
$GPGSV,4,3,14,26,42,127,,27,13,055,,28,08,344,,33,11,238,*72
$GPGSV,4,4,14,37,25,199,,39,25,194,*7F
$GLGSV,2,1,06,66,18,048,,67,72,050,,75,16,358,26,82,47,171,*65
$GLGSV,2,2,06,83,66,291,,84,17,325,22*6C
{"class":"TPV","mode":1,"time":"2029-07-21T13:56:59.997Z","ept":0.005}
{"class":"SKY","nSat":20,"uSat":0,"satellites":[{"PRN":3,"gnssid":0,"svid":3,"az":217.0,"el":50.0,"ss":0.0,"used":false},{"PRN":6,"gnssid":0,"svid":6,"az":201.0,"el":49.0,"ss":0.0,"used":false},{"PRN":9,"gnssid":0,"svid":9,"az":68.0,"el":10.0,"ss":0.0,"used":false},{"PRN":14,"gnssid":0,"svid":14,"az":153.0,"el":30.0,"ss":0.0,"used":false},{"PRN":18,"gnssid":0,"svid":18,"az":68.0,"el":42.0,"ss":0.0,"used":false},{"PRN":19,"gnssid":0,"svid":19,"az":270.0,"el":58.0,"ss":0.0,"used":false},{"PRN":21,"gnssid":0,"svid":21,"az":107.0,"el":16.0,"ss":0.0,"used":false},{"PRN":22,"gnssid":0,"svid":22,"az":109.0,"el":76.0,"ss":0.0,"used":false},{"PRN":26,"gnssid":0,"svid":26,"az":127.0,"el":42.0,"ss":0.0,"used":false},{"PRN":27,"gnssid":0,"svid":27,"az":55.0,"el":13.0,"ss":0.0,"used":false},{"PRN":28,"gnssid":0,"svid":28,"az":344.0,"el":8.0,"ss":0.0,"used":false},{"PRN":33,"gnssid":1,"svid":120,"az":238.0,"el":11.0,"ss":0.0,"used":false},{"PRN":37,"gnssid":1,"svid":124,"az":199.0,"el":25.0,"ss":0.0,"used":false},{"PRN":39,"gnssid":1,"svid":126,"az":194.0,"el":25.0,"ss":0.0,"used":false},{"PRN":66,"gnssid":6,"svid":2,"az":48.0,"el":18.0,"ss":0.0,"used":false},{"PRN":67,"gnssid":6,"svid":3,"az":50.0,"el":72.0,"ss":0.0,"used":false},{"PRN":75,"gnssid":6,"svid":11,"az":358.0,"el":16.0,"ss":26.0,"used":false},{"PRN":82,"gnssid":6,"svid":18,"az":171.0,"el":47.0,"ss":0.0,"used":false},{"PRN":83,"gnssid":6,"svid":19,"az":291.0,"el":66.0,"ss":0.0,"used":false},{"PRN":84,"gnssid":6,"svid":20,"az":325.0,"el":17.0,"ss":22.0,"used":false}]}
$GPGSA,A,1,,,,,,,,,,,,,00.0,00.0,00.0*00
$GPGBS,135659.997,,,,,,,*55
$GPGGA,135700.997,5543.0322,N,03724.7208,E,0,,,165.6,M,14.6,M,,*78
{"class":"TPV","mode":1,"time":"2029-07-21T13:57:00.997Z","ept":0.005}
$GPRMC,135700.997,V,5543.0322,N,03724.7208,E,00.79,159.0,051209,,,N*76
{"class":"TPV","mode":1,"time":"2029-07-21T13:57:00.997Z","ept":0.005}
$PORZD,V,037.1*2E
$GPGSA,A,1,,,,,,,,,,,,,00.0,00.0,00.0*00
$GPGGA,135701.997,5543.0320,N,03724.7210,E,0,,,165.6,M,14.6,M,,*72
{"class":"TPV","mode":1,"time":"2029-07-21T13:57:01.997Z","ept":0.005}
$GPRMC,135701.997,V,5543.0320,N,03724.7210,E,00.79,159.0,051209,,,N*7C
{"class":"TPV","mode":1,"time":"2029-07-21T13:57:01.997Z","ept":0.005}
$PORZD,V,048.0*27
$GPGSA,A,1,,,,,,,,,,,,,00.0,00.0,00.0*00
$GPGGA,135702.997,5543.0318,N,03724.7211,E,0,,,165.6,M,14.6,M,,*7B
{"class":"TPV","mode":1,"time":"2029-07-21T13:57:02.997Z","ept":0.005}
$GPRMC,135702.997,V,5543.0318,N,03724.7211,E,00.79,159.0,051209,,,N*75
{"class":"TPV","mode":1,"time":"2029-07-21T13:57:02.997Z","ept":0.005}
$PORZD,V,062.4*2B
$GPGSA,A,1,,,,,,,,,,,,,00.0,00.0,00.0*00
$GPGGA,135703.997,5543.0316,N,03724.7212,E,0,,,165.6,M,14.6,M,,*77
{"class":"TPV","mode":1,"time":"2029-07-21T13:57:03.997Z","ept":0.005}
$GPRMC,135703.997,V,5543.0316,N,03724.7212,E,00.79,159.0,051209,,,N*79
{"class":"TPV","mode":1,"time":"2029-07-21T13:57:03.997Z","ept":0.005}
$PORZD,V,080.3*20
$GPGSA,A,1,,,,,,,,,,,,,00.0,00.0,00.0*00
$GPGGA,135704.997,5543.0314,N,03724.7214,E,0,,,165.6,M,14.6,M,,*74
{"class":"TPV","mode":1,"time":"2029-07-21T13:57:04.997Z","ept":0.005}
$GPRMC,135704.997,V,5543.0314,N,03724.7214,E,00.79,159.0,051209,,,N*7A
{"class":"TPV","mode":1,"time":"2029-07-21T13:57:04.997Z","ept":0.005}
$PORZD,V,101.8*23
$GPGSA,A,1,,,,,,,,,,,,,00.0,00.0,00.0*00
