$PERC,GPver,GRU 04 01,NCD 901 65/1,R1E,E640226882.2050*0B
$PERC,GPver,GRU 04 02,NCD 901 78/1,R1C,E640018520.1949*0A
$PERC,GPppf,-07.6,+000.0,1,,*73
{"class":"OSC","running":true,"reference":true,"disciplined":false,"delta":-7}
$PERC,GPppr,588250,02403,00050,00,3,0*4C
$PERC,GPsts,0,0,2,010011111111011111*79
$GPGGA,,,,,,0,00,,,,,,,*66
{"class":"TPV","mode":1}
{"class":"OSC","running":true,"reference":true,"disciplined":false,"delta":-7}
$GPGSA,A,1,,,,,,,,,,,,,99.0,99.0,99.0*00
$GNGSA,A,1,,,,,,,,,,,,,99.0,99.0,99.0*1E
{"class":"TPV","mode":0}
$GPGSV,1,1,03,25,00,,42,19,00,,38,22,00,,34,,,,*7F
$GLGSV,1,1,00,,,,,,,,,,,,,,,,*65
$PERC,FWsts,010100,,,0,0,0*7D
$PERC,GPreh,00:00:00 00/00/0000,8*58
$PERC,GPver,GRU 04 01,NCD 901 65/1,R1E,E640226882.2050*0B
$PERC,GPppf,-07.6,+000.0,1,,*73
{"class":"OSC","running":true,"reference":true,"disciplined":false,"delta":-7}
$PERC,GPppr,588287,02403,00050,00,3,0*46
$PERC,GPsts,1,0,2,010011111111011111*78
$PERC,GPppf,-07.6,+000.0,1,,*73
{"class":"OSC","running":true,"reference":true,"disciplined":false,"delta":-7}
$PERC,GPppr,588288,02403,00050,08,3,0*41
$PERC,GPsts,1,0,2,010011111111011111*78
$PERC,GPver,GRU 04 01,NCD 901 65/1,R1E,E640226882.2050*0B
$PERC,GPppf,+03.7,-014.7,0,18,0*4C
{"class":"OSC","running":true,"reference":true,"disciplined":true,"delta":3}
$PERC,GPppr,428421,02404,00050,15,0,0*47
$PERC,GPsts,2,0,2,010011111111011111*7B
$PERC,GPppf,-00.4,-013.1,0,18,0*4B
{"class":"OSC","running":true,"reference":true,"disciplined":true,"delta":0}
$PERC,GPppr,428422,02404,00050,15,0,0*44
$PERC,GPsts,2,0,2,010011111111011111*7B
$PERC,GPppf,-07.4,-010.7,0,18,0*49
{"class":"OSC","running":true,"reference":true,"disciplined":true,"delta":-7}
$PERC,GPppr,428423,02404,00050,15,0,0*45
$PERC,GPsts,2,0,2,010011111111011111*7B
$PERC,FWsts,010100,,,0,0,0*7D
$PERC,GPreh,00:00:00 00/00/0000,8*58
$PERC,GPver,GRU 04 01,NCD 901 65/1,R1E,E640226882.2050*0B
$PERC,GPsts,2,0,2,010011111111011111*7B
$PERC,GPppr,493578,02404,00050,16,0,0*49
$PERC,GPppf,+03.8,-025.4,0,18,0*42
{"class":"OSC","running":true,"reference":true,"disciplined":true,"delta":3}
$PERC,GPavp,4111.6010,N,11156.5690,W,001441.6,M*2E
$PERC,GPreh,00:00:00 00/00/0000,8*58
$PERC,FWsts,010100,,,0,0,0*7D
$PERC,GPctr,R,,,1,,*39
$GPGGA,170655.000,4111.59923,N,11156.56692,W,1,20,0.54,01443.9,M,-016.5,M,,*64
{"class":"TPV","mode":3,"lat":41.193320500,"lon":-111.942782000,"altHAE":1427.4000,"altMSL":1443.9000,"alt":1443.9000,"magvar":11.2,"geoidSep":-16.500,"eph":10.260}
{"class":"SKY","hdop":0.54,"uSat":20}
{"class":"OSC","running":true,"reference":true,"disciplined":true,"delta":3}
$GPGSA,A,3,14,30,07,17,08,02,22,13,,,,,1.00,0.54,0.84*01
{"class":"TPV","mode":3,"lat":41.193320500,"lon":-111.942782000,"altHAE":1427.4000,"altMSL":1443.9000,"alt":1443.9000,"epv":19.320,"magvar":11.2,"geoidSep":-16.500,"eph":10.260,"sep":19.000}
{"class":"SKY","hdop":0.54,"pdop":1.00,"vdop":0.84,"uSat":20}
$GNGSA,A,3,67,76,66,77,68,86,78,87,,,,,1.00,0.54,0.84*10
{"class":"TPV","mode":3,"lat":41.193320500,"lon":-111.942782000,"altHAE":1427.4000,"altMSL":1443.9000,"alt":1443.9000,"epv":19.320,"magvar":11.2,"geoidSep":-16.500,"eph":10.260,"sep":19.000}
$GPGSV,4,1,13,14,61,276,43,30,82,002,43,07,59,104,45,21,04,249,19*7B
$GPGSV,4,2,13,17,28,192,39,08,25,046,45,19,07,200,41,02,19,083,31*76
$GPGSV,4,3,13,09,08,168,38,05,04,276,36,15,08,324,29,22,47,261,39*70
$GPGSV,4,4,13,13,33,311,46,,,,,,,,,,,,*48
$GLGSV,3,1,09,67,46,261,35,76,35,057,42,66,18,199,47,77,59,348,33*65
$GLGSV,3,2,09,68,27,322,44,85,05,015,18,86,32,070,38,78,21,283,42*60
$GLGSV,3,3,09,87,29,119,43,,,,,,,,,,,,*56
{"class":"SKY","gdop":1.59,"hdop":0.54,"pdop":1.00,"tdop":0.76,"xdop":0.41,"ydop":0.54,"vdop":0.84,"nSat":22,"uSat":16,"satellites":[{"PRN":14,"gnssid":0,"svid":14,"az":276.0,"el":61.0,"ss":43.0,"used":true},{"PRN":30,"gnssid":0,"svid":30,"az":2.0,"el":82.0,"ss":43.0,"used":true},{"PRN":7,"gnssid":0,"svid":7,"az":104.0,"el":59.0,"ss":45.0,"used":true},{"PRN":21,"gnssid":0,"svid":21,"az":249.0,"el":4.0,"ss":19.0,"used":false},{"PRN":17,"gnssid":0,"svid":17,"az":192.0,"el":28.0,"ss":39.0,"used":true},{"PRN":8,"gnssid":0,"svid":8,"az":46.0,"el":25.0,"ss":45.0,"used":true},{"PRN":19,"gnssid":0,"svid":19,"az":200.0,"el":7.0,"ss":41.0,"used":false},{"PRN":2,"gnssid":0,"svid":2,"az":83.0,"el":19.0,"ss":31.0,"used":true},{"PRN":9,"gnssid":0,"svid":9,"az":168.0,"el":8.0,"ss":38.0,"used":false},{"PRN":5,"gnssid":0,"svid":5,"az":276.0,"el":4.0,"ss":36.0,"used":false},{"PRN":15,"gnssid":0,"svid":15,"az":324.0,"el":8.0,"ss":29.0,"used":false},{"PRN":22,"gnssid":0,"svid":22,"az":261.0,"el":47.0,"ss":39.0,"used":true},{"PRN":13,"gnssid":0,"svid":13,"az":311.0,"el":33.0,"ss":46.0,"used":true},{"PRN":67,"gnssid":6,"svid":3,"az":261.0,"el":46.0,"ss":35.0,"used":true},{"PRN":76,"gnssid":6,"svid":12,"az":57.0,"el":35.0,"ss":42.0,"used":true},{"PRN":66,"gnssid":6,"svid":2,"az":199.0,"el":18.0,"ss":47.0,"used":true},{"PRN":77,"gnssid":6,"svid":13,"az":348.0,"el":59.0,"ss":33.0,"used":true},{"PRN":68,"gnssid":6,"svid":4,"az":322.0,"el":27.0,"ss":44.0,"used":true},{"PRN":85,"gnssid":6,"svid":21,"az":15.0,"el":5.0,"ss":18.0,"used":false},{"PRN":86,"gnssid":6,"svid":22,"az":70.0,"el":32.0,"ss":38.0,"used":true},{"PRN":78,"gnssid":6,"svid":14,"az":283.0,"el":21.0,"ss":42.0,"used":true},{"PRN":87,"gnssid":6,"svid":23,"az":119.0,"el":29.0,"ss":43.0,"used":true}]}
$GNGLL,4111.59880,N,11156.56667,W,170600.000,A,A*5A
{"class":"TPV","mode":3,"lat":41.193313333,"lon":-111.942777833,"magvar":11.2,"geoidSep":-16.293}
{"class":"SKY","uSat":20}
$GNVTG,000.0,T,348.3,M,000.0,N,000.0,K,A*31
$GNZDA,170600.000,06,02,2026,,*4A
$GNGNS,170600.000,4111.59880,N,11156.56667,W,AANN,21,0.53,01443.9,-016.5,,*54
{"class":"TPV","mode":3,"time":"2026-02-06T17:06:00.000Z","ept":0.005,"lat":41.193313333,"lon":-111.942777833,"altHAE":1427.4000,"altMSL":1443.9000,"alt":1443.9000,"track":0.0000,"magtrack":348.3000,"magvar":11.2,"speed":0.000,"geoidSep":-16.500,"eph":10.070}
{"class":"SKY","hdop":0.53,"uSat":21}
$PTNLRBA,1,0*56
$PTNLRTP,T,33.23,3.0*2A
$PTNLRXO,1,-468.013*79
