$GPGLL,,,,,,V,N*64
{"class":"TPV","mode":1}
$GPBOD,,T,,M,,*47
{"class":"TPV","mode":1}
$PGRME,,M,,M,,M*00
{"class":"TPV","mode":1}
$PGRMZ,,f,1*29
{"class":"TPV","mode":1}
$GPRTE,1,1,c,*37
$GPRMC,,V,,,,,,,260810,1.0,E,N*34
{"class":"TPV","mode":1}
$GPRMB,V,,,,,,,,,,,,A,N*13
$GPGGA,,,,,,0,00,,,M,,M,,*66
{"class":"TPV","mode":1}
$GPGSA,A,1,,,,,,,,,,,,,,,*1E
$GPGSV,3,1,12,03,57,171,00,06,46,153,00,08,06,303,00,11,17,274,00*74
$GPGSV,3,2,12,15,02,014,00,18,27,053,00,19,74,257,41,22,56,080,41*72
$GPGSV,3,3,12,24,85,096,00,28,15,328,00,33,23,211,40,37,26,166,00*7F
{"class":"TPV","mode":1}
{"class":"SKY","nSat":12,"uSat":0,"satellites":[{"PRN":3,"gnssid":0,"svid":3,"az":171.0,"el":57.0,"ss":0.0,"used":false},{"PRN":6,"gnssid":0,"svid":6,"az":153.0,"el":46.0,"ss":0.0,"used":false},{"PRN":8,"gnssid":0,"svid":8,"az":303.0,"el":6.0,"ss":0.0,"used":false},{"PRN":11,"gnssid":0,"svid":11,"az":274.0,"el":17.0,"ss":0.0,"used":false},{"PRN":15,"gnssid":0,"svid":15,"az":14.0,"el":2.0,"ss":0.0,"used":false},{"PRN":18,"gnssid":0,"svid":18,"az":53.0,"el":27.0,"ss":0.0,"used":false},{"PRN":19,"gnssid":0,"svid":19,"az":257.0,"el":74.0,"ss":41.0,"used":false},{"PRN":22,"gnssid":0,"svid":22,"az":80.0,"el":56.0,"ss":41.0,"used":false},{"PRN":24,"gnssid":0,"svid":24,"az":96.0,"el":85.0,"ss":0.0,"used":false},{"PRN":28,"gnssid":0,"svid":28,"az":328.0,"el":15.0,"ss":0.0,"used":false},{"PRN":33,"gnssid":1,"svid":120,"az":211.0,"el":23.0,"ss":40.0,"used":false},{"PRN":37,"gnssid":1,"svid":124,"az":166.0,"el":26.0,"ss":0.0,"used":false}]}
$GPGLL,,,,,,V,N*64
{"class":"TPV","mode":1}
$GPBOD,,T,,M,,*47
{"class":"TPV","mode":1}
$PGRME,,M,,M,,M*00
{"class":"TPV","mode":1}
$PGRMZ,,f,1*29
{"class":"TPV","mode":1}
$GPRTE,1,1,c,*37
$GPRMC,,V,,,,,,,260810,1.0,E,N*34
{"class":"TPV","mode":1}
$GPRMB,V,,,,,,,,,,,,A,N*13
$GPGGA,,,,,,0,00,,,M,,M,,*66
{"class":"TPV","mode":1}
$GPGSA,A,1,,,,,,,,,,,,,,,*1E
$GPGSV,3,1,12,03,57,171,45,06,46,153,00,08,06,303,00,11,17,274,00*75
$GPGSV,3,2,12,15,02,014,00,18,27,053,00,19,74,257,41,22,56,080,41*72
$GPGSV,3,3,12,24,85,096,00,28,15,328,00,33,23,211,40,37,26,166,00*7F
{"class":"TPV","mode":1}
{"class":"SKY","nSat":12,"uSat":0,"satellites":[{"PRN":3,"gnssid":0,"svid":3,"az":171.0,"el":57.0,"ss":45.0,"used":false},{"PRN":6,"gnssid":0,"svid":6,"az":153.0,"el":46.0,"ss":0.0,"used":false},{"PRN":8,"gnssid":0,"svid":8,"az":303.0,"el":6.0,"ss":0.0,"used":false},{"PRN":11,"gnssid":0,"svid":11,"az":274.0,"el":17.0,"ss":0.0,"used":false},{"PRN":15,"gnssid":0,"svid":15,"az":14.0,"el":2.0,"ss":0.0,"used":false},{"PRN":18,"gnssid":0,"svid":18,"az":53.0,"el":27.0,"ss":0.0,"used":false},{"PRN":19,"gnssid":0,"svid":19,"az":257.0,"el":74.0,"ss":41.0,"used":false},{"PRN":22,"gnssid":0,"svid":22,"az":80.0,"el":56.0,"ss":41.0,"used":false},{"PRN":24,"gnssid":0,"svid":24,"az":96.0,"el":85.0,"ss":0.0,"used":false},{"PRN":28,"gnssid":0,"svid":28,"az":328.0,"el":15.0,"ss":0.0,"used":false},{"PRN":33,"gnssid":1,"svid":120,"az":211.0,"el":23.0,"ss":40.0,"used":false},{"PRN":37,"gnssid":1,"svid":124,"az":166.0,"el":26.0,"ss":0.0,"used":false}]}
$GPGLL,,,,,,V,N*64
{"class":"TPV","mode":1}
$GPBOD,,T,,M,,*47
{"class":"TPV","mode":1}
$PGRME,,M,,M,,M*00
{"class":"TPV","mode":1}
$PGRMZ,,f,1*29
{"class":"TPV","mode":1}
$GPRTE,1,1,c,*37
$GPRMC,,V,,,,,,,260810,1.0,E,N*34
{"class":"TPV","mode":1}
$GPRMB,V,,,,,,,,,,,,A,N*13
$GPGGA,,,,,,0,00,,,M,,M,,*66
{"class":"TPV","mode":1}
$GPGSA,A,1,,,,,,,,,,,,,,,*1E
$GPGSV,3,1,12,03,56,170,45,06,46,153,00,08,06,303,00,11,17,274,00*75
$GPGSV,3,2,12,15,02,014,00,18,27,053,00,19,74,257,41,22,56,080,41*72
$GPGSV,3,3,12,24,85,096,00,28,15,328,00,33,23,211,41,37,26,166,00*7E
{"class":"TPV","mode":1}
{"class":"SKY","nSat":12,"uSat":0,"satellites":[{"PRN":3,"gnssid":0,"svid":3,"az":170.0,"el":56.0,"ss":45.0,"used":false},{"PRN":6,"gnssid":0,"svid":6,"az":153.0,"el":46.0,"ss":0.0,"used":false},{"PRN":8,"gnssid":0,"svid":8,"az":303.0,"el":6.0,"ss":0.0,"used":false},{"PRN":11,"gnssid":0,"svid":11,"az":274.0,"el":17.0,"ss":0.0,"used":false},{"PRN":15,"gnssid":0,"svid":15,"az":14.0,"el":2.0,"ss":0.0,"used":false},{"PRN":18,"gnssid":0,"svid":18,"az":53.0,"el":27.0,"ss":0.0,"used":false},{"PRN":19,"gnssid":0,"svid":19,"az":257.0,"el":74.0,"ss":41.0,"used":false},{"PRN":22,"gnssid":0,"svid":22,"az":80.0,"el":56.0,"ss":41.0,"used":false},{"PRN":24,"gnssid":0,"svid":24,"az":96.0,"el":85.0,"ss":0.0,"used":false},{"PRN":28,"gnssid":0,"svid":28,"az":328.0,"el":15.0,"ss":0.0,"used":false},{"PRN":33,"gnssid":1,"svid":120,"az":211.0,"el":23.0,"ss":41.0,"used":false},{"PRN":37,"gnssid":1,"svid":124,"az":166.0,"el":26.0,"ss":0.0,"used":false}]}
$GPGLL,,,,,,V,N*64
{"class":"TPV","mode":1}
$GPBOD,,T,,M,,*47
{"class":"TPV","mode":1}
$PGRME,,M,,M,,M*00
{"class":"TPV","mode":1}
$PGRMZ,,f,1*29
{"class":"TPV","mode":1}
$GPRTE,1,1,c,*37
$GPRMC,,V,,,,,,,260810,1.0,E,N*34
{"class":"TPV","mode":1}
$GPRMB,V,,,,,,,,,,,,A,N*13
$GPGGA,,,,,,0,00,,,M,,M,,*66
{"class":"TPV","mode":1}
$GPGSA,A,1,,,,,,,,,,,,,,,*1E
$GPGSV,3,1,12,03,56,170,44,06,46,153,00,08,06,303,00,11,17,274,00*74
$GPGSV,3,2,12,15,02,014,00,18,27,053,00,19,74,257,41,22,56,080,41*72
$GPGSV,3,3,12,24,85,096,00,28,15,328,00,33,23,211,41,37,26,166,00*7E
{"class":"TPV","mode":1}
{"class":"SKY","nSat":12,"uSat":0,"satellites":[{"PRN":3,"gnssid":0,"svid":3,"az":170.0,"el":56.0,"ss":44.0,"used":false},{"PRN":6,"gnssid":0,"svid":6,"az":153.0,"el":46.0,"ss":0.0,"used":false},{"PRN":8,"gnssid":0,"svid":8,"az":303.0,"el":6.0,"ss":0.0,"used":false},{"PRN":11,"gnssid":0,"svid":11,"az":274.0,"el":17.0,"ss":0.0,"used":false},{"PRN":15,"gnssid":0,"svid":15,"az":14.0,"el":2.0,"ss":0.0,"used":false},{"PRN":18,"gnssid":0,"svid":18,"az":53.0,"el":27.0,"ss":0.0,"used":false},{"PRN":19,"gnssid":0,"svid":19,"az":257.0,"el":74.0,"ss":41.0,"used":false},{"PRN":22,"gnssid":0,"svid":22,"az":80.0,"el":56.0,"ss":41.0,"used":false},{"PRN":24,"gnssid":0,"svid":24,"az":96.0,"el":85.0,"ss":0.0,"used":false},{"PRN":28,"gnssid":0,"svid":28,"az":328.0,"el":15.0,"ss":0.0,"used":false},{"PRN":33,"gnssid":1,"svid":120,"az":211.0,"el":23.0,"ss":41.0,"used":false},{"PRN":37,"gnssid":1,"svid":124,"az":166.0,"el":26.0,"ss":0.0,"used":false}]}
$GPGLL,,,,,,V,N*64
{"class":"TPV","mode":1}
$GPBOD,,T,,M,,*47
{"class":"TPV","mode":1}
$PGRME,,M,,M,,M*00
{"class":"TPV","mode":1}
$PGRMZ,,f,1*29
{"class":"TPV","mode":1}
$GPRTE,1,1,c,*37
$GPBOD,,T,,M,,*47
$PGRME,19.9,M,50.0,M,53.8,M*14
{"class":"TPV","mode":1}
$PGRMZ,-30,f,2*04
{"class":"TPV","mode":2,"altMSL":-9.1440,"alt":-9.1440,"epx":29.216,"epy":29.216,"epv":103.814,"sep":111.703}
$GPRTE,1,1,c,*37
$GPRMC,200004,A,5504.4343,N,01025.5386,E,0.0,0.0,260810,1.0,E,D*1E
$GPRMB,A,,,,,,,,,,,,A,D*0E
$GPGGA,200004,5504.4343,N,01025.5386,E,2,03,2.5,-9.1,M,43.9,M,,*62
{"class":"SKY","hdop":2.50}
$GPGSA,A,2,06,,,,,,19,22,,,,,2.7,2.5,1.0*3E
{"class":"SKY","hdop":2.50,"pdop":2.70,"vdop":1.00}
$GPGSV,3,1,12,06,43,153,43,08,05,301,00,11,19,274,00,14,18,127,00*77
$GPGSV,3,2,12,15,01,013,00,18,25,053,00,19,75,249,43,22,55,078,32*78
$GPGSV,3,3,12,24,83,092,00,28,17,327,00,33,23,211,42,37,26,166,42*74
{"class":"SKY","hdop":2.50,"pdop":2.70,"vdop":1.00,"nSat":12,"uSat":3,"satellites":[{"PRN":6,"gnssid":0,"svid":6,"az":153.0,"el":43.0,"ss":43.0,"used":true},{"PRN":8,"gnssid":0,"svid":8,"az":301.0,"el":5.0,"ss":0.0,"used":false},{"PRN":11,"gnssid":0,"svid":11,"az":274.0,"el":19.0,"ss":0.0,"used":false},{"PRN":14,"gnssid":0,"svid":14,"az":127.0,"el":18.0,"ss":0.0,"used":false},{"PRN":15,"gnssid":0,"svid":15,"az":13.0,"el":1.0,"ss":0.0,"used":false},{"PRN":18,"gnssid":0,"svid":18,"az":53.0,"el":25.0,"ss":0.0,"used":false},{"PRN":19,"gnssid":0,"svid":19,"az":249.0,"el":75.0,"ss":43.0,"used":true},{"PRN":22,"gnssid":0,"svid":22,"az":78.0,"el":55.0,"ss":32.0,"used":true},{"PRN":24,"gnssid":0,"svid":24,"az":92.0,"el":83.0,"ss":0.0,"used":false},{"PRN":28,"gnssid":0,"svid":28,"az":327.0,"el":17.0,"ss":0.0,"used":false},{"PRN":33,"gnssid":1,"svid":120,"az":211.0,"el":23.0,"ss":42.0,"used":false},{"PRN":37,"gnssid":1,"svid":124,"az":166.0,"el":26.0,"ss":42.0,"used":false}]}
$GPGLL,5504.4343,N,01025.5386,E,200004,A,D*4E
{"class":"TPV","status":2,"mode":3,"time":"2030-04-11T20:00:04.000Z","ept":0.005,"lat":55.073905000,"lon":10.425643333,"altHAE":34.8000,"altMSL":-9.1000,"alt":-9.1000,"epv":5.750,"track":0.0000,"magtrack":1.0000,"magvar":1.0,"speed":0.000,"geoidSep":43.900,"eph":11.875,"sep":12.825}
$GPBOD,,T,,M,,*47
{"class":"TPV","status":2,"mode":3,"time":"2030-04-11T20:00:04.000Z","ept":0.005,"lat":55.073905000,"lon":10.425643333,"altHAE":34.8000,"altMSL":-9.1000,"alt":-9.1000,"epv":5.750,"track":0.0000,"magtrack":1.0000,"magvar":1.0,"speed":0.000,"geoidSep":43.900,"eph":11.875,"sep":12.825}
$PGRME,19.9,M,50.0,M,53.8,M*14
$PGRMZ,-30,f,2*04
$GPRTE,1,1,c,*37
$GPRMC,200006,A,5504.4343,N,01025.5386,E,0.0,0.0,260810,1.0,E,D*1C
$GPRMB,A,,,,,,,,,,,,A,D*0E
$GPGGA,200006,5504.4343,N,01025.5386,E,2,03,2.5,-9.1,M,43.9,M,,*60
{"class":"SKY","hdop":2.50}
$GPGSA,A,2,06,,,,,,19,22,,,,,2.7,2.5,1.0*3E
{"class":"SKY","hdop":2.50,"pdop":2.70,"vdop":1.00}
$GPGSV,3,1,12,06,43,153,43,08,05,301,00,11,19,274,00,14,18,127,00*77
$GPGSV,3,2,12,15,01,013,00,18,25,053,00,19,75,249,43,22,55,078,31*7B
$GPGSV,3,3,12,24,83,092,00,28,17,327,00,33,23,211,42,37,26,166,42*74
{"class":"SKY","hdop":2.50,"pdop":2.70,"vdop":1.00,"nSat":12,"uSat":3,"satellites":[{"PRN":6,"gnssid":0,"svid":6,"az":153.0,"el":43.0,"ss":43.0,"used":true},{"PRN":8,"gnssid":0,"svid":8,"az":301.0,"el":5.0,"ss":0.0,"used":false},{"PRN":11,"gnssid":0,"svid":11,"az":274.0,"el":19.0,"ss":0.0,"used":false},{"PRN":14,"gnssid":0,"svid":14,"az":127.0,"el":18.0,"ss":0.0,"used":false},{"PRN":15,"gnssid":0,"svid":15,"az":13.0,"el":1.0,"ss":0.0,"used":false},{"PRN":18,"gnssid":0,"svid":18,"az":53.0,"el":25.0,"ss":0.0,"used":false},{"PRN":19,"gnssid":0,"svid":19,"az":249.0,"el":75.0,"ss":43.0,"used":true},{"PRN":22,"gnssid":0,"svid":22,"az":78.0,"el":55.0,"ss":31.0,"used":true},{"PRN":24,"gnssid":0,"svid":24,"az":92.0,"el":83.0,"ss":0.0,"used":false},{"PRN":28,"gnssid":0,"svid":28,"az":327.0,"el":17.0,"ss":0.0,"used":false},{"PRN":33,"gnssid":1,"svid":120,"az":211.0,"el":23.0,"ss":42.0,"used":false},{"PRN":37,"gnssid":1,"svid":124,"az":166.0,"el":26.0,"ss":42.0,"used":false}]}
$GPGLL,5504.4343,N,01025.5386,E,200006,A,D*4C
{"class":"TPV","status":2,"mode":3,"time":"2030-04-11T20:00:06.000Z","ept":0.005,"lat":55.073905000,"lon":10.425643333,"altHAE":34.8000,"altMSL":-9.1000,"alt":-9.1000,"epv":5.750,"track":0.0000,"magtrack":1.0000,"magvar":1.0,"speed":0.000,"climb":0.000,"epc":54.78,"geoidSep":43.900,"eph":11.875,"sep":12.825}
$GPBOD,,T,,M,,*47
{"class":"TPV","status":2,"mode":3,"time":"2030-04-11T20:00:06.000Z","ept":0.005,"lat":55.073905000,"lon":10.425643333,"altHAE":34.8000,"altMSL":-9.1000,"alt":-9.1000,"epv":5.750,"track":0.0000,"magtrack":1.0000,"magvar":1.0,"speed":0.000,"climb":0.000,"epc":54.78,"geoidSep":43.900,"eph":11.875,"sep":12.825}
$PGRME,19.9,M,50.0,M,53.8,M*14
$PGRMZ,-30,f,2*04
$GPRTE,1,1,c,*37
$GPRMC,200008,A,5504.4344,N,01025.5385,E,0.0,0.0,260810,1.0,E,D*16
$GPRMB,A,,,,,,,,,,,,A,D*0E
$GPGGA,200008,5504.4344,N,01025.5385,E,2,03,2.5,-9.1,M,43.9,M,,*6A
{"class":"SKY","hdop":2.50}
$GPGSA,A,2,06,,,,,,19,22,,,,,2.7,2.5,1.0*3E
{"class":"SKY","hdop":2.50,"pdop":2.70,"vdop":1.00}
$GPGSV,3,1,12,06,43,153,44,08,04,301,00,11,19,274,00,14,18,127,00*71
$GPGSV,3,2,12,15,01,013,00,18,25,053,00,19,75,249,43,22,55,078,31*7B
$GPGSV,3,3,12,24,83,092,00,28,17,327,00,33,23,211,42,37,26,166,42*74
{"class":"SKY","hdop":2.50,"pdop":2.70,"vdop":1.00,"nSat":12,"uSat":3,"satellites":[{"PRN":6,"gnssid":0,"svid":6,"az":153.0,"el":43.0,"ss":44.0,"used":true},{"PRN":8,"gnssid":0,"svid":8,"az":301.0,"el":4.0,"ss":0.0,"used":false},{"PRN":11,"gnssid":0,"svid":11,"az":274.0,"el":19.0,"ss":0.0,"used":false},{"PRN":14,"gnssid":0,"svid":14,"az":127.0,"el":18.0,"ss":0.0,"used":false},{"PRN":15,"gnssid":0,"svid":15,"az":13.0,"el":1.0,"ss":0.0,"used":false},{"PRN":18,"gnssid":0,"svid":18,"az":53.0,"el":25.0,"ss":0.0,"used":false},{"PRN":19,"gnssid":0,"svid":19,"az":249.0,"el":75.0,"ss":43.0,"used":true},{"PRN":22,"gnssid":0,"svid":22,"az":78.0,"el":55.0,"ss":31.0,"used":true},{"PRN":24,"gnssid":0,"svid":24,"az":92.0,"el":83.0,"ss":0.0,"used":false},{"PRN":28,"gnssid":0,"svid":28,"az":327.0,"el":17.0,"ss":0.0,"used":false},{"PRN":33,"gnssid":1,"svid":120,"az":211.0,"el":23.0,"ss":42.0,"used":false},{"PRN":37,"gnssid":1,"svid":124,"az":166.0,"el":26.0,"ss":42.0,"used":false}]}
$GPGLL,5504.4344,N,01025.5385,E,200008,A,D*46
{"class":"TPV","status":2,"mode":3,"time":"2030-04-11T20:00:08.000Z","ept":0.005,"lat":55.073906667,"lon":10.425641667,"altHAE":34.8000,"altMSL":-9.1000,"alt":-9.1000,"epv":5.750,"track":0.0000,"magtrack":1.0000,"magvar":1.0,"speed":0.000,"climb":0.000,"epc":54.78,"geoidSep":43.900,"eph":11.875,"sep":12.825}
$GPBOD,,T,,M,,*47
{"class":"TPV","status":2,"mode":3,"time":"2030-04-11T20:00:08.000Z","ept":0.005,"lat":55.073906667,"lon":10.425641667,"altHAE":34.8000,"altMSL":-9.1000,"alt":-9.1000,"epv":5.750,"track":0.0000,"magtrack":1.0000,"magvar":1.0,"speed":0.000,"climb":0.000,"epc":54.78,"geoidSep":43.900,"eph":11.875,"sep":12.825}
$PGRME,19.9,M,50.0,M,53.8,M*14
$PGRMZ,-30,f,2*04
$GPRTE,1,1,c,*37
$GPRMC,200010,A,5504.4344,N,01025.5385,E,0.0,0.0,260810,1.0,E,D*1F
$GPRMB,A,,,,,,,,,,,,A,D*0E
$GPGGA,200010,5504.4344,N,01025.5385,E,2,00,2.5,-9.1,M,43.9,M,,*60
{"class":"SKY","hdop":2.50}
$GPGSA,A,2,,,,,,,,,,,,,2.7,2.5,1.0*30
{"class":"SKY","hdop":2.50,"pdop":2.70,"vdop":1.00}
$GPGSV,3,1,12,06,43,153,44,08,04,301,00,11,19,274,00,14,18,127,00*71
$GPGSV,3,2,12,15,01,013,00,18,25,053,00,19,75,249,43,22,55,078,31*7B
$GPGSV,3,3,12,24,83,092,00,28,17,327,00,33,23,211,42,37,26,166,42*74
{"class":"SKY","hdop":2.50,"pdop":2.70,"vdop":1.00,"nSat":12,"uSat":0,"satellites":[{"PRN":6,"gnssid":0,"svid":6,"az":153.0,"el":43.0,"ss":44.0,"used":false},{"PRN":8,"gnssid":0,"svid":8,"az":301.0,"el":4.0,"ss":0.0,"used":false},{"PRN":11,"gnssid":0,"svid":11,"az":274.0,"el":19.0,"ss":0.0,"used":false},{"PRN":14,"gnssid":0,"svid":14,"az":127.0,"el":18.0,"ss":0.0,"used":false},{"PRN":15,"gnssid":0,"svid":15,"az":13.0,"el":1.0,"ss":0.0,"used":false},{"PRN":18,"gnssid":0,"svid":18,"az":53.0,"el":25.0,"ss":0.0,"used":false},{"PRN":19,"gnssid":0,"svid":19,"az":249.0,"el":75.0,"ss":43.0,"used":false},{"PRN":22,"gnssid":0,"svid":22,"az":78.0,"el":55.0,"ss":31.0,"used":false},{"PRN":24,"gnssid":0,"svid":24,"az":92.0,"el":83.0,"ss":0.0,"used":false},{"PRN":28,"gnssid":0,"svid":28,"az":327.0,"el":17.0,"ss":0.0,"used":false},{"PRN":33,"gnssid":1,"svid":120,"az":211.0,"el":23.0,"ss":42.0,"used":false},{"PRN":37,"gnssid":1,"svid":124,"az":166.0,"el":26.0,"ss":42.0,"used":false}]}
$GPGLL,5504.4344,N,01025.5385,E,200010,A,D*4F
{"class":"TPV","status":2,"mode":3,"time":"2030-04-11T20:00:10.000Z","ept":0.005,"lat":55.073906667,"lon":10.425641667,"altHAE":34.8000,"altMSL":-9.1000,"alt":-9.1000,"epv":5.750,"track":0.0000,"magtrack":1.0000,"magvar":1.0,"speed":0.000,"climb":0.000,"epc":54.78,"geoidSep":43.900,"eph":11.875,"sep":12.825}
$GPBOD,,T,,M,,*47
{"class":"TPV","status":2,"mode":3,"time":"2030-04-11T20:00:10.000Z","ept":0.005,"lat":55.073906667,"lon":10.425641667,"altHAE":34.8000,"altMSL":-9.1000,"alt":-9.1000,"epv":5.750,"track":0.0000,"magtrack":1.0000,"magvar":1.0,"speed":0.000,"climb":0.000,"epc":54.78,"geoidSep":43.900,"eph":11.875,"sep":12.825}
$PGRME,19.9,M,50.0,M,53.8,M*14
$PGRMZ,-30,f,2*04
$GPRTE,1,1,c,*37
$GPRMC,200012,A,5504.4344,N,01025.5385,E,0.0,0.0,260810,1.0,E,D*1D
$GPRMB,A,,,,,,,,,,,,A,D*0E
$GPGGA,200012,5504.4344,N,01025.5385,E,2,00,2.5,-9.1,M,43.9,M,,*62
{"class":"SKY","hdop":2.50}
$GPGSA,A,2,,,,,,,,,,,,,2.7,2.5,1.0*30
{"class":"SKY","hdop":2.50,"pdop":2.70,"vdop":1.00}
$GPGSV,3,1,12,06,43,153,44,08,04,301,00,11,19,274,00,14,18,127,00*71
$GPGSV,3,2,12,15,01,013,00,18,25,053,00,19,75,249,43,22,55,078,31*7B
$GPGSV,3,3,12,24,83,092,00,28,17,327,00,33,23,211,42,37,26,166,42*74
{"class":"SKY","hdop":2.50,"pdop":2.70,"vdop":1.00,"nSat":12,"uSat":0,"satellites":[{"PRN":6,"gnssid":0,"svid":6,"az":153.0,"el":43.0,"ss":44.0,"used":false},{"PRN":8,"gnssid":0,"svid":8,"az":301.0,"el":4.0,"ss":0.0,"used":false},{"PRN":11,"gnssid":0,"svid":11,"az":274.0,"el":19.0,"ss":0.0,"used":false},{"PRN":14,"gnssid":0,"svid":14,"az":127.0,"el":18.0,"ss":0.0,"used":false},{"PRN":15,"gnssid":0,"svid":15,"az":13.0,"el":1.0,"ss":0.0,"used":false},{"PRN":18,"gnssid":0,"svid":18,"az":53.0,"el":25.0,"ss":0.0,"used":false},{"PRN":19,"gnssid":0,"svid":19,"az":249.0,"el":75.0,"ss":43.0,"used":false},{"PRN":22,"gnssid":0,"svid":22,"az":78.0,"el":55.0,"ss":31.0,"used":false},{"PRN":24,"gnssid":0,"svid":24,"az":92.0,"el":83.0,"ss":0.0,"used":false},{"PRN":28,"gnssid":0,"svid":28,"az":327.0,"el":17.0,"ss":0.0,"used":false},{"PRN":33,"gnssid":1,"svid":120,"az":211.0,"el":23.0,"ss":42.0,"used":false},{"PRN":37,"gnssid":1,"svid":124,"az":166.0,"el":26.0,"ss":42.0,"used":false}]}
$GPGLL,5504.4344,N,01025.5385,E,200012,A,D*4D
{"class":"TPV","status":2,"mode":3,"time":"2030-04-11T20:00:12.000Z","ept":0.005,"lat":55.073906667,"lon":10.425641667,"altHAE":34.8000,"altMSL":-9.1000,"alt":-9.1000,"epv":5.750,"track":0.0000,"magtrack":1.0000,"magvar":1.0,"speed":0.000,"climb":0.000,"epc":54.78,"geoidSep":43.900,"eph":11.875,"sep":12.825}
$GPBOD,,T,,M,,*47
{"class":"TPV","status":2,"mode":3,"time":"2030-04-11T20:00:12.000Z","ept":0.005,"lat":55.073906667,"lon":10.425641667,"altHAE":34.8000,"altMSL":-9.1000,"alt":-9.1000,"epv":5.750,"track":0.0000,"magtrack":1.0000,"magvar":1.0,"speed":0.000,"climb":0.000,"epc":54.78,"geoidSep":43.900,"eph":11.875,"sep":12.825}
$PGRME,19.9,M,50.0,M,53.8,M*14
$PGRMZ,-30,f,2*04
$GPRTE,1,1,c,*37
$GPRMC,200014,A,5504.4344,N,01025.5384,E,0.0,0.0,260810,1.0,E,D*1A
$GPRMB,A,,,,,,,,,,,,A,D*0E
$GPGGA,200014,5504.4344,N,01025.5384,E,2,00,2.5,-9.1,M,43.9,M,,*65
{"class":"SKY","hdop":2.50}
$GPGSA,A,2,,,,,,,,,,,,,2.7,2.5,1.0*30
{"class":"SKY","hdop":2.50,"pdop":2.70,"vdop":1.00}
$GPGSV,3,1,12,06,43,153,44,08,04,301,00,11,19,274,00,14,18,127,00*71
$GPGSV,3,2,12,15,01,013,00,18,25,053,00,19,75,249,43,22,55,078,31*7B
$GPGSV,3,3,12,24,83,092,00,28,17,327,00,33,23,211,42,37,26,166,42*74
{"class":"SKY","hdop":2.50,"pdop":2.70,"vdop":1.00,"nSat":12,"uSat":0,"satellites":[{"PRN":6,"gnssid":0,"svid":6,"az":153.0,"el":43.0,"ss":44.0,"used":false},{"PRN":8,"gnssid":0,"svid":8,"az":301.0,"el":4.0,"ss":0.0,"used":false},{"PRN":11,"gnssid":0,"svid":11,"az":274.0,"el":19.0,"ss":0.0,"used":false},{"PRN":14,"gnssid":0,"svid":14,"az":127.0,"el":18.0,"ss":0.0,"used":false},{"PRN":15,"gnssid":0,"svid":15,"az":13.0,"el":1.0,"ss":0.0,"used":false},{"PRN":18,"gnssid":0,"svid":18,"az":53.0,"el":25.0,"ss":0.0,"used":false},{"PRN":19,"gnssid":0,"svid":19,"az":249.0,"el":75.0,"ss":43.0,"used":false},{"PRN":22,"gnssid":0,"svid":22,"az":78.0,"el":55.0,"ss":31.0,"used":false},{"PRN":24,"gnssid":0,"svid":24,"az":92.0,"el":83.0,"ss":0.0,"used":false},{"PRN":28,"gnssid":0,"svid":28,"az":327.0,"el":17.0,"ss":0.0,"used":false},{"PRN":33,"gnssid":1,"svid":120,"az":211.0,"el":23.0,"ss":42.0,"used":false},{"PRN":37,"gnssid":1,"svid":124,"az":166.0,"el":26.0,"ss":42.0,"used":false}]}
$GPGLL,5504.4344,N,01025.5384,E,200014,A,D*4A
{"class":"TPV","status":2,"mode":3,"time":"2030-04-11T20:00:14.000Z","ept":0.005,"lat":55.073906667,"lon":10.425640000,"altHAE":34.8000,"altMSL":-9.1000,"alt":-9.1000,"epv":5.750,"track":0.0000,"magtrack":1.0000,"magvar":1.0,"speed":0.000,"climb":0.000,"epc":54.78,"geoidSep":43.900,"eph":11.875,"sep":12.825}
$GPBOD,,T,,M,,*47
{"class":"TPV","status":2,"mode":3,"time":"2030-04-11T20:00:14.000Z","ept":0.005,"lat":55.073906667,"lon":10.425640000,"altHAE":34.8000,"altMSL":-9.1000,"alt":-9.1000,"epv":5.750,"track":0.0000,"magtrack":1.0000,"magvar":1.0,"speed":0.000,"climb":0.000,"epc":54.78,"geoidSep":43.900,"eph":11.875,"sep":12.825}
$PGRME,19.9,M,50.0,M,53.8,M*14
$PGRMZ,-30,f,2*04
$GPRTE,1,1,c,*37
$GPRMC,200016,A,5504.4344,N,01025.5384,E,0.0,0.0,260810,1.0,E,D*18
$GPRMB,A,,,,,,,,,,,,A,D*0E
$GPGGA,200016,5504.4344,N,01025.5384,E,2,00,2.5,-9.1,M,43.9,M,,*67
{"class":"SKY","hdop":2.50}
$GPGSA,A,2,,,,,,,,,,,,,2.7,2.5,1.0*30
{"class":"SKY","hdop":2.50,"pdop":2.70,"vdop":1.00}
$GPGSV,3,1,12,06,43,153,44,08,04,301,00,11,19,274,00,14,18,127,00*71
$GPGSV,3,2,12,15,01,013,00,18,25,053,00,19,75,249,43,22,55,078,31*7B
$GPGSV,3,3,12,24,83,092,00,28,17,327,00,33,23,211,42,37,26,166,42*74
{"class":"SKY","hdop":2.50,"pdop":2.70,"vdop":1.00,"nSat":12,"uSat":0,"satellites":[{"PRN":6,"gnssid":0,"svid":6,"az":153.0,"el":43.0,"ss":44.0,"used":false},{"PRN":8,"gnssid":0,"svid":8,"az":301.0,"el":4.0,"ss":0.0,"used":false},{"PRN":11,"gnssid":0,"svid":11,"az":274.0,"el":19.0,"ss":0.0,"used":false},{"PRN":14,"gnssid":0,"svid":14,"az":127.0,"el":18.0,"ss":0.0,"used":false},{"PRN":15,"gnssid":0,"svid":15,"az":13.0,"el":1.0,"ss":0.0,"used":false},{"PRN":18,"gnssid":0,"svid":18,"az":53.0,"el":25.0,"ss":0.0,"used":false},{"PRN":19,"gnssid":0,"svid":19,"az":249.0,"el":75.0,"ss":43.0,"used":false},{"PRN":22,"gnssid":0,"svid":22,"az":78.0,"el":55.0,"ss":31.0,"used":false},{"PRN":24,"gnssid":0,"svid":24,"az":92.0,"el":83.0,"ss":0.0,"used":false},{"PRN":28,"gnssid":0,"svid":28,"az":327.0,"el":17.0,"ss":0.0,"used":false},{"PRN":33,"gnssid":1,"svid":120,"az":211.0,"el":23.0,"ss":42.0,"used":false},{"PRN":37,"gnssid":1,"svid":124,"az":166.0,"el":26.0,"ss":42.0,"used":false}]}
