# @longview1 on GitLab
# Date: 2022-07-31
# Furuno GT-88
#
# Note: invalid GNGSA GALILEO encoding
#       proprietary $PERD messages
#
$GNRMC,120213.000,A,5957.0062,N,01100.6429,E,0.00,0.00,310722,,,D,V*0A
$GNGNS,120213.000,5957.0062,N,01100.6429,E,NDD,11,1.3,168.9,39.5,,,V*57
$GNGGA,120213.000,5957.0062,N,01100.6429,E,2,00,1.3,168.9,M,39.5,M,,*4A
$GNGSA,A,3,68,69,70,78,84,85,,,,,,,1.5,1.3,1.0,2*3D
$GNGSA,A,3,04,05,09,11,36,,,,,,,,1.5,1.3,1.0,3*39
$GPZDA,120213.000,31,07,2022,+00,00*79
$GPGSV,1,1,01,36,19,156,51,,,,,,,,,,,,,1*5E
$GLGSV,3,1,10,85,85,247,32,69,53,053,37,70,52,187,27,86,36,310,,1*72
$GLGSV,3,2,10,84,27,134,41,77,21,340,,78,09,034,34,76,09,292,23,1*70
$GLGSV,3,3,10,68,06,033,31,71,05,204,18,,,,,,,,,1*7F
$GAGSV,2,1,07,36,76,149,45,09,47,142,50,04,40,062,35,11,26,120,44,7*73
$GAGSV,2,2,07,27,18,333,,30,16,279,,05,11,185,41,,,,,7*4F
$PERDCRJ,FREQ,GP,,,,,,*4F
$PERDCRJ,FREQ,GL,,,,,,*53
$PERDCRQ,1,1,,*43
$PERDCRW,TPS1,20220731120213,2,00000000000000,+18,+18,4*0D
$PERDCRX,TPS2,1,1,0,200,+000000,0,0,0023,-1.178,0000*27
$PERDCRY,TPS3,3,0049,015,084533,000000,0,0,00,0x20001300*64
$PERDCRZ,TPS4,7,1,1,+000000,-000002,+009999,+059054,+00731,880000,0x54,0xA6*7D
$PERDAPI,ECLKCNT,9999999.97232,Hz*37
$GNRMC,120214.000,A,5957.0062,N,01100.6429,E,0.00,0.00,310722,,,D,V*0D
$GNGNS,120214.000,5957.0062,N,01100.6429,E,NDD,11,1.3,168.9,39.5,,,V*50
$GNGGA,120214.000,5957.0062,N,01100.6429,E,2,00,1.3,168.9,M,39.5,M,,*4D
$GNGSA,A,3,68,69,70,78,84,85,,,,,,,1.5,1.3,1.0,2*3D
$GNGSA,A,3,04,05,09,11,36,,,,,,,,1.5,1.3,1.0,3*39
$GPZDA,120214.000,31,07,2022,+00,00*7E
$GPGSV,1,1,01,36,19,156,51,,,,,,,,,,,,,1*5E
$GLGSV,3,1,10,85,85,247,31,69,53,053,37,70,52,187,28,86,36,310,,1*7E
$GLGSV,3,2,10,84,27,134,41,77,21,340,,78,09,034,32,76,09,292,21,1*74
$GLGSV,3,3,10,68,06,033,31,71,05,204,18,,,,,,,,,1*7F
$GAGSV,2,1,07,36,76,149,45,09,47,142,50,04,40,062,35,11,26,120,44,7*73
$GAGSV,2,2,07,27,18,333,,30,16,279,,05,11,185,41,,,,,7*4F
$PERDCRJ,FREQ,GP,,,,,,*4F
$PERDCRJ,FREQ,GL,,,,,,*53
$PERDCRW,TPS1,20220731120214,2,00000000000000,+18,+18,4*0A
$PERDCRX,TPS2,1,1,0,200,+000000,0,0,0020,-1.421,0000*2D
$PERDCRY,TPS3,3,0039,015,084533,000000,0,0,01,0x20001300*62
$PERDCRZ,TPS4,7,1,1,+000000,-000003,+009999,+059055,+00731,880000,0x54,0xA6*7D
$PERDAPI,ECLKCNT,9999999.97228,Hz*3C
$GNRMC,120215.000,A,5957.0062,N,01100.6429,E,0.00,0.00,310722,,,D,V*0C
$GNGNS,120215.000,5957.0062,N,01100.6429,E,NDD,10,1.3,168.9,39.5,,,V*50
$GNGGA,120215.000,5957.0062,N,01100.6429,E,2,00,1.3,168.9,M,39.5,M,,*4C
$GNGSA,A,3,68,69,78,84,85,,,,,,,,1.5,1.3,1.0,2*3A
$GNGSA,A,3,04,05,09,11,36,,,,,,,,1.5,1.3,1.0,3*39
$GPZDA,120215.000,31,07,2022,+00,00*7F
$GPGSV,1,1,01,36,19,156,51,,,,,,,,,,,,,1*5E
$GLGSV,3,1,10,85,85,247,31,69,53,053,38,70,52,187,28,86,36,310,,1*71
$GLGSV,3,2,10,84,27,134,41,77,21,340,,78,09,034,33,76,09,292,21,1*75
$GLGSV,3,3,10,68,06,033,31,71,05,204,18,,,,,,,,,1*7F
$GAGSV,2,1,07,36,76,149,45,09,47,142,50,04,40,062,35,11,26,120,44,7*73
$GAGSV,2,2,07,27,18,333,,30,16,279,,05,11,185,41,,,,,7*4F
$PERDCRJ,FREQ,GP,,,,,,*4F
$PERDCRJ,FREQ,GL,,,,,,*53
$PERDCRQ,1,1,,*43
$PERDCRW,TPS1,20220731120215,2,00000000000000,+18,+18,4*0B
$PERDCRX,TPS2,1,1,0,200,+000000,0,0,0020,+1.473,0000*2C
$PERDCRY,TPS3,3,0044,015,084533,000000,0,0,01,0x20001300*68
$PERDCRZ,TPS4,7,1,1,+000000,-000003,+009999,+059056,+00728,880000,0x54,0xA6*76
$PERDAPI,ECLKCNT,9999999.97224,Hz*30
$GNRMC,120216.000,A,5957.0062,N,01100.6429,E,0.00,0.00,310722,,,D,V*0F
$GNGNS,120216.000,5957.0062,N,01100.6429,E,NDD,11,1.3,168.9,39.5,,,V*52
$GNGGA,120216.000,5957.0062,N,01100.6429,E,2,00,1.3,168.9,M,39.5,M,,*4F
$GNGSA,A,3,68,69,70,78,84,85,,,,,,,1.5,1.3,1.0,2*3D
$GNGSA,A,3,04,05,09,11,36,,,,,,,,1.5,1.3,1.0,3*39
$GPZDA,120216.000,31,07,2022,+00,00*7C
$GPGSV,1,1,01,36,19,156,51,,,,,,,,,,,,,1*5E
$GLGSV,3,1,10,85,85,247,32,69,53,053,38,70,52,187,28,86,36,310,,1*72
$GLGSV,3,2,10,84,27,134,41,77,21,340,,78,09,034,33,76,09,292,21,1*75
$GLGSV,3,3,10,68,06,033,31,71,05,204,18,,,,,,,,,1*7F
$GAGSV,2,1,07,36,76,149,45,09,47,142,50,04,40,062,35,11,26,120,44,7*73
$GAGSV,2,2,07,27,18,333,,30,16,279,,05,11,185,41,,,,,7*4F
$PERDCRJ,FREQ,GP,1,1,1574.375092,25,,*6B
$PERDCRJ,FREQ,GL,,,,,,*53
$PERDCRW,TPS1,20220731120216,2,00000000000000,+18,+18,4*08
$PERDCRX,TPS2,1,1,0,200,+000000,0,0,0034,+1.008,0000*21
$PERDCRY,TPS3,3,0027,015,084533,000000,0,0,00,0x20001300*6C
$PERDCRZ,TPS4,7,1,1,+000000,+000000,+009999,+059057,+00729,880000,0x54,0xA6*73
$PERDAPI,ECLKCNT,9999999.97487,Hz*3F
$GNRMC,120217.000,A,5957.0062,N,01100.6429,E,0.00,0.00,310722,,,D,V*0E
$GNGNS,120217.000,5957.0062,N,01100.6429,E,NDD,10,1.3,168.9,39.5,,,V*52
$GNGGA,120217.000,5957.0062,N,01100.6429,E,2,00,1.3,168.9,M,39.5,M,,*4E
$GNGSA,A,3,68,69,78,84,85,,,,,,,,1.5,1.3,1.0,2*3A
$GNGSA,A,3,04,05,09,11,36,,,,,,,,1.5,1.3,1.0,3*39
$GPZDA,120217.000,31,07,2022,+00,00*7D
$GPGSV,1,1,01,36,19,156,51,,,,,,,,,,,,,1*5E
$GLGSV,3,1,10,85,85,247,31,69,53,053,38,70,52,187,28,86,36,310,,1*71
$GLGSV,3,2,10,84,27,134,41,77,21,340,,78,09,034,32,76,09,292,21,1*74
$GLGSV,3,3,10,68,06,033,31,71,05,204,18,,,,,,,,,1*7F
$GAGSV,2,1,07,36,76,149,45,09,47,142,50,04,40,062,35,11,26,120,44,7*73
$GAGSV,2,2,07,27,18,333,,30,16,279,,05,11,185,41,,,,,7*4F
$PERDCRJ,FREQ,GP,1,1,1574.374789,39,,*6A
$PERDCRJ,FREQ,GL,,,,,,*53
$PERDCRQ,1,1,,*43
$PERDCRW,TPS1,20220731120217,2,00000000000000,+18,+18,4*09
$PERDCRX,TPS2,1,1,0,200,+000000,0,0,0025,+0.573,0000*29
$PERDCRY,TPS3,3,0027,015,084533,000000,0,0,01,0x20001300*6D
$PERDCRZ,TPS4,7,1,1,+000000,-000005,+009999,+059058,+00730,880000,0x54,0xA6*77
$PERDAPI,ECLKCNT,9999999.97186,Hz*3B
$GNRMC,120218.000,A,5957.0062,N,01100.6429,E,0.00,0.00,310722,,,D,V*01
$GNGNS,120218.000,5957.0062,N,01100.6429,E,NDD,11,1.3,168.9,39.5,,,V*5C
$GNGGA,120218.000,5957.0062,N,01100.6429,E,2,00,1.3,168.9,M,39.5,M,,*41
$GNGSA,A,3,68,69,70,78,84,85,,,,,,,1.5,1.3,1.0,2*3D
$GNGSA,A,3,04,05,09,11,36,,,,,,,,1.5,1.3,1.0,3*39
$GPZDA,120218.000,31,07,2022,+00,00*72
$GPGSV,1,1,01,36,19,156,51,,,,,,,,,,,,,1*5E
$GLGSV,3,1,10,85,85,247,32,69,53,053,37,70,52,187,26,86,36,310,,1*73
$GLGSV,3,2,10,84,27,134,41,77,21,340,,78,09,034,32,76,09,292,21,1*74
$GLGSV,3,3,10,68,06,033,31,71,05,204,17,,,,,,,,,1*70
$GAGSV,2,1,07,36,76,149,44,09,47,142,50,04,40,062,34,11,26,120,44,7*73
$GAGSV,2,2,07,27,18,333,,30,16,279,,05,11,185,41,,,,,7*4F
$PERDCRJ,FREQ,GP,1,1,1574.375265,39,,*6C
$PERDCRJ,FREQ,GL,,,,,,*53
$PERDCRW,TPS1,20220731120218,2,00000000000000,+18,+18,4*06
$PERDCRX,TPS2,1,1,0,200,+000000,0,0,0021,+0.053,0000*2A
$PERDCRY,TPS3,3,0026,015,084533,000000,0,0,00,0x20001300*6D
$PERDCRZ,TPS4,7,1,1,+000000,-000003,+009999,+059059,+00729,880000,0x54,0xA6*78
$PERDAPI,ECLKCNT,9999999.97216,Hz*31
$GNRMC,120219.000,A,5957.0062,N,01100.6429,E,0.00,0.00,310722,,,D,V*00
$GNGNS,120219.000,5957.0062,N,01100.6429,E,NDD,11,1.3,168.9,39.5,,,V*5D
$GNGGA,120219.000,5957.0062,N,01100.6429,E,2,00,1.3,168.9,M,39.5,M,,*40
$GNGSA,A,3,68,69,70,78,84,85,,,,,,,1.5,1.3,1.0,2*3D
$GNGSA,A,3,04,05,09,11,36,,,,,,,,1.5,1.3,1.0,3*39
$GPZDA,120219.000,31,07,2022,+00,00*73
$GPGSV,1,1,01,36,19,156,51,,,,,,,,,,,,,1*5E
$GLGSV,3,1,10,85,85,247,32,69,53,053,38,70,52,187,24,86,36,310,,1*7E
$GLGSV,3,2,10,84,27,134,41,77,21,340,,78,09,034,32,76,09,292,21,1*74
$GLGSV,3,3,10,68,06,033,31,71,05,204,17,,,,,,,,,1*70
$GAGSV,2,1,07,36,76,149,44,09,47,142,50,04,40,062,34,11,26,120,44,7*73
$GAGSV,2,2,07,27,18,333,,30,16,279,,05,11,185,41,,,,,7*4F
$PERDCRJ,FREQ,GP,1,1,1574.375474,40,,*64
$PERDCRJ,FREQ,GL,,,,,,*53
$PERDCRQ,1,1,,*43
$PERDCRW,TPS1,20220731120219,2,00000000000000,+18,+18,4*07
$PERDCRX,TPS2,1,1,0,200,+000000,0,0,0020,-0.385,0000*25
$PERDCRY,TPS3,3,0026,015,084533,000000,0,0,00,0x20001300*6D
$PERDCRZ,TPS4,7,1,1,+000000,-000003,+009999,+059060,+00729,880000,0x54,0xA6*72
$PERDAPI,ECLKCNT,9999999.97195,Hz*39
$GNRMC,120220.000,A,5957.0062,N,01100.6429,E,0.00,0.00,310722,,,D,V*0A
$GNGNS,120220.000,5957.0062,N,01100.6429,E,NDD,11,1.3,168.9,39.5,,,V*57
$GNGGA,120220.000,5957.0062,N,01100.6429,E,2,00,1.3,168.9,M,39.5,M,,*4A
$GNGSA,A,3,68,69,70,78,84,85,,,,,,,1.5,1.3,1.0,2*3D
$GNGSA,A,3,04,05,09,11,36,,,,,,,,1.5,1.3,1.0,3*39
$GPZDA,120220.000,31,07,2022,+00,00*79
$GPGSV,1,1,01,36,19,156,52,,,,,,,,,,,,,1*5D
$GLGSV,3,1,10,85,85,247,33,69,53,053,37,70,52,187,24,86,36,310,,1*70
$GLGSV,3,2,10,84,27,134,41,77,21,340,,78,09,034,32,76,09,292,18,1*7E
$GLGSV,3,3,10,68,06,033,31,71,05,204,17,,,,,,,,,1*70
$GAGSV,2,1,07,36,76,149,44,09,47,142,50,04,40,062,34,11,26,120,44,7*73
$GAGSV,2,2,07,27,18,333,,30,16,279,,05,11,185,41,,,,,7*4F
$PERDCRJ,FREQ,GP,1,1,1574.375456,33,,*60
$PERDCRJ,FREQ,GL,,,,,,*53
$PERDCRW,TPS1,20220731120220,2,00000000000000,+18,+18,4*0D
$PERDCRX,TPS2,1,1,0,200,+000000,0,0,0018,-0.765,0000*24
$PERDCRY,TPS3,3,0033,015,084533,000000,0,0,01,0x20001300*68
$PERDCRZ,TPS4,7,1,1,+000000,-000003,+009999,+059061,+00730,880000,0x54,0xA6*7B
$PERDAPI,ECLKCNT,9999999.97218,Hz*3F
$GNRMC,120221.000,A,5957.0062,N,01100.6429,E,0.00,0.00,310722,,,D,V*0B
$GNGNS,120221.000,5957.0062,N,01100.6429,E,NDD,11,1.3,168.9,39.5,,,V*56
$GNGGA,120221.000,5957.0062,N,01100.6429,E,2,00,1.3,168.9,M,39.5,M,,*4B
$GNGSA,A,3,68,69,70,78,84,85,,,,,,,1.5,1.3,1.0,2*3D
$GNGSA,A,3,04,05,09,11,36,,,,,,,,1.5,1.3,1.0,3*39
$GPZDA,120221.000,31,07,2022,+00,00*78
$GPGSV,1,1,01,36,19,156,52,,,,,,,,,,,,,1*5D
$GLGSV,3,1,10,85,85,247,34,69,53,053,37,70,52,187,26,86,36,310,,1*75
$GLGSV,3,2,10,84,27,134,41,77,21,340,,78,09,034,32,76,09,292,18,1*7E
$GLGSV,3,3,10,68,06,033,32,71,05,204,17,,,,,,,,,1*73
$GAGSV,2,1,07,36,76,149,44,09,47,142,50,04,40,062,34,11,26,120,44,7*73
$GAGSV,2,2,07,27,18,333,,30,16,279,,05,11,185,41,,,,,7*4F
$PERDCRJ,FREQ,GP,1,1,1574.375526,38,,*6D
$PERDCRJ,FREQ,GL,,,,,,*53
$PERDCRQ,1,1,,*43
$PERDCRW,TPS1,20220731120221,2,00000000000000,+18,+18,4*0C
$PERDCRX,TPS2,1,1,0,200,+000000,0,0,0017,-1.039,0000*24
$PERDCRY,TPS3,3,0035,015,084533,000000,0,0,00,0x20001300*6F
$PERDCRZ,TPS4,7,1,1,+000000,-000003,+009999,+059062,+00731,880000,0x54,0xA6*79
$PERDAPI,ECLKCNT,9999999.97189,Hz*34
$GNRMC,120222.000,A,5957.0062,N,01100.6429,E,0.00,0.00,310722,,,D,V*08
$GNGNS,120222.000,5957.0062,N,01100.6429,E,NDD,11,1.3,168.9,39.5,,,V*55
$GNGGA,120222.000,5957.0062,N,01100.6429,E,2,00,1.3,168.9,M,39.5,M,,*48
$GNGSA,A,3,68,69,70,78,84,85,,,,,,,1.5,1.3,1.0,2*3D
$GNGSA,A,3,04,05,09,11,36,,,,,,,,1.5,1.3,1.0,3*39
$GPZDA,120222.000,31,07,2022,+00,00*7B
$GPGSV,1,1,01,36,19,156,51,,,,,,,,,,,,,1*5E
$GLGSV,3,1,10,85,85,247,34,69,53,053,37,70,52,187,24,86,36,310,,1*77
$GLGSV,3,2,10,84,27,134,41,77,21,340,,78,09,034,31,76,09,292,18,1*7D
$GLGSV,3,3,10,68,06,033,32,71,05,204,17,,,,,,,,,1*73
$GAGSV,2,1,07,36,76,149,44,09,47,142,50,04,40,062,34,11,26,120,44,7*73
$GAGSV,2,2,07,27,18,333,,30,16,279,,05,11,185,41,,,,,7*4F
$PERDCRJ,FREQ,GP,1,1,1574.375532,39,,*69
$PERDCRJ,FREQ,GL,1,1,1600.000126,6,,*49
$PERDCRW,TPS1,20220731120222,2,00000000000000,+18,+18,4*0F
$PERDCRX,TPS2,1,1,0,200,+000000,0,0,0017,-1.586,0000*25
$PERDCRY,TPS3,3,0027,015,084533,000000,0,0,00,0x20001300*6C
$PERDCRZ,TPS4,7,1,1,+000000,-000002,+009999,+059063,+00729,880000,0x54,0xA6*70
$PERDAPI,ECLKCNT,9999999.97198,Hz*34
$GNRMC,120223.000,A,5957.0062,N,01100.6429,E,0.00,0.00,310722,,,D,V*09
$GNGNS,120223.000,5957.0062,N,01100.6429,E,NDD,11,1.3,168.9,39.5,,,V*54
$GNGGA,120223.000,5957.0062,N,01100.6429,E,2,00,1.3,168.9,M,39.5,M,,*49
$GNGSA,A,3,68,69,70,78,84,85,,,,,,,1.5,1.3,1.0,2*3D
$GNGSA,A,3,04,05,09,11,36,,,,,,,,1.5,1.3,1.0,3*39
$GPZDA,120223.000,31,07,2022,+00,00*7A
$GPGSV,1,1,01,36,19,156,51,,,,,,,,,,,,,1*5E
$GLGSV,3,1,10,85,85,247,34,69,53,053,36,70,52,187,24,86,36,310,,1*76
$GLGSV,3,2,10,84,27,134,41,77,21,340,,78,09,034,31,76,09,292,18,1*7D
$GLGSV,3,3,10,68,06,033,32,71,05,204,17,,,,,,,,,1*73
$GAGSV,2,1,07,36,76,149,44,09,47,142,50,04,40,062,34,11,26,120,44,7*73
$GAGSV,2,2,07,27,18,333,,30,16,279,,05,11,185,41,,,,,7*4F
$PERDCRJ,FREQ,GP,1,1,1574.375451,44,,*67
$PERDCRJ,FREQ,GL,1,1,1599.999951,13,,*7F
$PERDCRQ,1,1,,*43
$PERDCRW,TPS1,20220731120223,2,00000000000000,+18,+18,4*0E
$PERDCRX,TPS2,1,1,0,200,+000000,0,0,0020,+1.394,0000*22
$PERDCRY,TPS3,3,0027,015,084533,000000,0,0,00,0x20001300*6C
$PERDCRZ,TPS4,7,1,1,+000000,-000003,+009999,+059064,+00729,880000,0x54,0xA6*76
$PERDAPI,ECLKCNT,9999999.97192,Hz*3E
$GNRMC,120224.000,A,5957.0062,N,01100.6429,E,0.00,0.00,310722,,,D,V*0E
$GNGNS,120224.000,5957.0062,N,01100.6429,E,NDD,11,1.3,168.9,39.5,,,V*53
$GNGGA,120224.000,5957.0062,N,01100.6429,E,2,00,1.3,168.9,M,39.5,M,,*4E
$GNGSA,A,3,68,69,70,78,84,85,,,,,,,1.5,1.3,1.0,2*3D
$GNGSA,A,3,04,05,09,11,36,,,,,,,,1.5,1.3,1.0,3*39
$GPZDA,120224.000,31,07,2022,+00,00*7D
$GPGSV,1,1,01,36,19,156,52,,,,,,,,,,,,,1*5D
$GLGSV,3,1,10,85,85,247,35,69,53,053,36,70,52,187,26,86,36,310,,1*75
$GLGSV,3,2,10,84,27,134,41,77,21,339,,78,09,034,31,76,09,292,18,1*73
$GLGSV,3,3,10,68,06,033,32,71,05,204,17,,,,,,,,,1*73
$GAGSV,2,1,07,36,76,149,44,09,47,142,50,04,40,062,34,11,26,120,44,7*73
$GAGSV,2,2,07,27,18,333,,30,16,279,,05,11,185,41,,,,,7*4F
$PERDCRJ,FREQ,GP,1,1,1574.375555,40,,*66
$PERDCRJ,FREQ,GL,1,1,1599.999788,15,,*73
$PERDCRW,TPS1,20220731120224,2,00000000000000,+18,+18,4*09
$PERDCRX,TPS2,1,1,0,200,+000000,0,0,0016,+0.928,0000*2B
$PERDCRY,TPS3,3,0027,015,084533,000000,0,0,00,0x20001300*6C
$PERDCRZ,TPS4,7,1,1,+000000,+000001,+009999,+059065,+00729,880000,0x54,0xA6*73
$PERDAPI,ECLKCNT,9999999.97542,Hz*37
$GNRMC,120225.000,A,5957.0062,N,01100.6429,E,0.00,0.00,310722,,,D,V*0F
$GNGNS,120225.000,5957.0062,N,01100.6429,E,NDD,11,1.3,168.9,39.5,,,V*52
$GNGGA,120225.000,5957.0062,N,01100.6429,E,2,00,1.3,168.9,M,39.5,M,,*4F
$GNGSA,A,3,68,69,70,78,84,85,,,,,,,1.5,1.3,1.0,2*3D
$GNGSA,A,3,04,05,09,11,36,,,,,,,,1.5,1.3,1.0,3*39
$GPZDA,120225.000,31,07,2022,+00,00*7C
$GPGSV,1,1,01,36,19,156,52,,,,,,,,,,,,,1*5D
$GLGSV,3,1,10,85,85,247,35,69,53,053,36,70,52,187,28,86,36,310,,1*7B
$GLGSV,3,2,10,84,27,134,41,77,21,339,,78,09,034,31,76,09,292,18,1*73
$GLGSV,3,3,10,68,06,033,32,71,05,204,17,,,,,,,,,1*73
$GAGSV,2,1,07,36,76,149,44,09,47,142,50,04,40,062,34,11,26,120,44,7*73
$GAGSV,2,2,07,27,18,333,,30,16,279,,05,11,185,41,,,,,7*4F
$PERDCRJ,FREQ,GP,1,1,1574.375662,38,,*6E
$PERDCRJ,FREQ,GL,,,,,,*53
$PERDCRQ,1,1,,*43
$PERDCRW,TPS1,20220731120225,2,00000000000000,+18,+18,4*08
$PERDCRX,TPS2,1,1,0,200,+000000,0,0,0018,+0.516,0000*24
$PERDCRY,TPS3,3,0027,015,084533,000000,0,0,00,0x20001300*6C
$PERDCRZ,TPS4,7,1,1,+000000,+000000,+009999,+059066,+00730,880000,0x54,0xA6*79
$PERDAPI,ECLKCNT,9999999.97762,Hz*37
$GNRMC,120226.000,A,5957.0062,N,01100.6429,E,0.00,0.00,310722,,,D,V*0C
$GNGNS,120226.000,5957.0062,N,01100.6429,E,NDD,11,1.3,168.9,39.5,,,V*51
$GNGGA,120226.000,5957.0062,N,01100.6429,E,2,00,1.3,168.9,M,39.5,M,,*4C
$GNGSA,A,3,68,69,70,78,84,85,,,,,,,1.5,1.3,1.0,2*3D
$GNGSA,A,3,04,05,09,11,36,,,,,,,,1.5,1.3,1.0,3*39
$GPZDA,120226.000,31,07,2022,+00,00*7F
$GPGSV,1,1,01,36,19,156,52,,,,,,,,,,,,,1*5D
$GLGSV,3,1,10,85,85,247,36,69,53,053,36,70,52,187,27,86,36,310,,1*77
$GLGSV,3,2,10,84,27,134,41,77,21,339,,78,09,034,31,76,09,292,18,1*73
$GLGSV,3,3,10,68,06,033,32,71,05,204,17,,,,,,,,,1*73
$GAGSV,2,1,07,36,76,149,44,09,47,142,50,04,40,062,34,11,26,120,44,7*73
$GAGSV,2,2,07,27,18,333,,30,16,279,,05,11,185,41,,,,,7*4F
$PERDCRJ,FREQ,GP,1,1,1574.375776,41,,*64
$PERDCRJ,FREQ,GL,,,,,,*53
$PERDCRW,TPS1,20220731120226,2,00000000000000,+18,+18,4*0B
$PERDCRX,TPS2,1,1,0,200,+000000,0,0,0017,+0.218,0000*22
$PERDCRY,TPS3,3,0027,015,084533,000000,0,0,00,0x20001300*6C
$PERDCRZ,TPS4,7,1,1,+000000,-000009,+009999,+059067,+00731,880000,0x54,0xA6*76
$PERDAPI,ECLKCNT,9999999.97133,Hz*35
$GNRMC,120227.000,A,5957.0062,N,01100.6429,E,0.00,0.00,310722,,,D,V*0D
$GNGNS,120227.000,5957.0062,N,01100.6429,E,NDD,11,1.3,168.9,39.5,,,V*50
$GNGGA,120227.000,5957.0062,N,01100.6429,E,2,00,1.3,168.9,M,39.5,M,,*4D
$GNGSA,A,3,68,69,70,78,84,85,,,,,,,1.5,1.3,1.0,2*3D
$GNGSA,A,3,04,05,09,11,36,,,,,,,,1.5,1.3,1.0,3*39
$GPZDA,120227.000,31,07,2022,+00,00*7E
$GPGSV,1,1,01,36,19,156,51,,,,,,,,,,,,,1*5E
$GLGSV,3,1,10,85,85,247,36,69,53,053,36,70,52,187,23,86,36,310,,1*73
$GLGSV,3,2,10,84,27,134,41,77,21,339,,78,09,034,29,76,09,292,18,1*7A
$GLGSV,3,3,10,68,06,033,32,71,05,204,17,,,,,,,,,1*73
$GAGSV,2,1,07,36,76,149,44,09,47,142,50,04,40,062,34,11,26,120,44,7*73
$GAGSV,2,2,07,27,18,333,,30,16,279,,05,11,185,41,,,,,7*4F
$PERDCRJ,FREQ,GP,,,,,,*4F
$PERDCRJ,FREQ,GL,,,,,,*53
$PERDCRQ,1,1,,*43
$PERDCRW,TPS1,20220731120227,2,00000000000000,+18,+18,4*0A
$PERDCRX,TPS2,1,1,0,200,+000000,0,0,0021,-0.110,0000*2A
$PERDCRY,TPS3,3,0030,015,084533,000000,0,0,00,0x20001300*6A
$PERDCRZ,TPS4,7,1,1,+000000,-000003,+009999,+059068,+00730,880000,0x54,0xA6*72
$PERDAPI,ECLKCNT,9999999.97136,Hz*30
$GNRMC,120228.000,A,5957.0062,N,01100.6429,E,0.00,0.00,310722,,,D,V*02
$GNGNS,120228.000,5957.0062,N,01100.6429,E,NDD,11,1.3,168.9,39.5,,,V*5F
$GNGGA,120228.000,5957.0062,N,01100.6429,E,2,00,1.3,168.9,M,39.5,M,,*42
$GNGSA,A,3,68,69,70,78,84,85,,,,,,,1.5,1.3,1.0,2*3D
$GNGSA,A,3,04,05,09,11,36,,,,,,,,1.5,1.3,1.0,3*39
$GPZDA,120228.000,31,07,2022,+00,00*71
$GPGSV,1,1,01,36,19,156,51,,,,,,,,,,,,,1*5E
$GLGSV,3,1,10,85,85,247,36,69,53,053,37,70,52,187,23,86,36,310,,1*72
$GLGSV,3,2,10,84,27,134,41,77,21,339,,78,09,034,29,76,09,292,18,1*7A
$GLGSV,3,3,10,68,06,033,32,71,05,204,17,,,,,,,,,1*73
$GAGSV,2,1,07,36,76,149,44,09,47,142,50,04,40,062,34,11,26,120,44,7*73
$GAGSV,2,2,07,27,18,333,,30,16,279,,05,11,185,41,,,,,7*4F
$PERDCRJ,FREQ,GP,,,,,,*4F
