$GPRMC,113258,A,3238.9148,N,10822.4466,W,005.3,247.1,181022,009.3,E*6B
{"class":"TPV","mode":2,"time":"2022-10-18T11:32:58.000Z","ept":0.005,"lat":32.648580000,"lon":-108.374110000,"track":247.1000,"magtrack":256.4000,"magvar":9.3,"speed":2.727}
$GPGGA,113258,3238.9148,N,10822.4466,W,2,08,1.1,1577.4,M,-24.6,M,,*4D
{"class":"TPV","status":2,"mode":3,"time":"2022-10-18T11:32:58.000Z","ept":0.005,"lat":32.648580000,"lon":-108.374110000,"altHAE":1552.8000,"altMSL":1577.4000,"alt":1577.4000,"track":247.1000,"magtrack":256.4000,"magvar":9.3,"speed":2.727,"geoidSep":-24.600,"eph":5.225}
{"class":"SKY","hdop":1.10,"uSat":8}
$GPGSA,A,3,02,05,11,12,18,20,25,29,,,,,1.4,1.1,0.9*3D
{"class":"TPV","status":2,"mode":3,"time":"2022-10-18T11:32:58.000Z","ept":0.005,"lat":32.648580000,"lon":-108.374110000,"altHAE":1552.8000,"altMSL":1577.4000,"alt":1577.4000,"epv":5.175,"track":247.1000,"magtrack":256.4000,"magvar":9.3,"speed":2.727,"geoidSep":-24.600,"eph":5.225,"sep":6.650}
{"class":"SKY","hdop":1.10,"pdop":1.40,"vdop":0.90,"uSat":8}
$GPGSV,3,1,11,02,60,319,36,05,77,132,38,11,29,052,29,12,46,186,46*74
$GPGSV,3,2,11,18,19,264,16,20,48,049,35,25,58,245,39,29,45,323,38*7B
$GPGSV,3,3,11,06,01,064,00,13,09,132,00,15,10,164,00*41
{"class":"SKY","gdop":2.61,"hdop":1.10,"pdop":1.40,"tdop":1.40,"xdop":0.75,"ydop":0.90,"vdop":0.90,"nSat":11,"uSat":8,"satellites":[{"PRN":2,"gnssid":0,"svid":2,"az":319.0,"el":60.0,"ss":36.0,"used":true},{"PRN":5,"gnssid":0,"svid":5,"az":132.0,"el":77.0,"ss":38.0,"used":true},{"PRN":11,"gnssid":0,"svid":11,"az":52.0,"el":29.0,"ss":29.0,"used":true},{"PRN":12,"gnssid":0,"svid":12,"az":186.0,"el":46.0,"ss":46.0,"used":true},{"PRN":18,"gnssid":0,"svid":18,"az":264.0,"el":19.0,"ss":16.0,"used":true},{"PRN":20,"gnssid":0,"svid":20,"az":49.0,"el":48.0,"ss":35.0,"used":true},{"PRN":25,"gnssid":0,"svid":25,"az":245.0,"el":58.0,"ss":39.0,"used":true},{"PRN":29,"gnssid":0,"svid":29,"az":323.0,"el":45.0,"ss":38.0,"used":true},{"PRN":6,"gnssid":0,"svid":6,"az":64.0,"el":1.0,"ss":0.0,"used":false},{"PRN":13,"gnssid":0,"svid":13,"az":132.0,"el":9.0,"ss":0.0,"used":false},{"PRN":15,"gnssid":0,"svid":15,"az":164.0,"el":10.0,"ss":0.0,"used":false}]}
$PGRME,7.6,M,41.7,M,42.4,M*2F
$PGRMV,-2.5,-1.1,0.3*58
$GPRMC,113259,A,3238.9145,N,10822.4482,W,005.0,246.3,181022,009.3,E*6D
$GPGGA,113259,3238.9145,N,10822.4482,W,2,08,1.1,1577.9,M,-24.6,M,,*46
{"class":"TPV","status":2,"mode":3,"time":"2022-10-18T11:32:59.000Z","ept":0.005,"lat":32.648575000,"lon":-108.374136667,"altHAE":1553.3000,"altMSL":1577.9000,"alt":1577.9000,"track":246.3000,"magtrack":255.6000,"magvar":9.3,"speed":2.572,"climb":0.500,"geoidSep":-24.600,"eph":5.225}
{"class":"SKY","hdop":1.10,"uSat":8}
$GPGSA,A,3,02,05,11,12,18,20,25,29,,,,,1.4,1.1,0.9*3D
{"class":"TPV","status":2,"mode":3,"time":"2022-10-18T11:32:59.000Z","ept":0.005,"lat":32.648575000,"lon":-108.374136667,"altHAE":1553.3000,"altMSL":1577.9000,"alt":1577.9000,"epv":5.175,"track":246.3000,"magtrack":255.6000,"magvar":9.3,"speed":2.572,"climb":0.500,"epc":91.76,"geoidSep":-24.600,"eph":5.225,"sep":6.650}
{"class":"SKY","hdop":1.10,"pdop":1.40,"vdop":0.90,"uSat":8}
$GPGSV,3,1,11,02,60,319,38,05,77,132,38,11,29,052,29,12,46,186,46*7A
$GPGSV,3,2,11,18,19,264,16,20,48,049,36,25,58,245,37,29,45,323,39*77
$GPGSV,3,3,11,06,01,064,00,13,09,132,00,15,10,164,00*41
{"class":"TPV","status":2,"mode":3,"time":"2022-10-18T11:32:59.000Z","ept":0.005,"lat":32.648575000,"lon":-108.374136667,"altHAE":1553.3000,"altMSL":1577.9000,"alt":1577.9000,"epx":2.827,"epy":3.368,"epv":5.175,"track":246.3000,"magtrack":255.6000,"magvar":9.3,"speed":2.572,"climb":0.500,"eps":6.74,"epc":91.76,"geoidSep":-24.600,"eph":5.225,"sep":6.650}
{"class":"SKY","gdop":2.61,"hdop":1.10,"pdop":1.40,"tdop":1.40,"xdop":0.75,"ydop":0.90,"vdop":0.90,"nSat":11,"uSat":8,"satellites":[{"PRN":2,"gnssid":0,"svid":2,"az":319.0,"el":60.0,"ss":38.0,"used":true},{"PRN":5,"gnssid":0,"svid":5,"az":132.0,"el":77.0,"ss":38.0,"used":true},{"PRN":11,"gnssid":0,"svid":11,"az":52.0,"el":29.0,"ss":29.0,"used":true},{"PRN":12,"gnssid":0,"svid":12,"az":186.0,"el":46.0,"ss":46.0,"used":true},{"PRN":18,"gnssid":0,"svid":18,"az":264.0,"el":19.0,"ss":16.0,"used":true},{"PRN":20,"gnssid":0,"svid":20,"az":49.0,"el":48.0,"ss":36.0,"used":true},{"PRN":25,"gnssid":0,"svid":25,"az":245.0,"el":58.0,"ss":37.0,"used":true},{"PRN":29,"gnssid":0,"svid":29,"az":323.0,"el":45.0,"ss":39.0,"used":true},{"PRN":6,"gnssid":0,"svid":6,"az":64.0,"el":1.0,"ss":0.0,"used":false},{"PRN":13,"gnssid":0,"svid":13,"az":132.0,"el":9.0,"ss":0.0,"used":false},{"PRN":15,"gnssid":0,"svid":15,"az":164.0,"el":10.0,"ss":0.0,"used":false}]}
$PGRME,7.6,M,41.9,M,42.6,M*23
{"class":"TPV","status":2,"mode":3,"time":"2022-10-18T11:32:59.000Z","ept":0.005,"lat":32.648575000,"lon":-108.374136667,"altHAE":1553.3000,"altMSL":1577.9000,"alt":1577.9000,"epx":11.158,"epy":11.158,"epv":86.996,"track":246.3000,"magtrack":255.6000,"magvar":9.3,"speed":2.572,"climb":0.500,"eps":14.53,"epc":173.58,"geoidSep":-24.600,"eph":5.225,"sep":88.449}
$PGRMV,-2.3,-1.0,0.3*5F
{"class":"TPV","status":2,"mode":3,"time":"2022-10-18T11:32:59.000Z","ept":0.005,"lat":32.648575000,"lon":-108.374136667,"altHAE":1553.3000,"altMSL":1577.9000,"alt":1577.9000,"epx":2.827,"epy":3.368,"epv":86.996,"track":246.3000,"magtrack":255.6000,"magvar":9.3,"speed":2.572,"climb":0.500,"eps":6.74,"epc":173.58,"velN":-1.000,"velE":-2.300,"velD":-0.300,"geoidSep":-24.600,"eph":5.225,"sep":88.449}
$GPRMC,113300,A,3238.9141,N,10822.4498,W,005.0,245.0,181022,009.3,E*6F
$GPGGA,113300,3238.9141,N,10822.4498,W,2,08,1.1,1578.4,M,-24.6,M,,*46
{"class":"TPV","status":2,"mode":3,"time":"2022-10-18T11:33:00.000Z","ept":0.005,"lat":32.648568333,"lon":-108.374163333,"altHAE":1553.8000,"altMSL":1578.4000,"alt":1578.4000,"track":245.0000,"magtrack":254.3000,"magvar":9.3,"speed":2.572,"climb":0.500,"geoidSep":-24.600,"eph":5.225}
{"class":"SKY","hdop":1.10,"uSat":8}
$GPGSA,A,3,02,05,11,12,18,20,25,29,,,,,1.4,1.1,0.9*3D
{"class":"TPV","status":2,"mode":3,"time":"2022-10-18T11:33:00.000Z","ept":0.005,"lat":32.648568333,"lon":-108.374163333,"altHAE":1553.8000,"altMSL":1578.4000,"alt":1578.4000,"epv":5.175,"track":245.0000,"magtrack":254.3000,"magvar":9.3,"speed":2.572,"climb":0.500,"epc":92.17,"geoidSep":-24.600,"eph":5.225,"sep":6.650}
{"class":"SKY","hdop":1.10,"pdop":1.40,"vdop":0.90,"uSat":8}
$GPGSV,3,1,11,02,60,319,38,05,77,132,37,11,29,052,29,12,46,186,47*74
$GPGSV,3,2,11,18,19,264,17,20,48,049,36,25,58,245,38,29,45,323,40*77
$GPGSV,3,3,11,06,01,064,00,13,09,132,00,15,10,164,00*41
{"class":"TPV","status":2,"mode":3,"time":"2022-10-18T11:33:00.000Z","ept":0.005,"lat":32.648568333,"lon":-108.374163333,"altHAE":1553.8000,"altMSL":1578.4000,"alt":1578.4000,"epx":2.827,"epy":3.368,"epv":5.175,"track":245.0000,"magtrack":254.3000,"magvar":9.3,"speed":2.572,"climb":0.500,"eps":6.74,"epc":92.17,"geoidSep":-24.600,"eph":5.225,"sep":6.650}
{"class":"SKY","gdop":2.61,"hdop":1.10,"pdop":1.40,"tdop":1.40,"xdop":0.75,"ydop":0.90,"vdop":0.90,"nSat":11,"uSat":8,"satellites":[{"PRN":2,"gnssid":0,"svid":2,"az":319.0,"el":60.0,"ss":38.0,"used":true},{"PRN":5,"gnssid":0,"svid":5,"az":132.0,"el":77.0,"ss":37.0,"used":true},{"PRN":11,"gnssid":0,"svid":11,"az":52.0,"el":29.0,"ss":29.0,"used":true},{"PRN":12,"gnssid":0,"svid":12,"az":186.0,"el":46.0,"ss":47.0,"used":true},{"PRN":18,"gnssid":0,"svid":18,"az":264.0,"el":19.0,"ss":17.0,"used":true},{"PRN":20,"gnssid":0,"svid":20,"az":49.0,"el":48.0,"ss":36.0,"used":true},{"PRN":25,"gnssid":0,"svid":25,"az":245.0,"el":58.0,"ss":38.0,"used":true},{"PRN":29,"gnssid":0,"svid":29,"az":323.0,"el":45.0,"ss":40.0,"used":true},{"PRN":6,"gnssid":0,"svid":6,"az":64.0,"el":1.0,"ss":0.0,"used":false},{"PRN":13,"gnssid":0,"svid":13,"az":132.0,"el":9.0,"ss":0.0,"used":false},{"PRN":15,"gnssid":0,"svid":15,"az":164.0,"el":10.0,"ss":0.0,"used":false}]}
$PGRME,7.7,M,42.2,M,42.9,M*25
{"class":"TPV","status":2,"mode":3,"time":"2022-10-18T11:33:00.000Z","ept":0.005,"lat":32.648568333,"lon":-108.374163333,"altHAE":1553.8000,"altMSL":1578.4000,"alt":1578.4000,"epx":11.305,"epy":11.305,"epv":87.619,"track":245.0000,"magtrack":254.3000,"magvar":9.3,"speed":2.572,"climb":0.500,"eps":14.67,"epc":174.61,"geoidSep":-24.600,"eph":5.225,"sep":89.072}
$PGRMV,-2.3,-1.1,0.3*5E
{"class":"TPV","status":2,"mode":3,"time":"2022-10-18T11:33:00.000Z","ept":0.005,"lat":32.648568333,"lon":-108.374163333,"altHAE":1553.8000,"altMSL":1578.4000,"alt":1578.4000,"epx":2.827,"epy":3.368,"epv":87.619,"track":245.0000,"magtrack":254.3000,"magvar":9.3,"speed":2.572,"climb":0.500,"eps":6.74,"epc":174.61,"velN":-1.100,"velE":-2.300,"velD":-0.300,"geoidSep":-24.600,"eph":5.225,"sep":89.072}
$PGRMT,GPS 15x-W software ver. 4.20,,,,,,,,*6A
$GPRMC,113301,A,3238.9136,N,10822.4514,W,004.7,243.6,181022,009.3,E*6D
$GPGGA,113301,3238.9136,N,10822.4514,W,2,08,1.1,1578.8,M,-24.6,M,,*4E
{"class":"TPV","status":2,"mode":3,"time":"2022-10-18T11:33:01.000Z","ept":0.005,"lat":32.648560000,"lon":-108.374190000,"altHAE":1554.2000,"altMSL":1578.8000,"alt":1578.8000,"track":243.6000,"magtrack":252.9000,"magvar":9.3,"speed":2.418,"climb":0.400,"geoidSep":-24.600,"eph":5.225}
{"class":"SKY","hdop":1.10,"uSat":8}
$GPGSA,A,3,02,05,11,12,18,20,25,29,,,,,1.4,1.1,0.9*3D
{"class":"TPV","status":2,"mode":3,"time":"2022-10-18T11:33:01.000Z","ept":0.005,"lat":32.648560000,"lon":-108.374190000,"altHAE":1554.2000,"altMSL":1578.8000,"alt":1578.8000,"epv":5.175,"track":243.6000,"magtrack":252.9000,"magvar":9.3,"speed":2.418,"climb":0.400,"epc":92.79,"geoidSep":-24.600,"eph":5.225,"sep":6.650}
{"class":"SKY","hdop":1.10,"pdop":1.40,"vdop":0.90,"uSat":8}
$GPGSV,3,1,11,02,60,319,39,05,77,132,36,11,29,052,29,12,46,186,46*75
$GPGSV,3,2,11,18,19,264,18,20,48,049,36,25,58,245,37,29,45,323,41*76
$GPGSV,3,3,11,06,01,064,00,13,09,132,00,15,10,164,00*41
{"class":"TPV","status":2,"mode":3,"time":"2022-10-18T11:33:01.000Z","ept":0.005,"lat":32.648560000,"lon":-108.374190000,"altHAE":1554.2000,"altMSL":1578.8000,"alt":1578.8000,"epx":2.827,"epy":3.368,"epv":5.175,"track":243.6000,"magtrack":252.9000,"magvar":9.3,"speed":2.418,"climb":0.400,"eps":6.74,"epc":92.79,"geoidSep":-24.600,"eph":5.225,"sep":6.650}
{"class":"SKY","gdop":2.61,"hdop":1.10,"pdop":1.40,"tdop":1.40,"xdop":0.75,"ydop":0.90,"vdop":0.90,"nSat":11,"uSat":8,"satellites":[{"PRN":2,"gnssid":0,"svid":2,"az":319.0,"el":60.0,"ss":39.0,"used":true},{"PRN":5,"gnssid":0,"svid":5,"az":132.0,"el":77.0,"ss":36.0,"used":true},{"PRN":11,"gnssid":0,"svid":11,"az":52.0,"el":29.0,"ss":29.0,"used":true},{"PRN":12,"gnssid":0,"svid":12,"az":186.0,"el":46.0,"ss":46.0,"used":true},{"PRN":18,"gnssid":0,"svid":18,"az":264.0,"el":19.0,"ss":18.0,"used":true},{"PRN":20,"gnssid":0,"svid":20,"az":49.0,"el":48.0,"ss":36.0,"used":true},{"PRN":25,"gnssid":0,"svid":25,"az":245.0,"el":58.0,"ss":37.0,"used":true},{"PRN":29,"gnssid":0,"svid":29,"az":323.0,"el":45.0,"ss":41.0,"used":true},{"PRN":6,"gnssid":0,"svid":6,"az":64.0,"el":1.0,"ss":0.0,"used":false},{"PRN":13,"gnssid":0,"svid":13,"az":132.0,"el":9.0,"ss":0.0,"used":false},{"PRN":15,"gnssid":0,"svid":15,"az":164.0,"el":10.0,"ss":0.0,"used":false}]}
$PGRME,7.7,M,42.5,M,43.2,M*28
{"class":"TPV","status":2,"mode":3,"time":"2022-10-18T11:33:01.000Z","ept":0.005,"lat":32.648560000,"lon":-108.374190000,"altHAE":1554.2000,"altMSL":1578.8000,"alt":1578.8000,"epx":11.305,"epy":11.305,"epv":88.242,"track":243.6000,"magtrack":252.9000,"magvar":9.3,"speed":2.418,"climb":0.400,"eps":14.67,"epc":175.86,"geoidSep":-24.600,"eph":5.225,"sep":89.695}
$PGRMV,-2.2,-1.1,0.3*5F
{"class":"TPV","status":2,"mode":3,"time":"2022-10-18T11:33:01.000Z","ept":0.005,"lat":32.648560000,"lon":-108.374190000,"altHAE":1554.2000,"altMSL":1578.8000,"alt":1578.8000,"epx":2.827,"epy":3.368,"epv":88.242,"track":243.6000,"magtrack":252.9000,"magvar":9.3,"speed":2.418,"climb":0.400,"eps":6.74,"epc":175.86,"velN":-1.100,"velE":-2.200,"velD":-0.300,"geoidSep":-24.600,"eph":5.225,"sep":89.695}
$GPRMC,113302,A,3238.9133,N,10822.4528,W,004.1,243.0,181022,009.3,E*64
$GPGGA,113302,3238.9133,N,10822.4528,W,2,08,1.1,1579.0,M,-24.6,M,,*4E
{"class":"TPV","status":2,"mode":3,"time":"2022-10-18T11:33:02.000Z","ept":0.005,"lat":32.648555000,"lon":-108.374213333,"altHAE":1554.4000,"altMSL":1579.0000,"alt":1579.0000,"track":243.0000,"magtrack":252.3000,"magvar":9.3,"speed":2.109,"climb":0.200,"geoidSep":-24.600,"eph":5.225}
{"class":"SKY","hdop":1.10,"uSat":8}
$GPGSA,A,3,02,05,11,12,18,20,25,29,,,,,1.4,1.1,0.9*3D
{"class":"TPV","status":2,"mode":3,"time":"2022-10-18T11:33:02.000Z","ept":0.005,"lat":32.648555000,"lon":-108.374213333,"altHAE":1554.4000,"altMSL":1579.0000,"alt":1579.0000,"epv":5.175,"track":243.0000,"magtrack":252.3000,"magvar":9.3,"speed":2.109,"climb":0.200,"epc":93.42,"geoidSep":-24.600,"eph":5.225,"sep":6.650}
{"class":"SKY","hdop":1.10,"pdop":1.40,"vdop":0.90,"uSat":8}
$GPGSV,3,1,11,02,60,319,40,05,77,132,34,11,29,052,29,12,46,186,46*79
$GPGSV,3,2,11,18,19,264,18,20,48,049,37,25,58,245,35,29,45,323,42*76
$GPGSV,3,3,11,06,01,064,00,13,09,132,00,15,10,164,00*41
{"class":"TPV","status":2,"mode":3,"time":"2022-10-18T11:33:02.000Z","ept":0.005,"lat":32.648555000,"lon":-108.374213333,"altHAE":1554.4000,"altMSL":1579.0000,"alt":1579.0000,"epx":2.827,"epy":3.368,"epv":5.175,"track":243.0000,"magtrack":252.3000,"magvar":9.3,"speed":2.109,"climb":0.200,"eps":6.74,"epc":93.42,"geoidSep":-24.600,"eph":5.225,"sep":6.650}
{"class":"SKY","gdop":2.61,"hdop":1.10,"pdop":1.40,"tdop":1.40,"xdop":0.75,"ydop":0.90,"vdop":0.90,"nSat":11,"uSat":8,"satellites":[{"PRN":2,"gnssid":0,"svid":2,"az":319.0,"el":60.0,"ss":40.0,"used":true},{"PRN":5,"gnssid":0,"svid":5,"az":132.0,"el":77.0,"ss":34.0,"used":true},{"PRN":11,"gnssid":0,"svid":11,"az":52.0,"el":29.0,"ss":29.0,"used":true},{"PRN":12,"gnssid":0,"svid":12,"az":186.0,"el":46.0,"ss":46.0,"used":true},{"PRN":18,"gnssid":0,"svid":18,"az":264.0,"el":19.0,"ss":18.0,"used":true},{"PRN":20,"gnssid":0,"svid":20,"az":49.0,"el":48.0,"ss":37.0,"used":true},{"PRN":25,"gnssid":0,"svid":25,"az":245.0,"el":58.0,"ss":35.0,"used":true},{"PRN":29,"gnssid":0,"svid":29,"az":323.0,"el":45.0,"ss":42.0,"used":true},{"PRN":6,"gnssid":0,"svid":6,"az":64.0,"el":1.0,"ss":0.0,"used":false},{"PRN":13,"gnssid":0,"svid":13,"az":132.0,"el":9.0,"ss":0.0,"used":false},{"PRN":15,"gnssid":0,"svid":15,"az":164.0,"el":10.0,"ss":0.0,"used":false}]}
$PGRME,7.7,M,42.8,M,43.5,M*22
{"class":"TPV","status":2,"mode":3,"time":"2022-10-18T11:33:02.000Z","ept":0.005,"lat":32.648555000,"lon":-108.374213333,"altHAE":1554.4000,"altMSL":1579.0000,"alt":1579.0000,"epx":11.305,"epy":11.305,"epv":88.864,"track":243.0000,"magtrack":252.3000,"magvar":9.3,"speed":2.109,"climb":0.200,"eps":14.67,"epc":177.11,"geoidSep":-24.600,"eph":5.225,"sep":90.318}
$PGRMV,-1.9,-1.0,0.4*51
{"class":"TPV","status":2,"mode":3,"time":"2022-10-18T11:33:02.000Z","ept":0.005,"lat":32.648555000,"lon":-108.374213333,"altHAE":1554.4000,"altMSL":1579.0000,"alt":1579.0000,"epx":2.827,"epy":3.368,"epv":88.864,"track":243.0000,"magtrack":252.3000,"magvar":9.3,"speed":2.109,"climb":0.200,"eps":6.74,"epc":177.11,"velN":-1.000,"velE":-1.900,"velD":-0.400,"geoidSep":-24.600,"eph":5.225,"sep":90.318}
$GPRMC,113303,A,3238.9128,N,10822.4543,W,004.6,243.3,181022,009.3,E*66
$GPGGA,113303,3238.9128,N,10822.4543,W,2,08,1.1,1579.1,M,-24.6,M,,*49
{"class":"TPV","status":2,"mode":3,"time":"2022-10-18T11:33:03.000Z","ept":0.005,"lat":32.648546667,"lon":-108.374238333,"altHAE":1554.5000,"altMSL":1579.1000,"alt":1579.1000,"track":243.3000,"magtrack":252.6000,"magvar":9.3,"speed":2.366,"climb":0.100,"geoidSep":-24.600,"eph":5.225}
{"class":"SKY","hdop":1.10,"uSat":8}
$GPGSA,A,3,02,05,11,12,18,20,25,29,,,,,1.4,1.1,0.9*3D
{"class":"TPV","status":2,"mode":3,"time":"2022-10-18T11:33:03.000Z","ept":0.005,"lat":32.648546667,"lon":-108.374238333,"altHAE":1554.5000,"altMSL":1579.1000,"alt":1579.1000,"epv":5.175,"track":243.3000,"magtrack":252.6000,"magvar":9.3,"speed":2.366,"climb":0.100,"epc":94.04,"geoidSep":-24.600,"eph":5.225,"sep":6.650}
{"class":"SKY","hdop":1.10,"pdop":1.40,"vdop":0.90,"uSat":8}
$GPGSV,3,1,11,02,60,319,38,05,77,132,35,11,29,052,31,12,46,186,46*7E
$GPGSV,3,2,11,18,19,264,19,20,48,049,29,25,58,245,35,29,45,323,41*7B
$GPGSV,3,3,11,06,01,064,00,13,09,132,00,15,10,164,00*41
{"class":"TPV","status":2,"mode":3,"time":"2022-10-18T11:33:03.000Z","ept":0.005,"lat":32.648546667,"lon":-108.374238333,"altHAE":1554.5000,"altMSL":1579.1000,"alt":1579.1000,"epx":2.827,"epy":3.368,"epv":5.175,"track":243.3000,"magtrack":252.6000,"magvar":9.3,"speed":2.366,"climb":0.100,"eps":6.74,"epc":94.04,"geoidSep":-24.600,"eph":5.225,"sep":6.650}
{"class":"SKY","gdop":2.61,"hdop":1.10,"pdop":1.40,"tdop":1.40,"xdop":0.75,"ydop":0.90,"vdop":0.90,"nSat":11,"uSat":8,"satellites":[{"PRN":2,"gnssid":0,"svid":2,"az":319.0,"el":60.0,"ss":38.0,"used":true},{"PRN":5,"gnssid":0,"svid":5,"az":132.0,"el":77.0,"ss":35.0,"used":true},{"PRN":11,"gnssid":0,"svid":11,"az":52.0,"el":29.0,"ss":31.0,"used":true},{"PRN":12,"gnssid":0,"svid":12,"az":186.0,"el":46.0,"ss":46.0,"used":true},{"PRN":18,"gnssid":0,"svid":18,"az":264.0,"el":19.0,"ss":19.0,"used":true},{"PRN":20,"gnssid":0,"svid":20,"az":49.0,"el":48.0,"ss":29.0,"used":true},{"PRN":25,"gnssid":0,"svid":25,"az":245.0,"el":58.0,"ss":35.0,"used":true},{"PRN":29,"gnssid":0,"svid":29,"az":323.0,"el":45.0,"ss":41.0,"used":true},{"PRN":6,"gnssid":0,"svid":6,"az":64.0,"el":1.0,"ss":0.0,"used":false},{"PRN":13,"gnssid":0,"svid":13,"az":132.0,"el":9.0,"ss":0.0,"used":false},{"PRN":15,"gnssid":0,"svid":15,"az":164.0,"el":10.0,"ss":0.0,"used":false}]}
$PGRME,7.7,M,43.0,M,43.7,M*29
{"class":"TPV","status":2,"mode":3,"time":"2022-10-18T11:33:03.000Z","ept":0.005,"lat":32.648546667,"lon":-108.374238333,"altHAE":1554.5000,"altMSL":1579.1000,"alt":1579.1000,"epx":11.305,"epy":11.305,"epv":89.280,"track":243.3000,"magtrack":252.6000,"magvar":9.3,"speed":2.366,"climb":0.100,"eps":14.67,"epc":178.14,"geoidSep":-24.600,"eph":5.225,"sep":90.733}
$PGRMV,-2.1,-1.1,0.3*5C
{"class":"TPV","status":2,"mode":3,"time":"2022-10-18T11:33:03.000Z","ept":0.005,"lat":32.648546667,"lon":-108.374238333,"altHAE":1554.5000,"altMSL":1579.1000,"alt":1579.1000,"epx":2.827,"epy":3.368,"epv":89.280,"track":243.3000,"magtrack":252.6000,"magvar":9.3,"speed":2.366,"climb":0.100,"eps":6.74,"epc":178.14,"velN":-1.100,"velE":-2.100,"velD":-0.300,"geoidSep":-24.600,"eph":5.225,"sep":90.733}
$GPRMC,113304,A,3238.9123,N,10822.4560,W,004.6,244.3,181022,009.3,E*6C
$GPGGA,113304,3238.9123,N,10822.4560,W,2,08,1.1,1579.2,M,-24.6,M,,*47
{"class":"TPV","status":2,"mode":3,"time":"2022-10-18T11:33:04.000Z","ept":0.005,"lat":32.648538333,"lon":-108.374266667,"altHAE":1554.6000,"altMSL":1579.2000,"alt":1579.2000,"track":244.3000,"magtrack":253.6000,"magvar":9.3,"speed":2.366,"climb":0.100,"geoidSep":-24.600,"eph":5.225}
{"class":"SKY","hdop":1.10,"uSat":8}
$GPGSA,A,3,02,05,11,12,18,20,25,29,,,,,1.4,1.1,0.9*3D
{"class":"TPV","status":2,"mode":3,"time":"2022-10-18T11:33:04.000Z","ept":0.005,"lat":32.648538333,"lon":-108.374266667,"altHAE":1554.6000,"altMSL":1579.2000,"alt":1579.2000,"epv":5.175,"track":244.3000,"magtrack":253.6000,"magvar":9.3,"speed":2.366,"climb":0.100,"epc":94.45,"geoidSep":-24.600,"eph":5.225,"sep":6.650}
{"class":"SKY","hdop":1.10,"pdop":1.40,"vdop":0.90,"uSat":8}
$GPGSV,3,1,11,02,60,319,37,05,77,132,37,11,29,052,33,12,46,186,46*71
$GPGSV,3,2,11,18,19,264,19,20,48,049,36,25,58,245,35,29,45,323,39*7A
$GPGSV,3,3,11,06,01,064,00,13,09,132,00,15,10,164,00*41
{"class":"TPV","status":2,"mode":3,"time":"2022-10-18T11:33:04.000Z","ept":0.005,"lat":32.648538333,"lon":-108.374266667,"altHAE":1554.6000,"altMSL":1579.2000,"alt":1579.2000,"epx":2.827,"epy":3.368,"epv":5.175,"track":244.3000,"magtrack":253.6000,"magvar":9.3,"speed":2.366,"climb":0.100,"eps":6.74,"epc":94.45,"geoidSep":-24.600,"eph":5.225,"sep":6.650}
{"class":"SKY","gdop":2.61,"hdop":1.10,"pdop":1.40,"tdop":1.40,"xdop":0.75,"ydop":0.90,"vdop":0.90,"nSat":11,"uSat":8,"satellites":[{"PRN":2,"gnssid":0,"svid":2,"az":319.0,"el":60.0,"ss":37.0,"used":true},{"PRN":5,"gnssid":0,"svid":5,"az":132.0,"el":77.0,"ss":37.0,"used":true},{"PRN":11,"gnssid":0,"svid":11,"az":52.0,"el":29.0,"ss":33.0,"used":true},{"PRN":12,"gnssid":0,"svid":12,"az":186.0,"el":46.0,"ss":46.0,"used":true},{"PRN":18,"gnssid":0,"svid":18,"az":264.0,"el":19.0,"ss":19.0,"used":true},{"PRN":20,"gnssid":0,"svid":20,"az":49.0,"el":48.0,"ss":36.0,"used":true},{"PRN":25,"gnssid":0,"svid":25,"az":245.0,"el":58.0,"ss":35.0,"used":true},{"PRN":29,"gnssid":0,"svid":29,"az":323.0,"el":45.0,"ss":39.0,"used":true},{"PRN":6,"gnssid":0,"svid":6,"az":64.0,"el":1.0,"ss":0.0,"used":false},{"PRN":13,"gnssid":0,"svid":13,"az":132.0,"el":9.0,"ss":0.0,"used":false},{"PRN":15,"gnssid":0,"svid":15,"az":164.0,"el":10.0,"ss":0.0,"used":false}]}
$PGRME,7.7,M,43.1,M,43.8,M*27
{"class":"TPV","status":2,"mode":3,"time":"2022-10-18T11:33:04.000Z","ept":0.005,"lat":32.648538333,"lon":-108.374266667,"altHAE":1554.6000,"altMSL":1579.2000,"alt":1579.2000,"epx":11.305,"epy":11.305,"epv":89.487,"track":244.3000,"magtrack":253.6000,"magvar":9.3,"speed":2.366,"climb":0.100,"eps":14.67,"epc":178.77,"geoidSep":-24.600,"eph":5.225,"sep":90.941}
$PGRMV,-2.2,-1.0,0.3*5E
{"class":"TPV","status":2,"mode":3,"time":"2022-10-18T11:33:04.000Z","ept":0.005,"lat":32.648538333,"lon":-108.374266667,"altHAE":1554.6000,"altMSL":1579.2000,"alt":1579.2000,"epx":2.827,"epy":3.368,"epv":89.487,"track":244.3000,"magtrack":253.6000,"magvar":9.3,"speed":2.366,"climb":0.100,"eps":6.74,"epc":178.77,"velN":-1.000,"velE":-2.200,"velD":-0.300,"geoidSep":-24.600,"eph":5.225,"sep":90.941}
