$PGLOR,1,SPS,280930179,0,-1,0,0,12,,*37
$PGLOR,1,SPS,280930180,40,-1,0,0,6,,*30
$PGLOR,1,SPS,280930180,40,-1,0,0,1,GlSupl10StateWait4ConnectionSI,*43
$PGLOR,SPL,20200201160144.0,STATUS,2*34
$PGLOR,SPL,20200201160144.0,STATUS,3*35
$PGLOR,SPL,20200201160144.0,STATUS,4*32
$GPGGA,000145.00,4404.126998,N,12118.844143,W,1,15,0.4,1133.4,M,-20.1,M,,*68
{"class":"TPV","mode":3,"lat":44.068783300,"lon":-121.314069050,"altHAE":1113.3000,"altMSL":1133.4000,"alt":1133.4000,"magvar":14.4,"geoidSep":-20.100,"eph":7.600}
$PGLOR,9,STA,000145.00,-0.001,0.000,211,1,4,0,P,F,L,0,C,3,S,00000002,0,5,R,000833F4,TPEF,16,89374,LC,,,*64
$PGLOR,1,UNC,000145.00,0.011,4.0,3.0,0.11,71.74,4.0,4.0,0.0*1F
$PGLOR,2,SAT,3,1,G28,24,1F,G30,33,0B,R11,23,17,G13,33,17,R20,30,1F,G17,41,1F*3B
$PGLOR,2,SAT,3,2,R21,26,1F,G07,36,1B,G15,29,1B,G11,37,1F,R01,27,1F,G19,20,1F*33
$PGLOR,2,SAT,3,3,G01,21,17,G08,08,00,R09,27,1F,R08,29,1F,R12,,00*44
$PGLOR,1,SVC,GPS,3,1,10,013,UNKN,UNKN,017,UNKN,UNKN,028,UNKN,UNKN,030,UNKN,UNKN*7B
$PGLOR,1,SVC,GPS,3,2,10,007,UNKN,UNKN,011,UNKN,UNKN,015,UNKN,UNKN,019,UNKN,UNKN*7E
$PGLOR,1,SVC,GPS,3,3,10,001,UNKN,UNKN,008,CLIN,CLIN*7D
$PGLOR,1,SVC,GLO,2,1,07,059,UNKN,UNKN,060,UNKN,UNKN,061,UNKN,UNKN,063,UNKN,UNKN*79
$PGLOR,1,SVC,GLO,2,2,07,057,UNKN,UNKN,058,UNKN,UNKN,065,CLIN,CLIN*62
$PGLOR,2,SIO,TxERR,0,RxERR,0,TxCNT,433,RxCNT,4316,MLFRMPKT,0,DTMS,957,DTIN,45,55,DTOUT,470,904,HATMD,40*11
$PGLOR,0,LSQ,000145.00,,,,,,,,,,,,,,,,00*3A
$PGLOR,2,AGC,G,-18.3,R,-24.8,B,60.1,E5A,,E5B,,L2,,RSV,*51
$GPGSV,3,1,10,28,78,315,33,30,68,108,38,13,52,282,45,17,42,181,46*71
$GPGSV,3,2,10,07,34,116,42,15,27,306,36,11,27,064,42,19,19,193,32*73
$GPGSV,3,3,10,01,18,090,33,08,09,039,15*76
{"class":"SKY","hdop":0.40,"nSat":10,"uSat":0,"satellites":[{"PRN":28,"el":78.0,"az":315.0,"ss":33.0,"used":false,"gnssid":0,"svid":28},{"PRN":30,"el":68.0,"az":108.0,"ss":38.0,"used":false,"gnssid":0,"svid":30},{"PRN":13,"el":52.0,"az":282.0,"ss":45.0,"used":false,"gnssid":0,"svid":13},{"PRN":17,"el":42.0,"az":181.0,"ss":46.0,"used":false,"gnssid":0,"svid":17},{"PRN":7,"el":34.0,"az":116.0,"ss":42.0,"used":false,"gnssid":0,"svid":7},{"PRN":15,"el":27.0,"az":306.0,"ss":36.0,"used":false,"gnssid":0,"svid":15},{"PRN":11,"el":27.0,"az":64.0,"ss":42.0,"used":false,"gnssid":0,"svid":11},{"PRN":19,"el":19.0,"az":193.0,"ss":32.0,"used":false,"gnssid":0,"svid":19},{"PRN":1,"el":18.0,"az":90.0,"ss":33.0,"used":false,"gnssid":0,"svid":1},{"PRN":8,"el":9.0,"az":39.0,"ss":15.0,"used":false,"gnssid":0,"svid":8}]}
$GLGSV,2,1,07,75,58,331,35,84,42,060,35,85,37,140,31,65,26,244,34*6F
$GLGSV,2,2,07,73,06,091,33,72,05,207,39,76,17,291,*5A
{"class":"SKY","hdop":0.40,"nSat":17,"uSat":0,"satellites":[{"PRN":28,"el":78.0,"az":315.0,"ss":33.0,"used":false,"gnssid":0,"svid":28},{"PRN":30,"el":68.0,"az":108.0,"ss":38.0,"used":false,"gnssid":0,"svid":30},{"PRN":13,"el":52.0,"az":282.0,"ss":45.0,"used":false,"gnssid":0,"svid":13},{"PRN":17,"el":42.0,"az":181.0,"ss":46.0,"used":false,"gnssid":0,"svid":17},{"PRN":7,"el":34.0,"az":116.0,"ss":42.0,"used":false,"gnssid":0,"svid":7},{"PRN":15,"el":27.0,"az":306.0,"ss":36.0,"used":false,"gnssid":0,"svid":15},{"PRN":11,"el":27.0,"az":64.0,"ss":42.0,"used":false,"gnssid":0,"svid":11},{"PRN":19,"el":19.0,"az":193.0,"ss":32.0,"used":false,"gnssid":0,"svid":19},{"PRN":1,"el":18.0,"az":90.0,"ss":33.0,"used":false,"gnssid":0,"svid":1},{"PRN":8,"el":9.0,"az":39.0,"ss":15.0,"used":false,"gnssid":0,"svid":8},{"PRN":75,"el":58.0,"az":331.0,"ss":35.0,"used":false,"gnssid":6,"svid":11},{"PRN":84,"el":42.0,"az":60.0,"ss":35.0,"used":false,"gnssid":6,"svid":20},{"PRN":85,"el":37.0,"az":140.0,"ss":31.0,"used":false,"gnssid":6,"svid":21},{"PRN":65,"el":26.0,"az":244.0,"ss":34.0,"used":false,"gnssid":6,"svid":1},{"PRN":73,"el":6.0,"az":91.0,"ss":33.0,"used":false,"gnssid":6,"svid":9},{"PRN":72,"el":5.0,"az":207.0,"ss":39.0,"used":false,"gnssid":6,"svid":8},{"PRN":76,"el":17.0,"az":291.0,"ss":0.0,"used":false,"gnssid":6,"svid":12}]}
$GPGSA,A,3,01,07,11,13,15,17,19,28,30,,,,1.7,1.0,1.4*37
{"class":"TPV","mode":3,"lat":44.068783300,"lon":-121.314069050,"altHAE":1113.3000,"altMSL":1133.4000,"alt":1133.4000,"epv":32.200,"magvar":14.4,"geoidSep":-20.100,"eph":7.600,"sep":32.300}
$GNGSA,A,3,01,07,11,13,15,17,19,28,30,,,,1.7,1.0,1.4*29
{"class":"TPV","mode":3,"lat":44.068783300,"lon":-121.314069050,"altHAE":1113.3000,"altMSL":1133.4000,"alt":1133.4000,"epv":32.200,"magvar":14.4,"geoidSep":-20.100,"eph":7.600,"sep":32.300}
$GNGSA,A,3,65,72,73,75,84,85,,,,,,,1.7,1.0,1.4*2F
{"class":"TPV","mode":3,"lat":44.068783300,"lon":-121.314069050,"altHAE":1113.3000,"altMSL":1133.4000,"alt":1133.4000,"epv":32.200,"magvar":14.4,"geoidSep":-20.100,"eph":7.600,"sep":32.300}
$QZGSA,A,3,,,,,,,,,,,,,1.7,1.0,1.4*2C
{"class":"TPV","mode":3,"lat":44.068783300,"lon":-121.314069050,"altHAE":1113.3000,"altMSL":1133.4000,"alt":1133.4000,"epv":32.200,"magvar":14.4,"geoidSep":-20.100,"eph":7.600,"sep":32.300}
$BDGSA,A,3,,,,,,,,,,,,,1.7,1.0,1.4*21
{"class":"TPV","mode":3,"lat":44.068783300,"lon":-121.314069050,"altHAE":1113.3000,"altMSL":1133.4000,"alt":1133.4000,"epv":32.200,"magvar":14.4,"geoidSep":-20.100,"eph":7.600,"sep":32.300}
$PGLOR,1,FIX,1.0,1.0*20
$GPRMC,000145.00,A,4404.126998,N,12118.844143,W,000.0,,020220,,,A*6C
{"class":"TPV","mode":3,"time":"2020-02-02T00:01:45.000Z","ept":0.005,"lat":44.068783300,"lon":-121.314069050,"altHAE":1113.3000,"altMSL":1133.4000,"alt":1133.4000,"epv":32.200,"magvar":14.4,"speed":0.000,"geoidSep":-20.100,"eph":7.600,"sep":32.300}
$PGLOR,SPL,20200201160144.1,POS,20200202000145.000,44.068783,-121.314069,4,4,0,1113,3,1.100000*4A
$GPGGA,000146.00,4404.126998,N,12118.844143,W,1,15,0.4,1133.4,M,-20.1,M,,*6B
$PGLOR,9,STA,000146.00,-0.001,0.000,212,1,4,0,P,F,L,0,C,3,S,00000002,0,5,R,000833F4,TPEF,16,90374,LC,,,*6C
$PGLOR,1,UNC,000146.00,0.011,4.0,3.0,0.11,67.69,4.0,4.0,0.0*17
$PGLOR,2,SAT,3,1,G28,21,17,G30,34,0B,R11,25,13,G13,34,1F,R20,30,1F,G17,41,1F*3C
$PGLOR,2,SAT,3,2,R21,28,1F,G07,34,1F,G15,28,1B,G11,37,1F,R01,27,1F,G19,22,1F*38
$PGLOR,2,SAT,3,3,G01,18,17,G08,09,00,R09,28,1F,R08,28,1F,R12,,00*41
$PGLOR,1,SVC,GPS,3,1,10,013,UNKN,UNKN,017,UNKN,UNKN,028,UNKN,UNKN,030,UNKN,UNKN*7B
$PGLOR,1,SVC,GPS,3,2,10,007,UNKN,UNKN,011,UNKN,UNKN,015,UNKN,UNKN,019,UNKN,UNKN*7E
$PGLOR,1,SVC,GPS,3,3,10,001,UNKN,UNKN,008,CLIN,CLIN*7D
$PGLOR,1,SVC,GLO,2,1,07,059,UNKN,UNKN,060,UNKN,UNKN,061,UNKN,UNKN,063,UNKN,UNKN*79
$PGLOR,1,SVC,GLO,2,2,07,057,UNKN,UNKN,058,UNKN,UNKN,065,CLIN,CLIN*62
$PGLOR,2,SIO,TxERR,0,RxERR,0,TxCNT,469,RxCNT,4336,MLFRMPKT,0,DTMS,1007,DTIN,28,53,DTOUT,810,952,HATMD,47*22
$PGLOR,0,LSQ,000146.00,,,,,,,,,,,,,,,,00*39
$PGLOR,2,AGC,G,-18.1,R,-24.7,B,60.1,E5A,,E5B,,L2,,RSV,*5C
$GPGSV,3,1,10,28,78,315,32,30,68,108,39,13,52,282,44,17,42,181,46*70
$GPGSV,3,2,10,07,34,116,42,15,27,306,36,11,27,064,42,19,19,193,32*73
$GPGSV,3,3,10,01,18,090,32,08,09,039,15*77
$GLGSV,2,1,07,75,58,331,34,84,42,060,35,85,37,140,33,65,26,244,34*6C
$GLGSV,2,2,07,73,06,091,33,72,05,207,38,76,17,291,*5B
{"class":"SKY","xdop":0.44,"ydop":0.59,"vdop":1.40,"tdop":0.68,"hdop":0.40,"gdop":1.47,"pdop":1.70,"nSat":17,"uSat":15,"satellites":[{"PRN":28,"el":78.0,"az":315.0,"ss":32.0,"used":true,"gnssid":0,"svid":28},{"PRN":30,"el":68.0,"az":108.0,"ss":39.0,"used":true,"gnssid":0,"svid":30},{"PRN":13,"el":52.0,"az":282.0,"ss":44.0,"used":true,"gnssid":0,"svid":13},{"PRN":17,"el":42.0,"az":181.0,"ss":46.0,"used":true,"gnssid":0,"svid":17},{"PRN":7,"el":34.0,"az":116.0,"ss":42.0,"used":true,"gnssid":0,"svid":7},{"PRN":15,"el":27.0,"az":306.0,"ss":36.0,"used":true,"gnssid":0,"svid":15},{"PRN":11,"el":27.0,"az":64.0,"ss":42.0,"used":true,"gnssid":0,"svid":11},{"PRN":19,"el":19.0,"az":193.0,"ss":32.0,"used":true,"gnssid":0,"svid":19},{"PRN":1,"el":18.0,"az":90.0,"ss":32.0,"used":true,"gnssid":0,"svid":1},{"PRN":8,"el":9.0,"az":39.0,"ss":15.0,"used":false,"gnssid":0,"svid":8},{"PRN":75,"el":58.0,"az":331.0,"ss":34.0,"used":true,"gnssid":6,"svid":11},{"PRN":84,"el":42.0,"az":60.0,"ss":35.0,"used":true,"gnssid":6,"svid":20},{"PRN":85,"el":37.0,"az":140.0,"ss":33.0,"used":true,"gnssid":6,"svid":21},{"PRN":65,"el":26.0,"az":244.0,"ss":34.0,"used":true,"gnssid":6,"svid":1},{"PRN":73,"el":6.0,"az":91.0,"ss":33.0,"used":true,"gnssid":6,"svid":9},{"PRN":72,"el":5.0,"az":207.0,"ss":38.0,"used":true,"gnssid":6,"svid":8},{"PRN":76,"el":17.0,"az":291.0,"ss":0.0,"used":false,"gnssid":6,"svid":12}]}
$GPGSA,A,3,01,07,11,13,15,17,19,28,30,,,,1.6,1.0,1.3*31
$GNGSA,A,3,01,07,11,13,15,17,19,28,30,,,,1.6,1.0,1.3*2F
$GNGSA,A,3,65,72,73,75,84,85,,,,,,,1.6,1.0,1.3*29
$QZGSA,A,3,,,,,,,,,,,,,1.6,1.0,1.3*2A
$BDGSA,A,3,,,,,,,,,,,,,1.6,1.0,1.3*27
$PGLOR,1,FIX,1.0,1.0*20
$GPRMC,000146.00,A,4404.126998,N,12118.844143,W,000.0,,020220,,,A*6F
{"class":"TPV","mode":3,"time":"2020-02-02T00:01:46.000Z","ept":0.005,"lat":44.068783300,"lon":-121.314069050,"altHAE":1113.3000,"altMSL":1133.4000,"alt":1133.4000,"epx":6.547,"epy":8.860,"epv":32.200,"magvar":14.4,"speed":0.000,"climb":0.000,"epc":64.40,"geoidSep":-20.100,"eph":7.600,"sep":32.300}
$PGLOR,SPL,20200201160145.1,POS,20200202000146.000,44.068783,-121.314069,4,4,0,1113,3,1.100000*48
$PGLOR,1,SPS,280932181,40,-1,0,0,1,GlSupl10StateEndSession,*62
$PGLOR,1,SPS,280932181,40,-1,0,0,8,GlSupl10StateEndSession,*6B
$GPGGA,000147.00,4404.126998,N,12118.844143,W,1,15,0.4,1133.3,M,-20.1,M,,*6D
$PGLOR,9,STA,000147.00,-0.001,0.000,212,1,4,0,P,F,L,0,C,3,S,00000002,0,5,R,000833F4,TPEF,16,91374,LC,,,*6C
$PGLOR,1,UNC,000147.00,0.011,4.0,3.0,0.11,133.51,4.0,4.0,0.0*2D
$PGLOR,2,SAT,3,1,G28,24,1F,G30,33,0B,R11,22,13,G13,37,1F,R20,29,1F,G17,42,1F*40
$PGLOR,2,SAT,3,2,R21,25,1F,G07,39,1F,G15,28,1B,G11,36,1F,R01,28,1F,G19,19,17*4F
$PGLOR,2,SAT,3,3,G01,23,17,G08,11,00,R09,27,1F,R08,29,1F,R12,,00*4E
$PGLOR,1,SVC,GPS,3,1,10,013,UNKN,UNKN,017,UNKN,UNKN,028,UNKN,UNKN,030,UNKN,UNKN*7B
$PGLOR,1,SVC,GPS,3,2,10,007,UNKN,UNKN,011,UNKN,UNKN,015,UNKN,UNKN,019,UNKN,UNKN*7E
$PGLOR,1,SVC,GPS,3,3,10,001,UNKN,UNKN,008,CLIN,CLIN*7D
$PGLOR,1,SVC,GLO,2,1,07,059,UNKN,UNKN,060,UNKN,UNKN,061,UNKN,UNKN,063,UNKN,UNKN*79
$PGLOR,1,SVC,GLO,2,2,07,057,UNKN,UNKN,058,UNKN,UNKN,065,CLIN,CLIN*62
$PGLOR,2,SIO,TxERR,0,RxERR,0,TxCNT,432,RxCNT,4280,MLFRMPKT,0,DTMS,990,DTIN,45,63,DTOUT,809,929,HATMD,37*1D
$PGLOR,0,LSQ,000147.00,,,,,,,,,,,,,,,,00*38
$PGLOR,2,AGC,G,-18.4,R,-24.7,B,60.1,E5A,,E5B,,L2,,RSV,*59
$GPGSV,3,1,10,28,78,315,32,30,68,108,39,13,52,281,44,17,42,181,47*72
$GPGSV,3,2,10,07,34,116,44,15,27,306,36,11,27,064,42,19,20,193,31*7C
$GPGSV,3,3,10,01,18,090,31,08,09,039,16*77
$GLGSV,2,1,07,75,58,331,34,84,42,060,35,85,37,140,32,65,26,244,34*6D
$GLGSV,2,2,07,73,06,091,33,72,05,207,38,76,17,291,*5B
{"class":"SKY","xdop":0.44,"ydop":0.59,"vdop":1.30,"tdop":0.69,"hdop":0.40,"gdop":1.47,"pdop":1.60,"nSat":17,"uSat":15,"satellites":[{"PRN":28,"el":78.0,"az":315.0,"ss":32.0,"used":true,"gnssid":0,"svid":28},{"PRN":30,"el":68.0,"az":108.0,"ss":39.0,"used":true,"gnssid":0,"svid":30},{"PRN":13,"el":52.0,"az":281.0,"ss":44.0,"used":true,"gnssid":0,"svid":13},{"PRN":17,"el":42.0,"az":181.0,"ss":47.0,"used":true,"gnssid":0,"svid":17},{"PRN":7,"el":34.0,"az":116.0,"ss":44.0,"used":true,"gnssid":0,"svid":7},{"PRN":15,"el":27.0,"az":306.0,"ss":36.0,"used":true,"gnssid":0,"svid":15},{"PRN":11,"el":27.0,"az":64.0,"ss":42.0,"used":true,"gnssid":0,"svid":11},{"PRN":19,"el":20.0,"az":193.0,"ss":31.0,"used":true,"gnssid":0,"svid":19},{"PRN":1,"el":18.0,"az":90.0,"ss":31.0,"used":true,"gnssid":0,"svid":1},{"PRN":8,"el":9.0,"az":39.0,"ss":16.0,"used":false,"gnssid":0,"svid":8},{"PRN":75,"el":58.0,"az":331.0,"ss":34.0,"used":true,"gnssid":6,"svid":11},{"PRN":84,"el":42.0,"az":60.0,"ss":35.0,"used":true,"gnssid":6,"svid":20},{"PRN":85,"el":37.0,"az":140.0,"ss":32.0,"used":true,"gnssid":6,"svid":21},{"PRN":65,"el":26.0,"az":244.0,"ss":34.0,"used":true,"gnssid":6,"svid":1},{"PRN":73,"el":6.0,"az":91.0,"ss":33.0,"used":true,"gnssid":6,"svid":9},{"PRN":72,"el":5.0,"az":207.0,"ss":38.0,"used":true,"gnssid":6,"svid":8},{"PRN":76,"el":17.0,"az":291.0,"ss":0.0,"used":false,"gnssid":6,"svid":12}]}
$GPGSA,A,3,01,07,11,13,15,17,19,28,30,,,,1.6,1.0,1.3*31
$GNGSA,A,3,01,07,11,13,15,17,19,28,30,,,,1.6,1.0,1.3*2F
$GNGSA,A,3,65,72,73,75,84,85,,,,,,,1.6,1.0,1.3*29
$QZGSA,A,3,,,,,,,,,,,,,1.6,1.0,1.3*2A
$BDGSA,A,3,,,,,,,,,,,,,1.6,1.0,1.3*27
$PGLOR,1,FIX,1.0,1.0*20
$GPRMC,000147.00,A,4404.126998,N,12118.844143,W,000.0,,020220,,,A*6E
{"class":"TPV","mode":3,"time":"2020-02-02T00:01:47.000Z","ept":0.005,"lat":44.068783300,"lon":-121.314069050,"altHAE":1113.2000,"altMSL":1133.3000,"alt":1133.3000,"epx":6.550,"epy":8.856,"epv":29.900,"magvar":14.4,"speed":0.000,"climb":-0.100,"eps":17.72,"epc":62.10,"geoidSep":-20.100,"eph":7.600,"sep":30.400}
$PGLOR,SPL,20200201160146.0,POS,20200202000147.000,44.068783,-121.314069,4,4,0,1113,3,1.100000*4B
$GPGGA,000148.00,4404.126998,N,12118.844143,W,1,15,0.4,1133.2,M,-20.1,M,,*63
$PGLOR,9,STA,000148.00,-0.001,0.000,212,1,4,0,P,F,L,0,C,3,S,00000002,0,5,R,000833F4,TPEF,16,92374,LC,,,*60
$PGLOR,1,UNC,000148.00,0.011,4.0,3.0,0.11,149.77,4.0,4.0,0.0*2B
$PGLOR,2,SAT,3,1,G28,24,1F,G30,33,0B,R11,19,13,G13,37,1F,R20,29,1F,G17,43,1F*49
$PGLOR,2,SAT,3,2,R21,25,1F,G07,39,1F,G15,28,1B,G11,37,1F,R01,27,17,G19,15,17*3C
$PGLOR,2,SAT,3,3,G01,25,1F,G08,11,00,R09,26,1F,R08,30,1F,R12,,00*30
$PGLOR,1,SVC,GPS,3,1,10,013,UNKN,UNKN,017,UNKN,UNKN,028,UNKN,UNKN,030,UNKN,UNKN*7B
$PGLOR,1,SVC,GPS,3,2,10,007,UNKN,UNKN,011,UNKN,UNKN,015,UNKN,UNKN,019,UNKN,UNKN*7E
$PGLOR,1,SVC,GPS,3,3,10,001,UNKN,UNKN,008,CLIN,CLIN*7D
$PGLOR,1,SVC,GLO,2,1,07,059,UNKN,UNKN,060,UNKN,UNKN,061,UNKN,UNKN,063,UNKN,UNKN*79
$PGLOR,1,SVC,GLO,2,2,07,057,UNKN,UNKN,058,UNKN,UNKN,065,CLIN,CLIN*62
$PGLOR,1,GLO,+1,-8,-8,-8,-8,-8,+5,+6,-2,-5,+0,-1,-2,-7,+0,-1,+4,-8,-8,+2,+4,-8,-8,-8*31
$PGLOR,2,SIO,TxERR,0,RxERR,0,TxCNT,414,RxCNT,4358,MLFRMPKT,0,DTMS,1007,DTIN,31,55,DTOUT,413,950,HATMD,44*20
$PGLOR,0,LSQ,000148.00,,,,,,,,,,,,,,,,00*37
$PGLOR,2,AGC,G,-18.4,R,-24.7,B,60.1,E5A,,E5B,,L2,,RSV,*59
$GPGSV,3,1,10,28,78,315,31,30,68,108,39,13,52,281,44,17,42,181,48*7E
$GPGSV,3,2,10,07,34,116,44,15,27,306,35,11,27,064,42,19,20,193,30*7E
$GPGSV,3,3,10,01,18,090,31,08,09,039,16*77
$GLGSV,2,1,07,75,58,331,33,84,42,060,35,85,37,140,32,65,26,244,34*6A
$GLGSV,2,2,07,73,06,091,33,72,05,207,37,76,17,291,*54
{"class":"SKY","xdop":0.44,"ydop":0.59,"vdop":1.30,"tdop":0.69,"hdop":0.40,"gdop":1.47,"pdop":1.60,"nSat":17,"uSat":15,"satellites":[{"PRN":28,"el":78.0,"az":315.0,"ss":31.0,"used":true,"gnssid":0,"svid":28},{"PRN":30,"el":68.0,"az":108.0,"ss":39.0,"used":true,"gnssid":0,"svid":30},{"PRN":13,"el":52.0,"az":281.0,"ss":44.0,"used":true,"gnssid":0,"svid":13},{"PRN":17,"el":42.0,"az":181.0,"ss":48.0,"used":true,"gnssid":0,"svid":17},{"PRN":7,"el":34.0,"az":116.0,"ss":44.0,"used":true,"gnssid":0,"svid":7},{"PRN":15,"el":27.0,"az":306.0,"ss":35.0,"used":true,"gnssid":0,"svid":15},{"PRN":11,"el":27.0,"az":64.0,"ss":42.0,"used":true,"gnssid":0,"svid":11},{"PRN":19,"el":20.0,"az":193.0,"ss":30.0,"used":true,"gnssid":0,"svid":19},{"PRN":1,"el":18.0,"az":90.0,"ss":31.0,"used":true,"gnssid":0,"svid":1},{"PRN":8,"el":9.0,"az":39.0,"ss":16.0,"used":false,"gnssid":0,"svid":8},{"PRN":75,"el":58.0,"az":331.0,"ss":33.0,"used":true,"gnssid":6,"svid":11},{"PRN":84,"el":42.0,"az":60.0,"ss":35.0,"used":true,"gnssid":6,"svid":20},{"PRN":85,"el":37.0,"az":140.0,"ss":32.0,"used":true,"gnssid":6,"svid":21},{"PRN":65,"el":26.0,"az":244.0,"ss":34.0,"used":true,"gnssid":6,"svid":1},{"PRN":73,"el":6.0,"az":91.0,"ss":33.0,"used":true,"gnssid":6,"svid":9},{"PRN":72,"el":5.0,"az":207.0,"ss":37.0,"used":true,"gnssid":6,"svid":8},{"PRN":76,"el":17.0,"az":291.0,"ss":0.0,"used":false,"gnssid":6,"svid":12}]}
$GPGSA,A,3,01,07,11,13,15,17,19,28,30,,,,1.6,1.0,1.3*31
$GNGSA,A,3,01,07,11,13,15,17,19,28,30,,,,1.6,1.0,1.3*2F
$GNGSA,A,3,65,72,73,75,84,85,,,,,,,1.6,1.0,1.3*29
$QZGSA,A,3,,,,,,,,,,,,,1.6,1.0,1.3*2A
$BDGSA,A,3,,,,,,,,,,,,,1.6,1.0,1.3*27
$PGLOR,1,FIX,1.0,1.0*20
$GPRMC,000148.00,A,4404.126998,N,12118.844143,W,000.0,,020220,,,A*61
{"class":"TPV","mode":3,"time":"2020-02-02T00:01:48.000Z","ept":0.005,"lat":44.068783300,"lon":-121.314069050,"altHAE":1113.1000,"altMSL":1133.2000,"alt":1133.2000,"epx":6.550,"epy":8.856,"epv":29.900,"magvar":14.4,"speed":0.000,"climb":-0.100,"eps":17.71,"epc":59.80,"geoidSep":-20.100,"eph":7.600,"sep":30.400}
$PGLOR,SPL,20200201160147.1,POS,20200202000148.000,44.068783,-121.314069,4,4,0,1113,3,1.100000*44
$GPGGA,000149.00,4404.126998,N,12118.844143,W,1,15,0.4,1133.2,M,-20.1,M,,*62
$PGLOR,9,STA,000149.00,-0.001,0.000,212,1,4,0,P,F,L,0,C,3,S,00000002,0,5,R,000833F4,TPEF,16,93374,LC,,,*60
$PGLOR,1,UNC,000149.00,0.011,4.0,3.0,0.11,156.04,4.0,4.0,0.0*20
$PGLOR,2,SAT,3,1,G28,25,1F,G30,32,0B,R11,18,13,G13,36,1F,R20,29,1F,G17,43,1F*49
$PGLOR,2,SAT,3,2,R21,26,1F,G07,38,1F,G15,27,1F,G11,37,1F,R01,27,1F,G19,21,13*47
$PGLOR,2,SAT,3,3,G01,25,1F,G08,12,00,R09,25,17,R08,30,1F,R12,,00*41
$PGLOR,1,SVC,GPS,3,1,10,013,UNKN,UNKN,017,UNKN,UNKN,028,UNKN,UNKN,030,UNKN,UNKN*7B
$PGLOR,1,SVC,GPS,3,2,10,007,UNKN,UNKN,011,UNKN,UNKN,015,UNKN,UNKN,019,UNKN,UNKN*7E
$PGLOR,1,SVC,GPS,3,3,10,001,UNKN,UNKN,008,CLIN,CLIN*7D
$PGLOR,1,SVC,GLO,2,1,07,059,UNKN,UNKN,060,UNKN,UNKN,061,UNKN,UNKN,063,UNKN,UNKN*79
$PGLOR,1,SVC,GLO,2,2,07,057,UNKN,UNKN,058,UNKN,UNKN,065,CLIN,CLIN*62
$PGLOR,2,SIO,TxERR,0,RxERR,0,TxCNT,468,RxCNT,4294,MLFRMPKT,0,DTMS,1034,DTIN,41,65,DTOUT,810,967,HATMD,78*2A
$PGLOR,0,LSQ,000149.00,,,,,,,,,,,,,,,,00*36
$PGLOR,2,AGC,G,-18.4,R,-24.8,B,60.1,E5A,,E5B,,L2,,RSV,*56
$GPGSV,3,1,10,28,78,315,31,30,68,108,39,13,52,281,43,17,42,181,48*79
$GPGSV,3,2,10,07,34,116,44,15,27,306,35,11,27,064,42,19,20,193,30*7E
$GPGSV,3,3,10,01,18,090,31,08,09,039,17*76
$GLGSV,2,1,07,75,58,331,32,84,42,060,35,85,37,140,32,65,26,244,34*6B
$GLGSV,2,2,07,73,06,091,33,72,05,207,37,76,17,291,*54
{"class":"SKY","xdop":0.44,"ydop":0.59,"vdop":1.30,"tdop":0.69,"hdop":0.40,"gdop":1.47,"pdop":1.60,"nSat":17,"uSat":15,"satellites":[{"PRN":28,"el":78.0,"az":315.0,"ss":31.0,"used":true,"gnssid":0,"svid":28},{"PRN":30,"el":68.0,"az":108.0,"ss":39.0,"used":true,"gnssid":0,"svid":30},{"PRN":13,"el":52.0,"az":281.0,"ss":43.0,"used":true,"gnssid":0,"svid":13},{"PRN":17,"el":42.0,"az":181.0,"ss":48.0,"used":true,"gnssid":0,"svid":17},{"PRN":7,"el":34.0,"az":116.0,"ss":44.0,"used":true,"gnssid":0,"svid":7},{"PRN":15,"el":27.0,"az":306.0,"ss":35.0,"used":true,"gnssid":0,"svid":15},{"PRN":11,"el":27.0,"az":64.0,"ss":42.0,"used":true,"gnssid":0,"svid":11},{"PRN":19,"el":20.0,"az":193.0,"ss":30.0,"used":true,"gnssid":0,"svid":19},{"PRN":1,"el":18.0,"az":90.0,"ss":31.0,"used":true,"gnssid":0,"svid":1},{"PRN":8,"el":9.0,"az":39.0,"ss":17.0,"used":false,"gnssid":0,"svid":8},{"PRN":75,"el":58.0,"az":331.0,"ss":32.0,"used":true,"gnssid":6,"svid":11},{"PRN":84,"el":42.0,"az":60.0,"ss":35.0,"used":true,"gnssid":6,"svid":20},{"PRN":85,"el":37.0,"az":140.0,"ss":32.0,"used":true,"gnssid":6,"svid":21},{"PRN":65,"el":26.0,"az":244.0,"ss":34.0,"used":true,"gnssid":6,"svid":1},{"PRN":73,"el":6.0,"az":91.0,"ss":33.0,"used":true,"gnssid":6,"svid":9},{"PRN":72,"el":5.0,"az":207.0,"ss":37.0,"used":true,"gnssid":6,"svid":8},{"PRN":76,"el":17.0,"az":291.0,"ss":0.0,"used":false,"gnssid":6,"svid":12}]}
$GPGSA,A,3,01,07,11,13,15,17,19,28,30,,,,1.5,0.8,1.2*3A
$GNGSA,A,3,01,07,11,13,15,17,19,28,30,,,,1.5,0.8,1.2*24
$GNGSA,A,3,65,72,73,75,84,85,,,,,,,1.5,0.8,1.2*22
$QZGSA,A,3,,,,,,,,,,,,,1.5,0.8,1.2*21
$BDGSA,A,3,,,,,,,,,,,,,1.5,0.8,1.2*2C
$PGLOR,1,FIX,1.0,1.0*20
$GPRMC,000149.00,A,4404.126998,N,12118.844143,W,000.0,,020220,,,A*60
{"class":"TPV","mode":3,"time":"2020-02-02T00:01:49.000Z","ept":0.005,"lat":44.068783300,"lon":-121.314069050,"altHAE":1113.1000,"altMSL":1133.2000,"alt":1133.2000,"epx":6.550,"epy":8.856,"epv":29.900,"magvar":14.4,"speed":0.000,"climb":0.000,"eps":17.71,"epc":59.80,"geoidSep":-20.100,"eph":7.600,"sep":30.400}
$PGLOR,SPL,20200201160148.1,POS,20200202000149.000,44.068783,-121.314069,4,4,0,1113,3,1.100000*4A
$GPGGA,000150.00,4404.126998,N,12118.844143,W,1,15,0.4,1133.1,M,-20.1,M,,*69
$PGLOR,9,STA,000150.00,-0.001,0.000,212,1,4,0,P,F,L,0,C,3,S,00000002,0,5,R,000833F4,TPEF,16,94374,LC,,,*6F
$PGLOR,1,UNC,000150.00,0.011,4.0,3.0,0.11,41.03,4.0,4.0,0.0*18
$PGLOR,2,SAT,3,1,G28,31,17,G30,31,0B,R11,25,17,G13,40,1F,R20,29,1F,G17,42,1F*34
$PGLOR,2,SAT,3,2,R21,27,1F,G07,37,1F,G15,27,1B,G11,34,1F,R01,26,17,G19,26,1B*48
$PGLOR,2,SAT,3,3,G01,26,1F,G08,11,00,R09,27,1F,R08,32,1F,R12,,00*30
$PGLOR,1,SVC,GPS,3,1,10,013,UNKN,UNKN,017,UNKN,UNKN,028,UNKN,UNKN,030,UNKN,UNKN*7B
$PGLOR,1,SVC,GPS,3,2,10,007,UNKN,UNKN,011,UNKN,UNKN,015,UNKN,UNKN,019,UNKN,UNKN*7E
$PGLOR,1,SVC,GPS,3,3,10,001,UNKN,UNKN,008,CLIN,CLIN*7D
$PGLOR,1,SVC,GLO,2,1,07,059,UNKN,UNKN,060,UNKN,UNKN,061,UNKN,UNKN,063,UNKN,UNKN*79
$PGLOR,1,SVC,GLO,2,2,07,057,UNKN,UNKN,058,UNKN,UNKN,065,CLIN,CLIN*62
$PGLOR,2,SIO,TxERR,0,RxERR,0,TxCNT,415,RxCNT,4321,MLFRMPKT,0,DTMS,995,DTIN,35,55,DTOUT,807,943,HATMD,73*17
$PGLOR,0,LSQ,000150.00,,,,,,,,,,,,,,,,00*3E
$PGLOR,2,AGC,G,-18.5,R,-24.7,B,60.1,E5A,,E5B,,L2,,RSV,*58
$GPGSV,3,1,10,28,78,315,36,30,68,108,39,13,52,281,45,17,42,181,48*78
$GPGSV,3,2,10,07,34,117,43,15,27,306,35,11,27,064,42,19,20,193,31*79
$GPGSV,3,3,10,01,18,090,31,08,09,039,17*76
$GLGSV,2,1,07,75,58,331,32,84,42,060,35,85,37,140,32,65,26,244,33*6C
$GLGSV,2,2,07,73,06,091,33,72,05,207,37,76,17,291,*54
{"class":"SKY","xdop":0.44,"ydop":0.59,"vdop":1.20,"tdop":0.69,"hdop":0.40,"gdop":1.47,"pdop":1.50,"nSat":17,"uSat":15,"satellites":[{"PRN":28,"el":78.0,"az":315.0,"ss":36.0,"used":true,"gnssid":0,"svid":28},{"PRN":30,"el":68.0,"az":108.0,"ss":39.0,"used":true,"gnssid":0,"svid":30},{"PRN":13,"el":52.0,"az":281.0,"ss":45.0,"used":true,"gnssid":0,"svid":13},{"PRN":17,"el":42.0,"az":181.0,"ss":48.0,"used":true,"gnssid":0,"svid":17},{"PRN":7,"el":34.0,"az":117.0,"ss":43.0,"used":true,"gnssid":0,"svid":7},{"PRN":15,"el":27.0,"az":306.0,"ss":35.0,"used":true,"gnssid":0,"svid":15},{"PRN":11,"el":27.0,"az":64.0,"ss":42.0,"used":true,"gnssid":0,"svid":11},{"PRN":19,"el":20.0,"az":193.0,"ss":31.0,"used":true,"gnssid":0,"svid":19},{"PRN":1,"el":18.0,"az":90.0,"ss":31.0,"used":true,"gnssid":0,"svid":1},{"PRN":8,"el":9.0,"az":39.0,"ss":17.0,"used":false,"gnssid":0,"svid":8},{"PRN":75,"el":58.0,"az":331.0,"ss":32.0,"used":true,"gnssid":6,"svid":11},{"PRN":84,"el":42.0,"az":60.0,"ss":35.0,"used":true,"gnssid":6,"svid":20},{"PRN":85,"el":37.0,"az":140.0,"ss":32.0,"used":true,"gnssid":6,"svid":21},{"PRN":65,"el":26.0,"az":244.0,"ss":33.0,"used":true,"gnssid":6,"svid":1},{"PRN":73,"el":6.0,"az":91.0,"ss":33.0,"used":true,"gnssid":6,"svid":9},{"PRN":72,"el":5.0,"az":207.0,"ss":37.0,"used":true,"gnssid":6,"svid":8},{"PRN":76,"el":17.0,"az":291.0,"ss":0.0,"used":false,"gnssid":6,"svid":12}]}
$GPGSA,A,3,01,07,11,13,15,17,19,28,30,,,,1.6,0.9,1.3*39
$GNGSA,A,3,01,07,11,13,15,17,19,28,30,,,,1.6,0.9,1.3*27
$GNGSA,A,3,65,72,73,75,84,85,,,,,,,1.6,0.9,1.3*21
$QZGSA,A,3,,,,,,,,,,,,,1.6,0.9,1.3*22
$BDGSA,A,3,,,,,,,,,,,,,1.6,0.9,1.3*2F
$PGLOR,1,FIX,1.0,1.0*20
$GPRMC,000150.00,A,4404.126998,N,12118.844143,W,000.0,,020220,,,A*68
{"class":"TPV","mode":3,"time":"2020-02-02T00:01:50.000Z","ept":0.005,"lat":44.068783300,"lon":-121.314069050,"altHAE":1113.0000,"altMSL":1133.1000,"alt":1133.1000,"epx":6.553,"epy":8.843,"epv":27.600,"magvar":14.4,"speed":0.000,"climb":-0.100,"eps":17.70,"epc":57.50,"geoidSep":-20.100,"eph":7.600,"sep":28.500}
$PGLOR,SPL,20200201160149.1,POS,20200202000150.000,44.068783,-121.314069,4,4,0,1113,3,1.100000*43
$GPGGA,000151.00,4404.126998,N,12118.844143,W,1,15,0.4,1132.9,M,-20.1,M,,*61
$PGLOR,9,STA,000151.00,-0.001,0.000,212,1,4,0,P,F,L,0,C,3,S,00000002,0,5,R,000833F4,TPEF,16,95374,LC,,,*6F
$PGLOR,1,UNC,000151.00,0.011,4.0,3.0,0.11,174.84,4.0,4.0,0.0*21
$PGLOR,2,SAT,3,1,G28,34,1F,G30,31,0B,R11,36,1F,G13,42,1F,R20,29,1F,G17,41,1F*32
$PGLOR,2,SAT,3,2,R21,28,1F,G07,36,1F,G15,29,1B,G11,34,1F,R01,26,1F,G19,29,13*47
$PGLOR,2,SAT,3,3,G01,29,1F,G08,11,00,R09,27,17,R08,33,17,R12,,00*3E
$PGLOR,1,SVC,GPS,3,1,10,013,UNKN,UNKN,017,UNKN,UNKN,028,UNKN,UNKN,030,UNKN,UNKN*7B
$PGLOR,1,SVC,GPS,3,2,10,007,UNKN,UNKN,011,UNKN,UNKN,015,UNKN,UNKN,019,UNKN,UNKN*7E
$PGLOR,1,SVC,GPS,3,3,10,001,UNKN,UNKN,008,CLIN,CLIN*7D
$PGLOR,1,SVC,GLO,2,1,07,059,UNKN,UNKN,060,UNKN,UNKN,061,UNKN,UNKN,063,UNKN,UNKN*79
$PGLOR,1,SVC,GLO,2,2,07,057,UNKN,UNKN,058,UNKN,UNKN,065,CLIN,CLIN*62
$PGLOR,2,SIO,TxERR,0,RxERR,0,TxCNT,444,RxCNT,4316,MLFRMPKT,0,DTMS,1002,DTIN,47,64,DTOUT,534,938,HATMD,75*21
$PGLOR,0,LSQ,000151.00,,,,,,,,,,,,,,,,00*3F
$PGLOR,4,PWR,mA,26.0,RFTm,1000,OscTm,1000,MeasTm,1000,UTC,000151.00,GNSSmA,26,CPUTm,0,COPTm,0,SrchTm,0,TrkTm,0,Rpc*00
$PGLOR,2,AGC,G,-18.4,R,-24.7,B,60.1,E5A,,E5B,,L2,,RSV,*59
$GPGSV,3,1,10,28,78,315,39,30,68,108,38,13,52,281,47,17,42,181,47*7B
$GPGSV,3,2,10,07,34,117,43,15,27,306,35,11,27,064,41,19,20,193,34*7F
$GPGSV,3,3,10,01,18,090,34,08,09,039,17*73
$GLGSV,2,1,07,75,58,331,41,84,42,060,35,85,37,140,33,65,26,244,33*69
$GLGSV,2,2,07,73,06,091,33,72,05,207,38,76,17,291,*5B
{"class":"SKY","xdop":0.44,"ydop":0.59,"vdop":1.30,"tdop":0.69,"hdop":0.40,"gdop":1.47,"pdop":1.60,"nSat":17,"uSat":15,"satellites":[{"PRN":28,"el":78.0,"az":315.0,"ss":39.0,"used":true,"gnssid":0,"svid":28},{"PRN":30,"el":68.0,"az":108.0,"ss":38.0,"used":true,"gnssid":0,"svid":30},{"PRN":13,"el":52.0,"az":281.0,"ss":47.0,"used":true,"gnssid":0,"svid":13},{"PRN":17,"el":42.0,"az":181.0,"ss":47.0,"used":true,"gnssid":0,"svid":17},{"PRN":7,"el":34.0,"az":117.0,"ss":43.0,"used":true,"gnssid":0,"svid":7},{"PRN":15,"el":27.0,"az":306.0,"ss":35.0,"used":true,"gnssid":0,"svid":15},{"PRN":11,"el":27.0,"az":64.0,"ss":41.0,"used":true,"gnssid":0,"svid":11},{"PRN":19,"el":20.0,"az":193.0,"ss":34.0,"used":true,"gnssid":0,"svid":19},{"PRN":1,"el":18.0,"az":90.0,"ss":34.0,"used":true,"gnssid":0,"svid":1},{"PRN":8,"el":9.0,"az":39.0,"ss":17.0,"used":false,"gnssid":0,"svid":8},{"PRN":75,"el":58.0,"az":331.0,"ss":41.0,"used":true,"gnssid":6,"svid":11},{"PRN":84,"el":42.0,"az":60.0,"ss":35.0,"used":true,"gnssid":6,"svid":20},{"PRN":85,"el":37.0,"az":140.0,"ss":33.0,"used":true,"gnssid":6,"svid":21},{"PRN":65,"el":26.0,"az":244.0,"ss":33.0,"used":true,"gnssid":6,"svid":1},{"PRN":73,"el":6.0,"az":91.0,"ss":33.0,"used":true,"gnssid":6,"svid":9},{"PRN":72,"el":5.0,"az":207.0,"ss":38.0,"used":true,"gnssid":6,"svid":8},{"PRN":76,"el":17.0,"az":291.0,"ss":0.0,"used":false,"gnssid":6,"svid":12}]}
$GPGSA,A,3,01,07,11,13,15,17,19,28,30,,,,1.6,0.9,1.3*39
$GNGSA,A,3,01,07,11,13,15,17,19,28,30,,,,1.6,0.9,1.3*27
$GNGSA,A,3,65,72,73,75,84,85,,,,,,,1.6,0.9,1.3*21
$QZGSA,A,3,,,,,,,,,,,,,1.6,0.9,1.3*22
$BDGSA,A,3,,,,,,,,,,,,,1.6,0.9,1.3*2F
$PGLOR,1,FIX,1.0,1.0*20
$GPRMC,000151.00,A,4404.126998,N,12118.844143,W,000.0,,020220,,,A*69
{"class":"TPV","mode":3,"time":"2020-02-02T00:01:51.000Z","ept":0.005,"lat":44.068783300,"lon":-121.314069050,"altHAE":1112.8000,"altMSL":1132.9000,"alt":1132.9000,"epx":6.553,"epy":8.843,"epv":29.900,"magvar":14.4,"speed":0.000,"climb":-0.200,"eps":17.69,"epc":57.50,"geoidSep":-20.100,"eph":7.600,"sep":30.400}
$PGLOR,SPL,20200201160150.1,POS,20200202000151.000,44.068783,-121.314069,4,4,0,1113,3,1.100000*4A
$GPGGA,000152.00,4404.126998,N,12118.844143,W,1,15,0.4,1132.7,M,-20.1,M,,*6C
$PGLOR,9,STA,000152.00,-0.001,0.000,212,1,4,0,P,F,L,0,C,3,S,00000002,0,5,R,000833F4,TPEF,16,96374,LC,,,*6F
$PGLOR,1,UNC,000152.00,0.011,4.0,3.0,0.11,47.20,4.0,4.0,0.0*1D
$PGLOR,2,SAT,3,1,G28,33,1F,G30,31,0B,R11,35,1F,G13,41,1F,R20,29,1F,G17,41,17*44
$PGLOR,2,SAT,3,2,R21,29,1F,G07,34,1F,G15,30,1B,G11,33,1F,R01,25,17,G19,33,1B*43
$PGLOR,2,SAT,3,3,G01,31,1F,G08,12,00,R09,25,17,R08,33,1F,R12,,00*47
$PGLOR,1,SVC,GPS,3,1,10,013,UNKN,UNKN,017,UNKN,UNKN,028,UNKN,UNKN,030,UNKN,UNKN*7B
$PGLOR,1,SVC,GPS,3,2,10,007,UNKN,UNKN,011,UNKN,UNKN,015,UNKN,UNKN,019,UNKN,UNKN*7E
$PGLOR,1,SVC,GPS,3,3,10,001,UNKN,UNKN,008,CLIN,CLIN*7D
$PGLOR,1,SVC,GLO,2,1,07,059,UNKN,UNKN,060,UNKN,UNKN,061,UNKN,UNKN,063,UNKN,UNKN*79
$PGLOR,1,SVC,GLO,2,2,07,057,UNKN,UNKN,058,UNKN,UNKN,065,CLIN,CLIN*62
$PGLOR,1,GLO,+1,-8,-8,-8,-8,-8,+5,+6,-2,-5,+0,-1,-2,-7,+0,-1,+4,-3,-8,+2,+4,-8,-8,-8*3A
$PGLOR,2,SIO,TxERR,0,RxERR,0,TxCNT,456,RxCNT,4339,MLFRMPKT,0,DTMS,1006,DTIN,45,64,DTOUT,811,938,HATMD,81*28
$PGLOR,0,LSQ,000152.00,,,,,,,,,,,,,,,,00*3C
$PGLOR,2,AGC,G,-18.1,R,-24.7,B,60.1,E5A,,E5B,,L2,,RSV,*5C
$GPGSV,3,1,10,28,78,315,39,30,68,108,38,13,52,281,47,17,42,181,47*7B
$GPGSV,3,2,10,07,34,117,43,15,27,306,35,11,27,064,41,19,20,193,38*73
$GPGSV,3,3,10,01,18,090,36,08,09,039,17*71
$GLGSV,2,1,07,75,58,331,41,84,42,060,34,85,37,140,34,65,26,244,33*6F
$GLGSV,2,2,07,73,06,091,32,72,05,207,38,76,17,291,*5A
{"class":"SKY","xdop":0.44,"ydop":0.59,"vdop":1.30,"tdop":0.69,"hdop":0.40,"gdop":1.47,"pdop":1.60,"nSat":17,"uSat":15,"satellites":[{"PRN":28,"el":78.0,"az":315.0,"ss":39.0,"used":true,"gnssid":0,"svid":28},{"PRN":30,"el":68.0,"az":108.0,"ss":38.0,"used":true,"gnssid":0,"svid":30},{"PRN":13,"el":52.0,"az":281.0,"ss":47.0,"used":true,"gnssid":0,"svid":13},{"PRN":17,"el":42.0,"az":181.0,"ss":47.0,"used":true,"gnssid":0,"svid":17},{"PRN":7,"el":34.0,"az":117.0,"ss":43.0,"used":true,"gnssid":0,"svid":7},{"PRN":15,"el":27.0,"az":306.0,"ss":35.0,"used":true,"gnssid":0,"svid":15},{"PRN":11,"el":27.0,"az":64.0,"ss":41.0,"used":true,"gnssid":0,"svid":11},{"PRN":19,"el":20.0,"az":193.0,"ss":38.0,"used":true,"gnssid":0,"svid":19},{"PRN":1,"el":18.0,"az":90.0,"ss":36.0,"used":true,"gnssid":0,"svid":1},{"PRN":8,"el":9.0,"az":39.0,"ss":17.0,"used":false,"gnssid":0,"svid":8},{"PRN":75,"el":58.0,"az":331.0,"ss":41.0,"used":true,"gnssid":6,"svid":11},{"PRN":84,"el":42.0,"az":60.0,"ss":34.0,"used":true,"gnssid":6,"svid":20},{"PRN":85,"el":37.0,"az":140.0,"ss":34.0,"used":true,"gnssid":6,"svid":21},{"PRN":65,"el":26.0,"az":244.0,"ss":33.0,"used":true,"gnssid":6,"svid":1},{"PRN":73,"el":6.0,"az":91.0,"ss":32.0,"used":true,"gnssid":6,"svid":9},{"PRN":72,"el":5.0,"az":207.0,"ss":38.0,"used":true,"gnssid":6,"svid":8},{"PRN":76,"el":17.0,"az":291.0,"ss":0.0,"used":false,"gnssid":6,"svid":12}]}
$GPGSA,A,3,01,07,11,13,15,17,19,28,30,,,,1.6,0.9,1.3*39
$GNGSA,A,3,01,07,11,13,15,17,19,28,30,,,,1.6,0.9,1.3*27
$GNGSA,A,3,65,72,73,75,84,85,,,,,,,1.6,0.9,1.3*21
$QZGSA,A,3,,,,,,,,,,,,,1.6,0.9,1.3*22
$BDGSA,A,3,,,,,,,,,,,,,1.6,0.9,1.3*2F
$PGLOR,1,FIX,1.0,1.0*20
$GPRMC,000152.00,A,4404.126998,N,12118.844143,W,000.0,,020220,,,A*6A
{"class":"TPV","mode":3,"time":"2020-02-02T00:01:52.000Z","ept":0.005,"lat":44.068783300,"lon":-121.314069050,"altHAE":1112.6000,"altMSL":1132.7000,"alt":1132.7000,"epx":6.553,"epy":8.843,"epv":29.900,"magvar":14.4,"speed":0.000,"climb":-0.200,"eps":17.69,"epc":59.80,"geoidSep":-20.100,"eph":7.600,"sep":30.400}
$PGLOR,SPL,20200201160151.1,POS,20200202000152.000,44.068783,-121.314069,4,4,0,1113,3,1.100000*48
$GPGGA,000153.00,4404.126998,N,12118.844143,W,1,16,0.4,1132.5,M,-20.1,M,,*6C
$PGLOR,9,STA,000153.00,-0.001,0.000,212,1,4,0,P,F,L,0,C,3,S,00000002,0,5,R,000833F4,TPEF,16,97374,LC,,,*6F
$PGLOR,1,UNC,000153.00,0.011,4.0,3.0,0.15,128.96,4.0,4.0,0.0*2D
$PGLOR,2,SAT,3,1,G28,33,1F,G30,31,0B,R11,35,1F,G13,41,1F,R20,28,1F,G17,42,1F*37
$PGLOR,2,SAT,3,2,R21,30,1F,G07,34,1F,G15,31,1B,G11,33,17,R01,26,1F,G19,33,1B*49
$PGLOR,2,SAT,3,3,G01,31,17,G08,12,00,R09,26,17,R08,33,1F,R12,,00*35
$PGLOR,1,SVC,GPS,3,1,10,013,UNKN,UNKN,017,UNKN,UNKN,028,UNKN,UNKN,030,UNKN,UNKN*7B
$PGLOR,1,SVC,GPS,3,2,10,007,UNKN,UNKN,011,UNKN,UNKN,015,UNKN,UNKN,019,UNKN,UNKN*7E
$PGLOR,1,SVC,GPS,3,3,10,001,UNKN,UNKN,008,CLIN,CLIN*7D
$PGLOR,1,SVC,GLO,2,1,07,059,UNKN,UNKN,060,UNKN,UNKN,061,UNKN,UNKN,063,UNKN,UNKN*79
$PGLOR,1,SVC,GLO,2,2,07,057,UNKN,UNKN,058,UNKN,UNKN,065,CLIN,CLIN*62
$PGLOR,2,SIO,TxERR,0,RxERR,0,TxCNT,428,RxCNT,4331,MLFRMPKT,0,DTMS,973,DTIN,43,56,DTOUT,418,919,HATMD,54*1A
$PGLOR,0,LSQ,000153.00,,,,,,,,,,,,,,,,00*3D
$PGLOR,2,AGC,G,-18.3,R,-24.7,B,60.1,E5A,,E5B,,L2,,RSV,*5E
$GPGSV,3,1,10,28,78,315,39,30,68,108,38,13,52,281,47,17,42,181,47*7B
$GPGSV,3,2,10,07,34,117,42,15,27,306,36,11,27,064,41,19,20,193,38*71
$GPGSV,3,3,10,01,18,090,36,08,09,039,17*71
$GLGSV,2,1,07,75,58,331,41,84,42,060,34,85,37,140,35,65,26,244,33*6E
$GLGSV,2,2,07,73,06,091,32,72,05,207,38,76,17,291,*5A
{"class":"SKY","xdop":0.44,"ydop":0.59,"vdop":1.30,"tdop":0.69,"hdop":0.40,"gdop":1.47,"pdop":1.60,"nSat":17,"uSat":15,"satellites":[{"PRN":28,"el":78.0,"az":315.0,"ss":39.0,"used":true,"gnssid":0,"svid":28},{"PRN":30,"el":68.0,"az":108.0,"ss":38.0,"used":true,"gnssid":0,"svid":30},{"PRN":13,"el":52.0,"az":281.0,"ss":47.0,"used":true,"gnssid":0,"svid":13},{"PRN":17,"el":42.0,"az":181.0,"ss":47.0,"used":true,"gnssid":0,"svid":17},{"PRN":7,"el":34.0,"az":117.0,"ss":42.0,"used":true,"gnssid":0,"svid":7},{"PRN":15,"el":27.0,"az":306.0,"ss":36.0,"used":true,"gnssid":0,"svid":15},{"PRN":11,"el":27.0,"az":64.0,"ss":41.0,"used":true,"gnssid":0,"svid":11},{"PRN":19,"el":20.0,"az":193.0,"ss":38.0,"used":true,"gnssid":0,"svid":19},{"PRN":1,"el":18.0,"az":90.0,"ss":36.0,"used":true,"gnssid":0,"svid":1},{"PRN":8,"el":9.0,"az":39.0,"ss":17.0,"used":false,"gnssid":0,"svid":8},{"PRN":75,"el":58.0,"az":331.0,"ss":41.0,"used":true,"gnssid":6,"svid":11},{"PRN":84,"el":42.0,"az":60.0,"ss":34.0,"used":true,"gnssid":6,"svid":20},{"PRN":85,"el":37.0,"az":140.0,"ss":35.0,"used":true,"gnssid":6,"svid":21},{"PRN":65,"el":26.0,"az":244.0,"ss":33.0,"used":true,"gnssid":6,"svid":1},{"PRN":73,"el":6.0,"az":91.0,"ss":32.0,"used":true,"gnssid":6,"svid":9},{"PRN":72,"el":5.0,"az":207.0,"ss":38.0,"used":true,"gnssid":6,"svid":8},{"PRN":76,"el":17.0,"az":291.0,"ss":0.0,"used":false,"gnssid":6,"svid":12}]}
$GPGSA,A,3,01,07,08,11,13,15,17,19,28,30,,,1.6,0.9,1.3*31
$GNGSA,A,3,01,07,08,11,13,15,17,19,28,30,,,1.6,0.9,1.3*2F
$GNGSA,A,3,65,72,73,75,84,85,,,,,,,1.6,0.9,1.3*21
$QZGSA,A,3,,,,,,,,,,,,,1.6,0.9,1.3*22
$BDGSA,A,3,,,,,,,,,,,,,1.6,0.9,1.3*2F
$PGLOR,1,FIX,1.0,1.0*20
$GPRMC,000153.00,A,4404.126998,N,12118.844143,W,000.0,,020220,,,A*6B
{"class":"TPV","mode":3,"time":"2020-02-02T00:01:53.000Z","ept":0.005,"lat":44.068783300,"lon":-121.314069050,"altHAE":1112.4000,"altMSL":1132.5000,"alt":1132.5000,"epx":6.553,"epy":8.843,"epv":29.900,"magvar":14.4,"speed":0.000,"climb":-0.200,"eps":17.69,"epc":59.80,"geoidSep":-20.100,"eph":7.600,"sep":30.400}
$PGLOR,SPL,20200201160152.1,POS,20200202000153.000,44.068783,-121.314069,4,4,0,1112,3,1.100000*4B
$GPGGA,000154.00,4404.126998,N,12118.844143,W,1,15,0.4,1132.4,M,-20.1,M,,*69
$PGLOR,9,STA,000154.00,-0.001,0.000,212,1,4,0,P,F,L,0,C,3,S,00000002,0,5,R,000833F4,TPEF,16,98374,LC,,,*67
$PGLOR,1,UNC,000154.00,0.011,4.0,3.0,0.11,94.54,4.0,4.0,0.0*16
$PGLOR,2,SAT,3,1,G28,33,1F,G30,31,0B,R11,35,1F,G13,41,1F,R20,28,1F,G17,42,1F*37
$PGLOR,2,SAT,3,2,R21,30,1F,G07,34,17,G15,31,1B,G11,34,1F,R01,26,17,G19,34,1B*38
$PGLOR,2,SAT,3,3,G01,32,1F,G08,12,00,R09,27,17,R08,32,1F,R12,,00*47
$PGLOR,1,SVC,GPS,3,1,10,013,UNKN,UNKN,017,UNKN,UNKN,028,UNKN,UNKN,030,UNKN,UNKN*7B
$PGLOR,1,SVC,GPS,3,2,10,007,UNKN,UNKN,011,UNKN,UNKN,015,UNKN,UNKN,019,UNKN,UNKN*7E
$PGLOR,1,SVC,GPS,3,3,10,001,UNKN,UNKN,008,CLIN,CLIN*7D
$PGLOR,1,SVC,GLO,2,1,07,059,UNKN,UNKN,060,UNKN,UNKN,061,UNKN,UNKN,063,UNKN,UNKN*79
$PGLOR,1,SVC,GLO,2,2,07,057,UNKN,UNKN,058,UNKN,UNKN,065,CLIN,CLIN*62
$PGLOR,2,SIO,TxERR,0,RxERR,0,TxCNT,456,RxCNT,4315,MLFRMPKT,0,DTMS,1028,DTIN,25,44,DTOUT,812,982,HATMD,82*2F
$PGLOR,0,LSQ,000154.00,,,,,,,,,,,,,,,,00*3A
$PGLOR,2,AGC,G,-18.2,R,-24.7,B,60.1,E5A,,E5B,,L2,,RSV,*5F
$GPGSV,3,1,10,28,78,315,39,30,68,108,38,13,52,281,47,17,42,181,47*7B
$GPGSV,3,2,10,07,34,117,42,15,27,306,36,11,27,064,41,19,20,193,39*70
$GPGSV,3,3,10,01,18,090,37,08,09,039,17*70
$GLGSV,2,1,07,75,58,331,41,84,42,060,34,85,37,140,35,65,26,244,32*6F
$GLGSV,2,2,07,73,06,091,32,72,05,207,38,76,17,291,*5A
{"class":"SKY","xdop":0.44,"ydop":0.51,"vdop":1.30,"tdop":0.59,"hdop":0.40,"gdop":1.31,"pdop":1.60,"nSat":17,"uSat":16,"satellites":[{"PRN":28,"el":78.0,"az":315.0,"ss":39.0,"used":true,"gnssid":0,"svid":28},{"PRN":30,"el":68.0,"az":108.0,"ss":38.0,"used":true,"gnssid":0,"svid":30},{"PRN":13,"el":52.0,"az":281.0,"ss":47.0,"used":true,"gnssid":0,"svid":13},{"PRN":17,"el":42.0,"az":181.0,"ss":47.0,"used":true,"gnssid":0,"svid":17},{"PRN":7,"el":34.0,"az":117.0,"ss":42.0,"used":true,"gnssid":0,"svid":7},{"PRN":15,"el":27.0,"az":306.0,"ss":36.0,"used":true,"gnssid":0,"svid":15},{"PRN":11,"el":27.0,"az":64.0,"ss":41.0,"used":true,"gnssid":0,"svid":11},{"PRN":19,"el":20.0,"az":193.0,"ss":39.0,"used":true,"gnssid":0,"svid":19},{"PRN":1,"el":18.0,"az":90.0,"ss":37.0,"used":true,"gnssid":0,"svid":1},{"PRN":8,"el":9.0,"az":39.0,"ss":17.0,"used":true,"gnssid":0,"svid":8},{"PRN":75,"el":58.0,"az":331.0,"ss":41.0,"used":true,"gnssid":6,"svid":11},{"PRN":84,"el":42.0,"az":60.0,"ss":34.0,"used":true,"gnssid":6,"svid":20},{"PRN":85,"el":37.0,"az":140.0,"ss":35.0,"used":true,"gnssid":6,"svid":21},{"PRN":65,"el":26.0,"az":244.0,"ss":32.0,"used":true,"gnssid":6,"svid":1},{"PRN":73,"el":6.0,"az":91.0,"ss":32.0,"used":true,"gnssid":6,"svid":9},{"PRN":72,"el":5.0,"az":207.0,"ss":38.0,"used":true,"gnssid":6,"svid":8},{"PRN":76,"el":17.0,"az":291.0,"ss":0.0,"used":false,"gnssid":6,"svid":12}]}
$GPGSA,A,3,01,07,11,13,15,17,19,28,30,,,,1.6,0.9,1.3*39
$GNGSA,A,3,01,07,11,13,15,17,19,28,30,,,,1.6,0.9,1.3*27
$GNGSA,A,3,65,72,73,75,84,85,,,,,,,1.6,0.9,1.3*21
$QZGSA,A,3,,,,,,,,,,,,,1.6,0.9,1.3*22
$BDGSA,A,3,,,,,,,,,,,,,1.6,0.9,1.3*2F
$PGLOR,1,FIX,1.0,1.0*20
$GPRMC,000154.00,A,4404.126998,N,12118.844143,W,000.0,,020220,,,A*6C
{"class":"TPV","mode":3,"time":"2020-02-02T00:01:54.000Z","ept":0.005,"lat":44.068783300,"lon":-121.314069050,"altHAE":1112.3000,"altMSL":1132.4000,"alt":1132.4000,"epx":6.550,"epy":7.629,"epv":29.900,"magvar":14.4,"speed":0.000,"climb":-0.100,"eps":16.47,"epc":59.80,"geoidSep":-20.100,"eph":7.600,"sep":30.400}
$PGLOR,SPL,20200201160153.1,POS,20200202000154.000,44.068783,-121.314069,4,4,0,1112,3,1.100000*4D
$PGLOR,1,SPS,280940180,0,-1,0,0,12,,*36
$PGLOR,1,SPS,280940180,41,-1,0,0,6,,*36
$PGLOR,1,SPS,280940180,41,-1,0,0,1,GlSupl10StateWait4ConnectionSI,*45
$PGLOR,SPL,20200201160154.0,STATUS,2*35
$PGLOR,SPL,20200201160154.0,STATUS,3*34
$PGLOR,SPL,20200201160154.0,STATUS,4*33
$GPGGA,000155.00,4404.126998,N,12118.844143,W,1,16,0.4,1132.1,M,-20.1,M,,*6E
$PGLOR,9,STA,000155.00,-0.001,0.000,212,1,4,0,P,F,L,0,C,3,S,00000002,0,5,R,000833F4,TPEF,16,99374,LC,,,*67
$PGLOR,1,UNC,000155.00,0.011,4.0,3.0,0.11,65.70,4.0,4.0,0.0*1F
$PGLOR,2,SAT,3,1,G28,33,1F,G30,31,03,R11,35,1F,G13,42,1F,G17,42,1F,R20,28,1F*45
$PGLOR,2,SAT,3,2,R21,30,1F,G07,34,1F,G15,31,1B,G11,33,1F,R01,26,1F,G19,34,1B*3F
$PGLOR,2,SAT,3,3,G01,32,1F,G08,13,00,R09,27,17,R08,32,17,R12,,00*37
$PGLOR,1,SVC,GPS,3,1,10,013,UNKN,UNKN,017,UNKN,UNKN,028,UNKN,UNKN,030,UNKN,UNKN*7B
$PGLOR,1,SVC,GPS,3,2,10,007,UNKN,UNKN,011,UNKN,UNKN,015,UNKN,UNKN,019,UNKN,UNKN*7E
$PGLOR,1,SVC,GPS,3,3,10,001,UNKN,UNKN,008,CLIN,CLIN*7D
$PGLOR,1,SVC,GLO,2,1,07,059,UNKN,UNKN,060,UNKN,UNKN,061,UNKN,UNKN,063,UNKN,UNKN*79
$PGLOR,1,SVC,GLO,2,2,07,057,UNKN,UNKN,058,UNKN,UNKN,065,CLIN,CLIN*62
$PGLOR,2,SIO,TxERR,0,RxERR,0,TxCNT,429,RxCNT,4311,MLFRMPKT,0,DTMS,961,DTIN,50,69,DTOUT,419,893,HATMD,43*10
$PGLOR,0,LSQ,000155.00,,,,,,,,,,,,,,,,00*3B
$PGLOR,2,AGC,G,-18.0,R,-24.7,B,60.1,E5A,,E5B,,L2,,RSV,*5D
$GPGSV,3,1,10,28,78,315,39,30,68,108,38,13,52,281,47,17,43,181,47*7A
$GPGSV,3,2,10,07,34,117,42,15,27,306,36,11,27,064,40,19,20,193,39*71
$GPGSV,3,3,10,01,18,090,37,08,09,039,18*7F
$GLGSV,2,1,07,75,58,331,41,84,42,060,34,85,37,140,35,65,26,244,32*6F
$GLGSV,2,2,07,73,06,091,32,72,05,207,38,76,17,291,*5A
{"class":"SKY","xdop":0.44,"ydop":0.59,"vdop":1.30,"tdop":0.68,"hdop":0.40,"gdop":1.46,"pdop":1.60,"nSat":17,"uSat":15,"satellites":[{"PRN":28,"el":78.0,"az":315.0,"ss":39.0,"used":true,"gnssid":0,"svid":28},{"PRN":30,"el":68.0,"az":108.0,"ss":38.0,"used":true,"gnssid":0,"svid":30},{"PRN":13,"el":52.0,"az":281.0,"ss":47.0,"used":true,"gnssid":0,"svid":13},{"PRN":17,"el":43.0,"az":181.0,"ss":47.0,"used":true,"gnssid":0,"svid":17},{"PRN":7,"el":34.0,"az":117.0,"ss":42.0,"used":true,"gnssid":0,"svid":7},{"PRN":15,"el":27.0,"az":306.0,"ss":36.0,"used":true,"gnssid":0,"svid":15},{"PRN":11,"el":27.0,"az":64.0,"ss":40.0,"used":true,"gnssid":0,"svid":11},{"PRN":19,"el":20.0,"az":193.0,"ss":39.0,"used":true,"gnssid":0,"svid":19},{"PRN":1,"el":18.0,"az":90.0,"ss":37.0,"used":true,"gnssid":0,"svid":1},{"PRN":8,"el":9.0,"az":39.0,"ss":18.0,"used":false,"gnssid":0,"svid":8},{"PRN":75,"el":58.0,"az":331.0,"ss":41.0,"used":true,"gnssid":6,"svid":11},{"PRN":84,"el":42.0,"az":60.0,"ss":34.0,"used":true,"gnssid":6,"svid":20},{"PRN":85,"el":37.0,"az":140.0,"ss":35.0,"used":true,"gnssid":6,"svid":21},{"PRN":65,"el":26.0,"az":244.0,"ss":32.0,"used":true,"gnssid":6,"svid":1},{"PRN":73,"el":6.0,"az":91.0,"ss":32.0,"used":true,"gnssid":6,"svid":9},{"PRN":72,"el":5.0,"az":207.0,"ss":38.0,"used":true,"gnssid":6,"svid":8},{"PRN":76,"el":17.0,"az":291.0,"ss":0.0,"used":false,"gnssid":6,"svid":12}]}
$GPGSA,A,3,01,07,08,11,13,15,17,19,28,30,,,1.6,0.9,1.3*31
$GNGSA,A,3,01,07,08,11,13,15,17,19,28,30,,,1.6,0.9,1.3*2F
$GNGSA,A,3,65,72,73,75,84,85,,,,,,,1.6,0.9,1.3*21
$QZGSA,A,3,,,,,,,,,,,,,1.6,0.9,1.3*22
$BDGSA,A,3,,,,,,,,,,,,,1.6,0.9,1.3*2F
$PGLOR,1,FIX,1.0,1.0*20
$GPRMC,000155.00,A,4404.126998,N,12118.844143,W,000.0,,020220,,,A*6D
{"class":"TPV","mode":3,"time":"2020-02-02T00:01:55.000Z","ept":0.005,"lat":44.068783300,"lon":-121.314069050,"altHAE":1112.0000,"altMSL":1132.1000,"alt":1132.1000,"epx":6.552,"epy":8.850,"epv":29.900,"magvar":14.4,"speed":0.000,"climb":-0.300,"eps":16.48,"epc":59.80,"geoidSep":-20.100,"eph":7.600,"sep":30.400}
$PGLOR,SPL,20200201160154.1,POS,20200202000155.000,44.068783,-121.314069,4,4,0,1112,3,1.100000*4B
$GPGGA,000156.00,4404.126998,N,12118.844143,W,1,16,0.4,1132.0,M,-20.1,M,,*6C
$PGLOR,9,STA,000156.00,-0.001,0.000,212,1,4,0,P,F,L,0,C,3,S,00000002,0,5,R,000833F4,TPEF,16,100374,LC,,,*55
$PGLOR,1,UNC,000156.00,0.011,4.0,3.0,0.11,89.25,4.0,4.0,0.0*1E
$PGLOR,2,SAT,3,1,G28,33,1F,G30,31,0B,R11,35,1F,G13,41,1F,G17,43,1F,R20,28,17*47
$PGLOR,2,SAT,3,2,R21,30,1F,G07,34,1F,G15,30,1B,G11,34,17,R01,26,1F,G19,34,1B*48
$PGLOR,2,SAT,3,3,G01,32,1F,G08,12,00,R09,27,17,R08,32,1F,R12,,00*47
$PGLOR,1,SVC,GPS,3,1,10,013,UNKN,UNKN,017,UNKN,UNKN,028,UNKN,UNKN,030,UNKN,UNKN*7B
$PGLOR,1,SVC,GPS,3,2,10,007,UNKN,UNKN,011,UNKN,UNKN,015,UNKN,UNKN,019,UNKN,UNKN*7E
$PGLOR,1,SVC,GPS,3,3,10,001,UNKN,UNKN,008,CLIN,CLIN*7D
$PGLOR,1,SVC,GLO,2,1,07,059,UNKN,UNKN,060,UNKN,UNKN,061,UNKN,UNKN,063,UNKN,UNKN*79
$PGLOR,1,SVC,GLO,2,2,07,057,UNKN,UNKN,058,UNKN,UNKN,065,CLIN,CLIN*62
$PGLOR,1,GLO,+1,-8,-8,-8,-8,-8,+5,+6,-2,-5,+0,-1,-2,-7,+0,-1,+4,-3,+3,+2,+4,-8,-8,-8*37
$PGLOR,2,SIO,TxERR,0,RxERR,0,TxCNT,455,RxCNT,4518,MLFRMPKT,0,DTMS,1040,DTIN,39,63,DTOUT,421,976,HATMD,83*27
$PGLOR,0,LSQ,000156.00,,,,,,,,,,,,,,,,00*38
$PGLOR,2,AGC,G,-18.0,R,-24.6,B,60.1,E5A,,E5B,,L2,,RSV,*5C
$GPGSV,3,1,10,28,78,315,39,30,68,108,37,13,52,281,47,17,43,181,48*7A
$GPGSV,3,2,10,07,34,117,41,15,27,306,36,11,27,064,40,19,20,193,39*72
$GPGSV,3,3,10,01,18,090,37,08,09,039,18*7F
$GLGSV,2,1,07,75,58,331,41,84,42,060,34,85,37,140,35,65,26,244,32*6F
$GLGSV,2,2,07,73,06,091,32,72,05,207,38,76,17,291,*5A
{"class":"SKY","xdop":0.44,"ydop":0.51,"vdop":1.30,"tdop":0.59,"hdop":0.40,"gdop":1.31,"pdop":1.60,"nSat":17,"uSat":16,"satellites":[{"PRN":28,"el":78.0,"az":315.0,"ss":39.0,"used":true,"gnssid":0,"svid":28},{"PRN":30,"el":68.0,"az":108.0,"ss":37.0,"used":true,"gnssid":0,"svid":30},{"PRN":13,"el":52.0,"az":281.0,"ss":47.0,"used":true,"gnssid":0,"svid":13},{"PRN":17,"el":43.0,"az":181.0,"ss":48.0,"used":true,"gnssid":0,"svid":17},{"PRN":7,"el":34.0,"az":117.0,"ss":41.0,"used":true,"gnssid":0,"svid":7},{"PRN":15,"el":27.0,"az":306.0,"ss":36.0,"used":true,"gnssid":0,"svid":15},{"PRN":11,"el":27.0,"az":64.0,"ss":40.0,"used":true,"gnssid":0,"svid":11},{"PRN":19,"el":20.0,"az":193.0,"ss":39.0,"used":true,"gnssid":0,"svid":19},{"PRN":1,"el":18.0,"az":90.0,"ss":37.0,"used":true,"gnssid":0,"svid":1},{"PRN":8,"el":9.0,"az":39.0,"ss":18.0,"used":true,"gnssid":0,"svid":8},{"PRN":75,"el":58.0,"az":331.0,"ss":41.0,"used":true,"gnssid":6,"svid":11},{"PRN":84,"el":42.0,"az":60.0,"ss":34.0,"used":true,"gnssid":6,"svid":20},{"PRN":85,"el":37.0,"az":140.0,"ss":35.0,"used":true,"gnssid":6,"svid":21},{"PRN":65,"el":26.0,"az":244.0,"ss":32.0,"used":true,"gnssid":6,"svid":1},{"PRN":73,"el":6.0,"az":91.0,"ss":32.0,"used":true,"gnssid":6,"svid":9},{"PRN":72,"el":5.0,"az":207.0,"ss":38.0,"used":true,"gnssid":6,"svid":8},{"PRN":76,"el":17.0,"az":291.0,"ss":0.0,"used":false,"gnssid":6,"svid":12}]}
$GPGSA,A,3,01,07,08,11,13,15,17,19,28,30,,,1.6,0.9,1.3*31
$GNGSA,A,3,01,07,08,11,13,15,17,19,28,30,,,1.6,0.9,1.3*2F
$GNGSA,A,3,65,72,73,75,84,85,,,,,,,1.6,0.9,1.3*21
$QZGSA,A,3,,,,,,,,,,,,,1.6,0.9,1.3*22
$BDGSA,A,3,,,,,,,,,,,,,1.6,0.9,1.3*2F
$PGLOR,1,FIX,1.0,1.0*20
$GPRMC,000156.00,A,4404.126998,N,12118.844143,W,000.0,,020220,,,A*6E
{"class":"TPV","mode":3,"time":"2020-02-02T00:01:56.000Z","ept":0.005,"lat":44.068783300,"lon":-121.314069050,"altHAE":1111.9000,"altMSL":1132.0000,"alt":1132.0000,"epx":6.550,"epy":7.638,"epv":29.900,"magvar":14.4,"speed":0.000,"climb":-0.100,"eps":16.49,"epc":59.80,"geoidSep":-20.100,"eph":7.600,"sep":30.400}
$PGLOR,SPL,20200201160155.1,POS,20200202000156.000,44.068783,-121.314069,4,4,0,1112,3,1.100000*49
$PGLOR,1,SPS,280942180,41,-1,0,0,1,GlSupl10StateEndSession,*65
$PGLOR,1,SPS,280942181,41,-1,0,0,8,GlSupl10StateEndSession,*6D
$GPGGA,000157.00,4404.126998,N,12118.844143,W,1,15,0.4,1132.0,M,-20.1,M,,*6E
$PGLOR,9,STA,000157.00,-0.001,0.000,212,1,4,0,P,F,L,0,C,3,S,00000002,0,5,R,000833F4,TPEF,16,101374,LC,,,*55
$PGLOR,1,UNC,000157.00,0.011,4.0,3.0,0.11,91.38,4.0,4.0,0.0*1A
$PGLOR,2,SAT,3,1,G28,34,1F,G30,31,0B,R11,36,17,G13,41,1F,G17,42,1F,R20,28,1F*42
$PGLOR,2,SAT,3,2,R21,30,1F,G07,34,1F,G15,30,1B,G11,34,1F,R01,27,1F,G19,33,17*4A
$PGLOR,2,SAT,3,3,G01,32,1F,G08,12,00,R09,27,1F,R08,,13,R12,,00,R19,,00*34
$PGLOR,1,SVC,GPS,3,1,10,013,UNKN,UNKN,017,UNKN,UNKN,028,UNKN,UNKN,030,UNKN,UNKN*7B
$PGLOR,1,SVC,GPS,3,2,10,007,UNKN,UNKN,011,UNKN,UNKN,015,UNKN,UNKN,019,UNKN,UNKN*7E
$PGLOR,1,SVC,GPS,3,3,10,001,UNKN,UNKN,008,CLIN,CLIN*7D
$PGLOR,1,SVC,GLO,2,1,08,059,UNKN,UNKN,060,UNKN,UNKN,061,UNKN,UNKN,063,UNKN,UNKN*76
$PGLOR,1,SVC,GLO,2,2,08,057,UNKN,UNKN,058,UNKN,UNKN,062,CLIN,CLIN,065,CLIN,CLIN*75
$PGLOR,2,SIO,TxERR,0,RxERR,0,TxCNT,501,RxCNT,4306,MLFRMPKT,0,DTMS,960,DTIN,35,53,DTOUT,811,908,HATMD,43*11
$PGLOR,0,LSQ,000157.00,,,,,,,,,,,,,,,,00*39
$PGLOR,2,AGC,G,-18.5,R,-24.6,B,60.1,E5A,,E5B,,L2,,RSV,*59
$GPGSV,3,1,10,28,78,315,39,30,68,108,37,13,52,281,47,17,43,181,48*7A
$GPGSV,3,2,10,07,34,117,41,15,27,306,36,11,27,064,40,19,20,193,39*72
$GPGSV,3,3,10,01,18,090,37,08,09,039,17*70
$GLGSV,2,1,08,75,58,331,41,84,42,060,34,85,37,140,35,65,26,244,32*60
$GLGSV,2,2,08,73,06,091,32,72,04,207,,76,17,291,,83,04,015,*64
{"class":"SKY","xdop":0.46,"ydop":0.54,"vdop":1.30,"tdop":0.69,"hdop":0.40,"gdop":1.46,"pdop":1.60,"nSat":18,"uSat":15,"satellites":[{"PRN":28,"el":78.0,"az":315.0,"ss":39.0,"used":true,"gnssid":0,"svid":28},{"PRN":30,"el":68.0,"az":108.0,"ss":37.0,"used":true,"gnssid":0,"svid":30},{"PRN":13,"el":52.0,"az":281.0,"ss":47.0,"used":true,"gnssid":0,"svid":13},{"PRN":17,"el":43.0,"az":181.0,"ss":48.0,"used":true,"gnssid":0,"svid":17},{"PRN":7,"el":34.0,"az":117.0,"ss":41.0,"used":true,"gnssid":0,"svid":7},{"PRN":15,"el":27.0,"az":306.0,"ss":36.0,"used":true,"gnssid":0,"svid":15},{"PRN":11,"el":27.0,"az":64.0,"ss":40.0,"used":true,"gnssid":0,"svid":11},{"PRN":19,"el":20.0,"az":193.0,"ss":39.0,"used":true,"gnssid":0,"svid":19},{"PRN":1,"el":18.0,"az":90.0,"ss":37.0,"used":true,"gnssid":0,"svid":1},{"PRN":8,"el":9.0,"az":39.0,"ss":17.0,"used":true,"gnssid":0,"svid":8},{"PRN":75,"el":58.0,"az":331.0,"ss":41.0,"used":true,"gnssid":6,"svid":11},{"PRN":84,"el":42.0,"az":60.0,"ss":34.0,"used":true,"gnssid":6,"svid":20},{"PRN":85,"el":37.0,"az":140.0,"ss":35.0,"used":true,"gnssid":6,"svid":21},{"PRN":65,"el":26.0,"az":244.0,"ss":32.0,"used":true,"gnssid":6,"svid":1},{"PRN":73,"el":6.0,"az":91.0,"ss":32.0,"used":true,"gnssid":6,"svid":9},{"PRN":72,"el":4.0,"az":207.0,"ss":0.0,"used":false,"gnssid":6,"svid":8},{"PRN":76,"el":17.0,"az":291.0,"ss":0.0,"used":false,"gnssid":6,"svid":12},{"PRN":83,"el":4.0,"az":15.0,"ss":0.0,"used":false,"gnssid":6,"svid":19}]}
$GPGSA,A,3,01,07,11,13,15,17,19,28,30,,,,1.8,0.9,1.5*31
$GNGSA,A,3,01,07,11,13,15,17,19,28,30,,,,1.8,0.9,1.5*2F
$GNGSA,A,3,65,73,75,84,85,,,,,,,,1.8,0.9,1.5*2C
$QZGSA,A,3,,,,,,,,,,,,,1.8,0.9,1.5*2A
$BDGSA,A,3,,,,,,,,,,,,,1.8,0.9,1.5*27
$PGLOR,1,FIX,1.0,1.0*20
$GPRMC,000157.00,A,4404.126998,N,12118.844143,W,000.0,,020220,,,A*6F
{"class":"TPV","mode":3,"time":"2020-02-02T00:01:57.000Z","ept":0.005,"lat":44.068783300,"lon":-121.314069050,"altHAE":1111.9000,"altMSL":1132.0000,"alt":1132.0000,"epx":6.959,"epy":8.105,"epv":29.900,"magvar":14.4,"speed":0.000,"climb":0.000,"eps":15.74,"epc":59.80,"geoidSep":-20.100,"eph":7.600,"sep":30.400}
$PGLOR,SPL,20200201160156.1,POS,20200202000157.000,44.068783,-121.314069,4,4,0,1112,3,1.100000*4B
$GPGGA,000158.00,4404.126998,N,12118.844143,W,1,15,0.4,1132.0,M,-20.1,M,,*61
$PGLOR,9,STA,000158.00,-0.001,0.000,212,1,4,0,P,F,L,0,C,3,S,00000002,0,5,R,000833F4,TPEF,16,102374,LC,,,*59
$PGLOR,1,UNC,000158.00,0.011,4.0,3.0,0.11,69.59,4.0,4.0,0.0*15
$PGLOR,2,SAT,3,1,G28,34,1F,G30,31,0B,R11,35,1F,G13,42,1F,G17,42,1F,R20,28,1F*33
$PGLOR,2,SAT,3,2,R21,31,1F,G07,35,1F,G15,30,1B,G11,34,17,R01,26,1F,G19,34,17*3D
$PGLOR,2,SAT,3,3,G01,32,1F,G08,12,00,R09,26,1F,R08,,13,R12,,00,R19,,00*35
$PGLOR,1,SVC,GPS,3,1,10,013,UNKN,UNKN,017,UNKN,UNKN,028,UNKN,UNKN,030,UNKN,UNKN*7B
$PGLOR,1,SVC,GPS,3,2,10,007,UNKN,UNKN,011,UNKN,UNKN,015,UNKN,UNKN,019,UNKN,UNKN*7E
$PGLOR,1,SVC,GPS,3,3,10,001,UNKN,UNKN,008,CLIN,CLIN*7D
$PGLOR,1,SVC,GLO,2,1,08,059,UNKN,UNKN,060,UNKN,UNKN,061,UNKN,UNKN,063,UNKN,UNKN*76
$PGLOR,1,SVC,GLO,2,2,08,057,UNKN,UNKN,058,LEFF,LEFF,062,CLIN,CLIN,065,CLIN,CLIN*75
$PGLOR,2,SIO,TxERR,0,RxERR,0,TxCNT,416,RxCNT,4363,MLFRMPKT,0,DTMS,1042,DTIN,39,60,DTOUT,591,981,HATMD,85*2F
$PGLOR,0,LSQ,000158.00,,,,,,,,,,,,,,,,00*36
$PGLOR,2,AGC,G,-18.2,R,-24.6,B,60.1,E5A,,E5B,,L2,,RSV,*5E
$GPGSV,3,1,10,28,78,315,39,30,68,108,37,13,52,281,47,17,43,181,47*75
$GPGSV,3,2,10,07,34,117,41,15,27,306,36,11,27,064,40,19,20,193,39*72
$GPGSV,3,3,10,01,18,090,37,08,09,039,17*70
$GLGSV,2,1,08,75,58,331,41,84,42,060,34,85,37,140,36,65,26,244,32*63
$GLGSV,2,2,08,73,06,091,32,72,04,207,,76,17,291,,83,04,015,*64
{"class":"SKY","xdop":0.46,"ydop":0.61,"vdop":1.50,"tdop":0.78,"hdop":0.40,"gdop":1.62,"pdop":1.80,"nSat":18,"uSat":14,"satellites":[{"PRN":28,"el":78.0,"az":315.0,"ss":39.0,"used":true,"gnssid":0,"svid":28},{"PRN":30,"el":68.0,"az":108.0,"ss":37.0,"used":true,"gnssid":0,"svid":30},{"PRN":13,"el":52.0,"az":281.0,"ss":47.0,"used":true,"gnssid":0,"svid":13},{"PRN":17,"el":43.0,"az":181.0,"ss":47.0,"used":true,"gnssid":0,"svid":17},{"PRN":7,"el":34.0,"az":117.0,"ss":41.0,"used":true,"gnssid":0,"svid":7},{"PRN":15,"el":27.0,"az":306.0,"ss":36.0,"used":true,"gnssid":0,"svid":15},{"PRN":11,"el":27.0,"az":64.0,"ss":40.0,"used":true,"gnssid":0,"svid":11},{"PRN":19,"el":20.0,"az":193.0,"ss":39.0,"used":true,"gnssid":0,"svid":19},{"PRN":1,"el":18.0,"az":90.0,"ss":37.0,"used":true,"gnssid":0,"svid":1},{"PRN":8,"el":9.0,"az":39.0,"ss":17.0,"used":false,"gnssid":0,"svid":8},{"PRN":75,"el":58.0,"az":331.0,"ss":41.0,"used":true,"gnssid":6,"svid":11},{"PRN":84,"el":42.0,"az":60.0,"ss":34.0,"used":true,"gnssid":6,"svid":20},{"PRN":85,"el":37.0,"az":140.0,"ss":36.0,"used":true,"gnssid":6,"svid":21},{"PRN":65,"el":26.0,"az":244.0,"ss":32.0,"used":true,"gnssid":6,"svid":1},{"PRN":73,"el":6.0,"az":91.0,"ss":32.0,"used":true,"gnssid":6,"svid":9},{"PRN":72,"el":4.0,"az":207.0,"ss":0.0,"used":false,"gnssid":6,"svid":8},{"PRN":76,"el":17.0,"az":291.0,"ss":0.0,"used":false,"gnssid":6,"svid":12},{"PRN":83,"el":4.0,"az":15.0,"ss":0.0,"used":false,"gnssid":6,"svid":19}]}
$GPGSA,A,3,01,07,11,13,15,17,19,28,30,,,,1.8,0.9,1.5*31
$GNGSA,A,3,01,07,11,13,15,17,19,28,30,,,,1.8,0.9,1.5*2F
$GNGSA,A,3,65,73,75,84,85,,,,,,,,1.8,0.9,1.5*2C
$QZGSA,A,3,,,,,,,,,,,,,1.8,0.9,1.5*2A
$BDGSA,A,3,,,,,,,,,,,,,1.8,0.9,1.5*27
$PGLOR,1,FIX,1.0,1.0*20
$GPRMC,000158.00,A,4404.126998,N,12118.844143,W,000.0,,020220,,,A*60
{"class":"TPV","mode":3,"time":"2020-02-02T00:01:58.000Z","ept":0.005,"lat":44.068783300,"lon":-121.314069050,"altHAE":1111.9000,"altMSL":1132.0000,"alt":1132.0000,"epx":6.960,"epy":9.191,"epv":34.500,"magvar":14.4,"speed":0.000,"climb":0.000,"eps":17.30,"epc":64.40,"geoidSep":-20.100,"eph":7.600,"sep":34.200}
$PGLOR,SPL,20200201160157.1,POS,20200202000158.000,44.068783,-121.314069,4,4,0,1112,3,1.100000*45
$GPGGA,000159.00,4404.126998,N,12118.844143,W,1,16,0.4,1131.9,M,-20.1,M,,*69
$PGLOR,9,STA,000159.00,-0.001,0.000,212,1,4,0,P,F,L,0,C,3,S,00000002,0,5,R,000833F4,TPEF,16,103374,LC,,,*59
$PGLOR,1,UNC,000159.00,0.011,4.0,3.0,0.11,180.00,4.0,4.0,0.0*2E
$PGLOR,2,SAT,3,1,G28,34,1F,G30,32,0B,R11,36,1F,G13,42,1F,G17,41,1F,R20,28,1F*30
$PGLOR,2,SAT,3,2,R21,30,1F,G07,35,1F,G15,31,13,G11,34,1F,R01,27,1F,G19,33,17*3B
$PGLOR,2,SAT,3,3,G01,32,1F,G08,13,00,R09,26,1F,R08,,13,R12,,00,R19,,00*34
$PGLOR,1,SVC,GPS,3,1,10,013,UNKN,UNKN,017,UNKN,UNKN,028,UNKN,UNKN,030,UNKN,UNKN*7B
$PGLOR,1,SVC,GPS,3,2,10,007,UNKN,UNKN,011,UNKN,UNKN,015,UNKN,UNKN,019,UNKN,UNKN*7E
$PGLOR,1,SVC,GPS,3,3,10,001,UNKN,UNKN,008,CLIN,CLIN*7D
$PGLOR,1,SVC,GLO,2,1,08,059,UNKN,UNKN,060,UNKN,UNKN,061,UNKN,UNKN,063,UNKN,UNKN*76
$PGLOR,1,SVC,GLO,2,2,08,057,UNKN,UNKN,058,LEFF,LEFF,062,CLIN,CLIN,065,CLIN,CLIN*75
$PGLOR,2,SIO,TxERR,0,RxERR,0,TxCNT,470,RxCNT,4291,MLFRMPKT,0,DTMS,1002,DTIN,49,69,DTOUT,811,932,HATMD,87*26
$PGLOR,0,LSQ,000159.00,,,,,,,,,,,,,,,,00*37
$PGLOR,2,AGC,G,-18.2,R,-24.7,B,60.1,E5A,,E5B,,L2,,RSV,*5F
$GPGSV,3,1,10,28,78,315,39,30,68,108,37,13,52,281,47,17,43,181,47*75
$GPGSV,3,2,10,07,34,117,41,15,27,306,36,11,27,064,40,19,20,193,39*72
$GPGSV,3,3,10,01,18,090,37,08,09,039,18*7F
$GLGSV,2,1,08,75,58,331,41,84,42,060,34,85,37,140,36,65,26,244,32*63
$GLGSV,2,2,08,73,06,091,32,72,04,207,,76,17,291,,83,04,015,*64
{"class":"SKY","xdop":0.46,"ydop":0.61,"vdop":1.50,"tdop":0.78,"hdop":0.40,"gdop":1.62,"pdop":1.80,"nSat":18,"uSat":14,"satellites":[{"PRN":28,"el":78.0,"az":315.0,"ss":39.0,"used":true,"gnssid":0,"svid":28},{"PRN":30,"el":68.0,"az":108.0,"ss":37.0,"used":true,"gnssid":0,"svid":30},{"PRN":13,"el":52.0,"az":281.0,"ss":47.0,"used":true,"gnssid":0,"svid":13},{"PRN":17,"el":43.0,"az":181.0,"ss":47.0,"used":true,"gnssid":0,"svid":17},{"PRN":7,"el":34.0,"az":117.0,"ss":41.0,"used":true,"gnssid":0,"svid":7},{"PRN":15,"el":27.0,"az":306.0,"ss":36.0,"used":true,"gnssid":0,"svid":15},{"PRN":11,"el":27.0,"az":64.0,"ss":40.0,"used":true,"gnssid":0,"svid":11},{"PRN":19,"el":20.0,"az":193.0,"ss":39.0,"used":true,"gnssid":0,"svid":19},{"PRN":1,"el":18.0,"az":90.0,"ss":37.0,"used":true,"gnssid":0,"svid":1},{"PRN":8,"el":9.0,"az":39.0,"ss":18.0,"used":false,"gnssid":0,"svid":8},{"PRN":75,"el":58.0,"az":331.0,"ss":41.0,"used":true,"gnssid":6,"svid":11},{"PRN":84,"el":42.0,"az":60.0,"ss":34.0,"used":true,"gnssid":6,"svid":20},{"PRN":85,"el":37.0,"az":140.0,"ss":36.0,"used":true,"gnssid":6,"svid":21},{"PRN":65,"el":26.0,"az":244.0,"ss":32.0,"used":true,"gnssid":6,"svid":1},{"PRN":73,"el":6.0,"az":91.0,"ss":32.0,"used":true,"gnssid":6,"svid":9},{"PRN":72,"el":4.0,"az":207.0,"ss":0.0,"used":false,"gnssid":6,"svid":8},{"PRN":76,"el":17.0,"az":291.0,"ss":0.0,"used":false,"gnssid":6,"svid":12},{"PRN":83,"el":4.0,"az":15.0,"ss":0.0,"used":false,"gnssid":6,"svid":19}]}
$GPGSA,A,3,01,07,08,11,13,15,17,19,28,30,,,1.8,0.9,1.5*39
$GNGSA,A,3,01,07,08,11,13,15,17,19,28,30,,,1.8,0.9,1.5*27
$GNGSA,A,3,65,73,75,84,85,,,,,,,,1.8,0.9,1.5*2C
$QZGSA,A,3,,,,,,,,,,,,,1.8,0.9,1.5*2A
$BDGSA,A,3,,,,,,,,,,,,,1.8,0.9,1.5*27
$PGLOR,1,FIX,1.0,1.0*20
$GPRMC,000159.00,A,4404.126998,N,12118.844143,W,000.0,,020220,,,A*61
{"class":"TPV","mode":3,"time":"2020-02-02T00:01:59.000Z","ept":0.005,"lat":44.068783300,"lon":-121.314069050,"altHAE":1111.8000,"altMSL":1131.9000,"alt":1131.9000,"epx":6.960,"epy":9.191,"epv":34.500,"magvar":14.4,"speed":0.000,"climb":-0.100,"eps":18.38,"epc":69.00,"geoidSep":-20.100,"eph":7.600,"sep":34.200}
$PGLOR,SPL,20200201160158.1,POS,20200202000159.000,44.068783,-121.314069,4,4,0,1112,3,1.100000*4B
$GPGGA,000200.00,4404.126998,N,12118.844143,W,1,16,0.4,1131.7,M,-20.1,M,,*68
$PGLOR,9,STA,000200.00,-0.001,0.000,213,1,4,0,P,F,L,0,C,3,S,00000002,0,5,R,000833F4,TPEF,16,104374,LC,,,*50
$PGLOR,1,UNC,000200.00,0.011,4.0,3.0,0.11,36.70,4.0,4.0,0.0*1A
$PGLOR,2,SAT,3,1,G28,34,1F,G30,32,03,R11,36,1F,G13,42,1F,G17,41,1F,R20,28,1F*41
$PGLOR,2,SAT,3,2,R21,30,1F,G07,35,1F,G15,31,1B,G11,34,1F,R01,27,1F,G19,33,1F*3B
$PGLOR,2,SAT,3,3,G01,32,1F,G08,14,00,R09,26,17,R08,,13,R12,,00,R19,,00*42
$PGLOR,1,SVC,GPS,3,1,10,013,UNKN,UNKN,017,UNKN,UNKN,028,UNKN,UNKN,030,UNKN,UNKN*7B
$PGLOR,1,SVC,GPS,3,2,10,007,UNKN,UNKN,011,UNKN,UNKN,015,UNKN,UNKN,019,UNKN,UNKN*7E
$PGLOR,1,SVC,GPS,3,3,10,001,UNKN,UNKN,008,CLIN,CLIN*7D
$PGLOR,1,SVC,GLO,2,1,08,059,UNKN,UNKN,060,UNKN,UNKN,061,UNKN,UNKN,063,UNKN,UNKN*76
$PGLOR,1,SVC,GLO,2,2,08,057,UNKN,UNKN,058,LEFF,LEFF,062,CLIN,CLIN,065,CLIN,CLIN*75
$PGLOR,2,SIO,TxERR,0,RxERR,0,TxCNT,414,RxCNT,4360,MLFRMPKT,0,DTMS,990,DTIN,38,58,DTOUT,593,932,HATMD,77*14
$PGLOR,0,LSQ,000200.00,,,,,,,,,,,,,,,,00*38
$PGLOR,2,AGC,G,-18.3,R,-24.6,B,60.1,E5A,,E5B,,L2,,RSV,*5F
$GPGSV,3,1,10,28,78,315,39,30,68,108,37,13,52,281,47,17,43,181,47*75
$GPGSV,3,2,10,07,34,117,41,15,27,306,36,11,27,064,40,19,20,193,39*72
$GPGSV,3,3,10,01,18,090,37,08,09,039,19*7E
$GLGSV,2,1,08,75,58,331,41,84,42,060,34,85,37,140,36,65,26,244,32*63
$GLGSV,2,2,08,73,06,091,32,72,04,207,,76,17,291,,83,04,015,*64
{"class":"SKY","xdop":0.46,"ydop":0.54,"vdop":1.50,"tdop":0.69,"hdop":0.40,"gdop":1.46,"pdop":1.80,"nSat":18,"uSat":15,"satellites":[{"PRN":28,"el":78.0,"az":315.0,"ss":39.0,"used":true,"gnssid":0,"svid":28},{"PRN":30,"el":68.0,"az":108.0,"ss":37.0,"used":true,"gnssid":0,"svid":30},{"PRN":13,"el":52.0,"az":281.0,"ss":47.0,"used":true,"gnssid":0,"svid":13},{"PRN":17,"el":43.0,"az":181.0,"ss":47.0,"used":true,"gnssid":0,"svid":17},{"PRN":7,"el":34.0,"az":117.0,"ss":41.0,"used":true,"gnssid":0,"svid":7},{"PRN":15,"el":27.0,"az":306.0,"ss":36.0,"used":true,"gnssid":0,"svid":15},{"PRN":11,"el":27.0,"az":64.0,"ss":40.0,"used":true,"gnssid":0,"svid":11},{"PRN":19,"el":20.0,"az":193.0,"ss":39.0,"used":true,"gnssid":0,"svid":19},{"PRN":1,"el":18.0,"az":90.0,"ss":37.0,"used":true,"gnssid":0,"svid":1},{"PRN":8,"el":9.0,"az":39.0,"ss":19.0,"used":true,"gnssid":0,"svid":8},{"PRN":75,"el":58.0,"az":331.0,"ss":41.0,"used":true,"gnssid":6,"svid":11},{"PRN":84,"el":42.0,"az":60.0,"ss":34.0,"used":true,"gnssid":6,"svid":20},{"PRN":85,"el":37.0,"az":140.0,"ss":36.0,"used":true,"gnssid":6,"svid":21},{"PRN":65,"el":26.0,"az":244.0,"ss":32.0,"used":true,"gnssid":6,"svid":1},{"PRN":73,"el":6.0,"az":91.0,"ss":32.0,"used":true,"gnssid":6,"svid":9},{"PRN":72,"el":4.0,"az":207.0,"ss":0.0,"used":false,"gnssid":6,"svid":8},{"PRN":76,"el":17.0,"az":291.0,"ss":0.0,"used":false,"gnssid":6,"svid":12},{"PRN":83,"el":4.0,"az":15.0,"ss":0.0,"used":false,"gnssid":6,"svid":19}]}
$GPGSA,A,3,01,07,08,11,13,15,17,19,28,30,,,1.8,0.9,1.5*39
$GNGSA,A,3,01,07,08,11,13,15,17,19,28,30,,,1.8,0.9,1.5*27
$GNGSA,A,3,65,73,75,84,85,,,,,,,,1.8,0.9,1.5*2C
$QZGSA,A,3,,,,,,,,,,,,,1.8,0.9,1.5*2A
$BDGSA,A,3,,,,,,,,,,,,,1.8,0.9,1.5*27
$PGLOR,1,FIX,1.0,1.0*20
$GPRMC,000200.00,A,4404.126998,N,12118.844143,W,000.0,,020220,,,A*6E
{"class":"TPV","mode":3,"time":"2020-02-02T00:02:00.000Z","ept":0.005,"lat":44.068783300,"lon":-121.314069050,"altHAE":1111.6000,"altMSL":1131.7000,"alt":1131.7000,"epx":6.959,"epy":8.105,"epv":34.500,"magvar":14.4,"speed":0.000,"climb":-0.200,"eps":17.30,"epc":69.00,"geoidSep":-20.100,"eph":7.600,"sep":34.200}
$PGLOR,SPL,20200201160159.1,POS,20200202000200.000,44.068783,-121.314069,4,4,0,1112,3,1.100000*45
$GPGGA,000201.00,4404.126998,N,12118.844143,W,1,16,0.4,1131.6,M,-20.1,M,,*68
