$GPZDA,220217.00,29,12,2037,00,00*6C
$GPGGA,220217.00,4404.1287,N,12118.8399,W,1,00,,2000022.17,M,-22.154,M,,*45
$GPRMC,220217.00,A,4404.1287,N,12118.8399,W,,,291237,14.4,E*7B
$GPGSA,A,3,,,,,,,,,,,,,,,*1C
{"class":"TPV","mode":3,"time":"2037-12-29T22:02:17.000Z","ept":0.005,"lat":44.068812094,"lon":-121.313997737,"altHAE":2000000.0125,"altMSL":2000022.1669,"alt":2000022.1669,"magvar":14.4,"climb":-3389.549,"ecefx":-3132489.00,"ecefy":-5149205.00,"ecefz":5804632.00,"ecefvx":9400.00,"ecefvy":10001.00,"ecefvz":9000.00,"ecefpAcc":50.00,"ecefvAcc":30.00,"geoidSep":-22.154}
{"class":"SKY","nSat":0,"uSat":0}
$GPZDA,220218.00,29,12,2037,00,00*63
$GPGGA,220218.00,4404.1287,N,12118.8399,W,1,06,,2000022.17,M,-22.154,M,,*4C
$GPRMC,220218.00,A,4404.1287,N,12118.8399,W,0.0000,,291237,14.4,E*6A
$GPGSA,A,3,1,2,3,4,6,0,,,,,,,,,*1E
{"class":"TPV","mode":3,"time":"2037-12-29T22:02:18.000Z","ept":0.005,"lat":44.068812094,"lon":-121.313997737,"altHAE":2000000.0125,"altMSL":2000022.1669,"alt":2000022.1669,"magvar":14.4,"speed":0.000,"climb":-3389.549,"ecefx":-3132489.00,"ecefy":-5149205.00,"ecefz":5804632.00,"ecefvx":9400.00,"ecefvy":10001.00,"ecefvz":9000.00,"ecefpAcc":50.00,"ecefvAcc":30.00,"geoidSep":-22.154}
{"class":"SKY","nSat":6,"uSat":5,"satellites":[{"PRN":1,"gnssid":0,"svid":1,"az":0.0,"ss":0.0,"used":true},{"PRN":2,"gnssid":0,"svid":2,"az":100.0,"ss":20.0,"used":true},{"PRN":3,"gnssid":0,"svid":3,"az":180.0,"ss":30.0,"used":true},{"PRN":4,"gnssid":0,"svid":4,"az":150.0,"ss":40.0,"used":true},{"PRN":5,"gnssid":0,"svid":5,"az":0.0,"ss":90.0,"used":false},{"PRN":6,"gnssid":0,"svid":6,"ss":255.0,"used":true}]}
$GPZDA,220219.00,29,12,2037,00,00*62
$GPGGA,220219.00,4404.1287,N,12118.8399,W,1,06,,2000022.17,M,-22.154,M,,*4D
$GPRMC,220219.00,A,4404.1287,N,12118.8399,W,0.0000,,291237,14.4,E*6B
$GPGSA,A,3,1,2,3,4,6,0,,,,,,,,,*1E
{"class":"TPV","mode":3,"time":"2037-12-29T22:02:19.000Z","ept":0.005,"lat":44.068812094,"lon":-121.313997737,"altHAE":2000000.0125,"altMSL":2000022.1669,"alt":2000022.1669,"magvar":14.4,"speed":0.000,"climb":-3389.549,"ecefx":-3132489.00,"ecefy":-5149205.00,"ecefz":5804632.00,"ecefvx":9400.00,"ecefvy":10001.00,"ecefvz":9000.00,"ecefpAcc":50.00,"ecefvAcc":30.00,"geoidSep":-22.154}
{"class":"SKY","nSat":6,"uSat":5,"satellites":[{"PRN":1,"gnssid":0,"svid":1,"az":0.0,"ss":0.0,"used":true},{"PRN":2,"gnssid":0,"svid":2,"az":100.0,"ss":20.0,"used":true},{"PRN":3,"gnssid":0,"svid":3,"az":180.0,"ss":30.0,"used":true},{"PRN":4,"gnssid":0,"svid":4,"az":150.0,"ss":40.0,"used":true},{"PRN":5,"gnssid":0,"svid":5,"az":0.0,"ss":90.0,"used":false},{"PRN":6,"gnssid":0,"svid":6,"ss":255.0,"used":true}]}
$GPZDA,220220.00,29,12,2037,00,00*68
$GPGGA,220220.00,4404.1287,N,12118.8399,W,1,06,,2000022.17,M,-22.154,M,,*47
$GPRMC,220220.00,A,4404.1287,N,12118.8399,W,0.0000,,291237,14.4,E*61
$GPGSA,A,3,1,2,3,4,6,0,,,,,,,,,*1E
{"class":"TPV","mode":3,"time":"2037-12-29T22:02:20.000Z","ept":0.005,"lat":44.068812094,"lon":-121.313997737,"altHAE":2000000.0125,"altMSL":2000022.1669,"alt":2000022.1669,"magvar":14.4,"speed":0.000,"climb":-3389.549,"ecefx":-3132489.00,"ecefy":-5149205.00,"ecefz":5804632.00,"ecefvx":9400.00,"ecefvy":10001.00,"ecefvz":9000.00,"ecefpAcc":50.00,"ecefvAcc":30.00,"geoidSep":-22.154}
{"class":"SKY","nSat":6,"uSat":5,"satellites":[{"PRN":1,"gnssid":0,"svid":1,"az":0.0,"ss":0.0,"used":true},{"PRN":2,"gnssid":0,"svid":2,"az":100.0,"ss":20.0,"used":true},{"PRN":3,"gnssid":0,"svid":3,"az":180.0,"ss":30.0,"used":true},{"PRN":4,"gnssid":0,"svid":4,"az":150.0,"ss":40.0,"used":true},{"PRN":5,"gnssid":0,"svid":5,"az":0.0,"ss":90.0,"used":false},{"PRN":6,"gnssid":0,"svid":6,"ss":255.0,"used":true}]}
$GPZDA,220221.00,29,12,2037,00,00*69
$GPGGA,220221.00,4404.1287,N,12118.8399,W,1,06,,2000022.17,M,-22.154,M,,*46
$GPRMC,220221.00,A,4404.1287,N,12118.8399,W,0.0000,,291237,14.4,E*60
$GPGSA,A,3,1,2,3,4,6,0,,,,,,,,,*1E
{"class":"TPV","mode":3,"time":"2037-12-29T22:02:21.000Z","ept":0.005,"lat":44.068812094,"lon":-121.313997737,"altHAE":2000000.0125,"altMSL":2000022.1669,"alt":2000022.1669,"magvar":14.4,"speed":0.000,"climb":-3389.549,"ecefx":-3132489.00,"ecefy":-5149205.00,"ecefz":5804632.00,"ecefvx":9400.00,"ecefvy":10001.00,"ecefvz":9000.00,"ecefpAcc":50.00,"ecefvAcc":30.00,"geoidSep":-22.154}
{"class":"SKY","nSat":6,"uSat":5,"satellites":[{"PRN":1,"gnssid":0,"svid":1,"az":0.0,"ss":0.0,"used":true},{"PRN":2,"gnssid":0,"svid":2,"az":100.0,"ss":20.0,"used":true},{"PRN":3,"gnssid":0,"svid":3,"az":180.0,"ss":30.0,"used":true},{"PRN":4,"gnssid":0,"svid":4,"az":150.0,"ss":40.0,"used":true},{"PRN":5,"gnssid":0,"svid":5,"az":0.0,"ss":90.0,"used":false},{"PRN":6,"gnssid":0,"svid":6,"ss":255.0,"used":true}]}
$GPZDA,220222.00,29,12,2037,00,00*6A
$GPGGA,220222.00,4404.1287,N,12118.8399,W,1,06,,2000022.17,M,-22.154,M,,*45
$GPRMC,220222.00,A,4404.1287,N,12118.8399,W,0.0000,,291237,14.4,E*63
$GPGSA,A,3,1,2,3,4,6,0,,,,,,,,,*1E
{"class":"TPV","mode":3,"time":"2037-12-29T22:02:22.000Z","ept":0.005,"lat":44.068812094,"lon":-121.313997737,"altHAE":2000000.0125,"altMSL":2000022.1669,"alt":2000022.1669,"magvar":14.4,"speed":0.000,"climb":-3389.549,"ecefx":-3132489.00,"ecefy":-5149205.00,"ecefz":5804632.00,"ecefvx":9400.00,"ecefvy":10001.00,"ecefvz":9000.00,"ecefpAcc":50.00,"ecefvAcc":30.00,"geoidSep":-22.154}
{"class":"SKY","nSat":6,"uSat":5,"satellites":[{"PRN":1,"gnssid":0,"svid":1,"az":0.0,"ss":0.0,"used":true},{"PRN":2,"gnssid":0,"svid":2,"az":100.0,"ss":20.0,"used":true},{"PRN":3,"gnssid":0,"svid":3,"az":180.0,"ss":30.0,"used":true},{"PRN":4,"gnssid":0,"svid":4,"az":150.0,"ss":40.0,"used":true},{"PRN":5,"gnssid":0,"svid":5,"az":0.0,"ss":90.0,"used":false},{"PRN":6,"gnssid":0,"svid":6,"ss":255.0,"used":true}]}
$GPZDA,220223.00,29,12,2037,00,00*6B
$GPGGA,220223.00,4404.1287,N,12118.8399,W,1,06,,2000022.17,M,-22.154,M,,*44
$GPRMC,220223.00,A,4404.1287,N,12118.8399,W,0.0000,,291237,14.4,E*62
$GPGSA,A,3,1,2,3,4,6,0,,,,,,,,,*1E
{"class":"TPV","mode":3,"time":"2037-12-29T22:02:23.000Z","ept":0.005,"lat":44.068812094,"lon":-121.313997737,"altHAE":2000000.0125,"altMSL":2000022.1669,"alt":2000022.1669,"magvar":14.4,"speed":0.000,"climb":-3389.549,"ecefx":-3132489.00,"ecefy":-5149205.00,"ecefz":5804632.00,"ecefvx":9400.00,"ecefvy":10001.00,"ecefvz":9000.00,"ecefpAcc":50.00,"ecefvAcc":30.00,"geoidSep":-22.154}
{"class":"SKY","nSat":6,"uSat":5,"satellites":[{"PRN":1,"gnssid":0,"svid":1,"az":0.0,"ss":0.0,"used":true},{"PRN":2,"gnssid":0,"svid":2,"az":100.0,"ss":20.0,"used":true},{"PRN":3,"gnssid":0,"svid":3,"az":180.0,"ss":30.0,"used":true},{"PRN":4,"gnssid":0,"svid":4,"az":150.0,"ss":40.0,"used":true},{"PRN":5,"gnssid":0,"svid":5,"az":0.0,"ss":90.0,"used":false},{"PRN":6,"gnssid":0,"svid":6,"ss":255.0,"used":true}]}
$GPZDA,220224.00,29,12,2037,00,00*6C
$GPGGA,220224.00,4404.1287,N,12118.8399,W,1,06,,2000022.17,M,-22.154,M,,*43
$GPRMC,220224.00,A,4404.1287,N,12118.8399,W,0.0000,,291237,14.4,E*65
$GPGSA,A,3,1,2,3,4,6,0,,,,,,,,,*1E
{"class":"TPV","mode":3,"time":"2037-12-29T22:02:24.000Z","ept":0.005,"lat":44.068812094,"lon":-121.313997737,"altHAE":2000000.0125,"altMSL":2000022.1669,"alt":2000022.1669,"magvar":14.4,"speed":0.000,"climb":-3389.549,"ecefx":-3132489.00,"ecefy":-5149205.00,"ecefz":5804632.00,"ecefvx":9400.00,"ecefvy":10001.00,"ecefvz":9000.00,"ecefpAcc":50.00,"ecefvAcc":30.00,"geoidSep":-22.154}
{"class":"SKY","nSat":6,"uSat":5,"satellites":[{"PRN":1,"gnssid":0,"svid":1,"az":0.0,"ss":0.0,"used":true},{"PRN":2,"gnssid":0,"svid":2,"az":100.0,"ss":20.0,"used":true},{"PRN":3,"gnssid":0,"svid":3,"az":180.0,"ss":30.0,"used":true},{"PRN":4,"gnssid":0,"svid":4,"az":150.0,"ss":40.0,"used":true},{"PRN":5,"gnssid":0,"svid":5,"az":0.0,"ss":90.0,"used":false},{"PRN":6,"gnssid":0,"svid":6,"ss":255.0,"used":true}]}
$GPZDA,220225.00,29,12,2037,00,00*6D
$GPGGA,220225.00,4404.1287,N,12118.8399,W,1,06,,2000022.17,M,-22.154,M,,*42
$GPRMC,220225.00,A,4404.1287,N,12118.8399,W,0.0000,,291237,14.4,E*64
$GPGSA,A,3,1,2,3,4,6,0,,,,,,,,,*1E
{"class":"TPV","mode":3,"time":"2037-12-29T22:02:25.000Z","ept":0.005,"lat":44.068812094,"lon":-121.313997737,"altHAE":2000000.0125,"altMSL":2000022.1669,"alt":2000022.1669,"magvar":14.4,"speed":0.000,"climb":-3389.549,"ecefx":-3132489.00,"ecefy":-5149205.00,"ecefz":5804632.00,"ecefvx":9400.00,"ecefvy":10001.00,"ecefvz":9000.00,"ecefpAcc":50.00,"ecefvAcc":30.00,"geoidSep":-22.154}
{"class":"SKY","nSat":6,"uSat":5,"satellites":[{"PRN":1,"gnssid":0,"svid":1,"az":0.0,"ss":0.0,"used":true},{"PRN":2,"gnssid":0,"svid":2,"az":100.0,"ss":20.0,"used":true},{"PRN":3,"gnssid":0,"svid":3,"az":180.0,"ss":30.0,"used":true},{"PRN":4,"gnssid":0,"svid":4,"az":150.0,"ss":40.0,"used":true},{"PRN":5,"gnssid":0,"svid":5,"az":0.0,"ss":90.0,"used":false},{"PRN":6,"gnssid":0,"svid":6,"ss":255.0,"used":true}]}
$GPZDA,220226.00,29,12,2037,00,00*6E
$GPGGA,220226.00,4404.1287,N,12118.8399,W,1,06,,2000022.17,M,-22.154,M,,*41
$GPRMC,220226.00,A,4404.1287,N,12118.8399,W,0.0000,,291237,14.4,E*67
$GPGSA,A,3,1,2,3,4,6,0,,,,,,,,,*1E
{"class":"TPV","mode":3,"time":"2037-12-29T22:02:26.000Z","ept":0.005,"lat":44.068812094,"lon":-121.313997737,"altHAE":2000000.0125,"altMSL":2000022.1669,"alt":2000022.1669,"magvar":14.4,"speed":0.000,"climb":-3389.549,"ecefx":-3132489.00,"ecefy":-5149205.00,"ecefz":5804632.00,"ecefvx":9400.00,"ecefvy":10001.00,"ecefvz":9000.00,"ecefpAcc":50.00,"ecefvAcc":30.00,"geoidSep":-22.154}
{"class":"SKY","nSat":6,"uSat":5,"satellites":[{"PRN":1,"gnssid":0,"svid":1,"az":0.0,"ss":0.0,"used":true},{"PRN":2,"gnssid":0,"svid":2,"az":100.0,"ss":20.0,"used":true},{"PRN":3,"gnssid":0,"svid":3,"az":180.0,"ss":30.0,"used":true},{"PRN":4,"gnssid":0,"svid":4,"az":150.0,"ss":40.0,"used":true},{"PRN":5,"gnssid":0,"svid":5,"az":0.0,"ss":90.0,"used":false},{"PRN":6,"gnssid":0,"svid":6,"ss":255.0,"used":true}]}
$GPZDA,220227.00,29,12,2037,00,00*6F
$GPGGA,220227.00,4404.1287,N,12118.8399,W,1,06,,2000022.17,M,-22.154,M,,*40
$GPRMC,220227.00,A,4404.1287,N,12118.8399,W,0.0000,,291237,14.4,E*66
$GPGSA,A,3,1,2,3,4,6,0,,,,,,,,,*1E
{"class":"TPV","mode":3,"time":"2037-12-29T22:02:27.000Z","ept":0.005,"lat":44.068812094,"lon":-121.313997737,"altHAE":2000000.0125,"altMSL":2000022.1669,"alt":2000022.1669,"magvar":14.4,"speed":0.000,"climb":-3389.549,"ecefx":-3132489.00,"ecefy":-5149205.00,"ecefz":5804632.00,"ecefvx":9400.00,"ecefvy":10001.00,"ecefvz":9000.00,"ecefpAcc":50.00,"ecefvAcc":30.00,"geoidSep":-22.154}
{"class":"SKY","nSat":6,"uSat":5,"satellites":[{"PRN":1,"gnssid":0,"svid":1,"az":0.0,"ss":0.0,"used":true},{"PRN":2,"gnssid":0,"svid":2,"az":100.0,"ss":20.0,"used":true},{"PRN":3,"gnssid":0,"svid":3,"az":180.0,"ss":30.0,"used":true},{"PRN":4,"gnssid":0,"svid":4,"az":150.0,"ss":40.0,"used":true},{"PRN":5,"gnssid":0,"svid":5,"az":0.0,"ss":90.0,"used":false},{"PRN":6,"gnssid":0,"svid":6,"ss":255.0,"used":true}]}
