{"class":"SKY","hdop":0.92,"pdop":1.76,"tdop":1.08,"vdop":1.50}
$GPZDA,,00,01,1900,00,00*41
$GPGGA,,4404.1275,N,12118.8459,W,1,14,0.92,1127.61,M,-22.155,M,,*4E
$GPRMC,,A,4404.1275,N,12118.8459,W,0.0197,205.793,,14.4,E*6E
$GPGSA,A,3,81,82,94,11,8,13,17,28,30,7,18,,1.8,0.9,1.5*33
{"class":"TPV","mode":3,"lat":44.068791000,"lon":-121.314098950,"altHAE":1105.4559,"altMSL":1127.6104,"alt":1127.6104,"epv":1.415,"track":205.7930,"magtrack":220.2115,"magvar":14.4,"speed":0.010,"climb":-0.011,"eps":0.02,"ecefx":-2386055.47,"ecefy":-3922197.29,"ecefz":4414355.62,"ecefvx":0.00,"ecefvy":0.00,"ecefvz":-0.01,"ecefpAcc":1.66,"ecefvAcc":0.02,"velN":-0.009,"velE":-0.004,"velD":0.011,"geoidSep":-22.155,"eph":0.865,"sep":33.385}
{"class":"SKY","hdop":0.92,"pdop":1.76,"tdop":1.08,"vdop":1.50,"nSat":15,"uSat":14,"satellites":[{"PRN":81,"gnssid":2,"svid":11,"az":124.0,"ss":42.0,"used":true},{"PRN":82,"gnssid":2,"svid":12,"az":64.0,"ss":43.0,"used":true},{"PRN":94,"gnssid":2,"svid":24,"az":72.0,"ss":49.0,"used":true},{"PRN":11,"gnssid":0,"svid":11,"az":102.0,"ss":47.0,"used":true},{"PRN":8,"gnssid":0,"svid":8,"az":48.0,"ss":42.0,"used":true},{"PRN":133,"gnssid":1,"svid":14,"az":192.0,"ss":47.0,"used":false},{"PRN":13,"gnssid":0,"svid":13,"az":306.0,"ss":39.0,"used":true},{"PRN":17,"gnssid":0,"svid":17,"az":186.0,"ss":45.0,"used":true},{"PRN":28,"gnssid":0,"svid":28,"az":276.0,"ss":50.0,"used":true},{"PRN":30,"gnssid":0,"svid":30,"az":76.0,"ss":54.0,"used":true},{"PRN":7,"gnssid":0,"svid":7,"az":102.0,"ss":50.0,"used":true},{"PRN":18,"gnssid":0,"svid":18,"az":86.0,"ss":41.0,"used":true},{"PRN":131,"gnssid":1,"svid":12,"az":174.0,"ss":46.0,"used":true},{"PRN":135,"gnssid":1,"svid":16,"az":196.0,"ss":47.0,"used":true},{"PRN":138,"gnssid":1,"svid":19,"az":160.0,"ss":48.0,"used":true}]}
{"class":"SKY","hdop":0.92,"pdop":1.76,"tdop":1.08,"vdop":1.50}
$GPZDA,,00,01,1900,00,00*41
$GPGGA,,4404.1275,N,12118.8459,W,1,14,0.92,1127.61,M,-22.155,M,,*4E
$GPRMC,,A,4404.1275,N,12118.8459,W,0.0363,148.506,,14.4,E*63
$GPGSA,A,3,81,82,94,11,8,13,17,28,30,7,18,,1.8,0.9,1.5*33
{"class":"TPV","mode":3,"lat":44.068791176,"lon":-121.314098953,"altHAE":1105.4592,"altMSL":1127.6137,"alt":1127.6137,"epv":1.436,"track":148.5058,"magtrack":162.9242,"magvar":14.4,"speed":0.019,"climb":0.037,"eps":0.01,"ecefx":-2386055.46,"ecefy":-3922197.28,"ecefz":4414355.63,"ecefvx":-0.01,"ecefvy":-0.04,"ecefvz":0.01,"ecefpAcc":1.68,"ecefvAcc":0.02,"velN":-0.016,"velE":0.010,"velD":-0.037,"geoidSep":-22.155,"eph":0.878,"sep":33.386}
{"class":"SKY","hdop":0.92,"pdop":1.76,"tdop":1.08,"vdop":1.50,"nSat":15,"uSat":14,"satellites":[{"PRN":81,"gnssid":2,"svid":11,"az":124.0,"ss":42.0,"used":true},{"PRN":82,"gnssid":2,"svid":12,"az":64.0,"ss":43.0,"used":true},{"PRN":94,"gnssid":2,"svid":24,"az":72.0,"ss":49.0,"used":true},{"PRN":11,"gnssid":0,"svid":11,"az":102.0,"ss":47.0,"used":true},{"PRN":8,"gnssid":0,"svid":8,"az":48.0,"ss":42.0,"used":true},{"PRN":133,"gnssid":1,"svid":14,"az":192.0,"ss":46.0,"used":false},{"PRN":13,"gnssid":0,"svid":13,"az":306.0,"ss":39.0,"used":true},{"PRN":17,"gnssid":0,"svid":17,"az":186.0,"ss":45.0,"used":true},{"PRN":28,"gnssid":0,"svid":28,"az":276.0,"ss":50.0,"used":true},{"PRN":30,"gnssid":0,"svid":30,"az":76.0,"ss":54.0,"used":true},{"PRN":7,"gnssid":0,"svid":7,"az":102.0,"ss":50.0,"used":true},{"PRN":18,"gnssid":0,"svid":18,"az":86.0,"ss":41.0,"used":true},{"PRN":131,"gnssid":1,"svid":12,"az":174.0,"ss":46.0,"used":true},{"PRN":135,"gnssid":1,"svid":16,"az":196.0,"ss":47.0,"used":true},{"PRN":138,"gnssid":1,"svid":19,"az":160.0,"ss":48.0,"used":true}]}
$GPRMC,212919.25,V,,S,,W,,,290318,,*1D
$GPGSA,A,1,,,,,,,,,,,,,,,*1E
{"class":"TPV","mode":0,"time":"2018-03-29T21:29:19.250Z","ept":0.005}
$GPRMC,212919.50,V,,S,,W,,,290318,,*1F
$GPGSA,A,1,,,,,,,,,,,,,,,*1E
{"class":"TPV","mode":0,"time":"2018-03-29T21:29:19.500Z","ept":0.005}
$GPRMC,212919.75,V,,S,,W,,,290318,,*18
$GPGSA,A,1,,,,,,,,,,,,,,,*1E
{"class":"TPV","mode":0,"time":"2018-03-29T21:29:19.750Z","ept":0.005}
$GPRMC,212920.00,V,,S,,W,,,290318,,*10
$GPGSA,A,1,,,,,,,,,,,,,,,*1E
{"class":"TPV","mode":0,"time":"2018-03-29T21:29:20.000Z","ept":0.005}
$GPRMC,212920.25,V,,S,,W,,,290318,,*17
$GPGSA,A,1,,,,,,,,,,,,,,,*1E
{"class":"TPV","mode":0,"time":"2018-03-29T21:29:20.250Z","ept":0.005}
$GPRMC,212920.50,V,,S,,W,,,290318,,*15
$GPGSA,A,1,,,,,,,,,,,,,,,*1E
{"class":"TPV","mode":0,"time":"2018-03-29T21:29:20.500Z","ept":0.005}
$GPRMC,212920.75,V,,S,,W,,,290318,,*12
$GPGSA,A,1,,,,,,,,,,,,,,,*1E
{"class":"TPV","mode":0,"time":"2018-03-29T21:29:20.750Z","ept":0.005}
$GPRMC,212921.00,V,,S,,W,,,290318,,*11
$GPGSA,A,1,,,,,,,,,,,,,,,*1E
{"class":"TPV","mode":0,"time":"2018-03-29T21:29:21.000Z","ept":0.005}
$GPRMC,212921.25,V,,S,,W,,,290318,,*16
$GPGSA,A,1,,,,,,,,,,,,,,,*1E
{"class":"TPV","mode":0,"time":"2018-03-29T21:29:21.250Z","ept":0.005}
$GPRMC,212921.50,V,,S,,W,,,290318,,*14
$GPGSA,A,1,,,,,,,,,,,,,,,*1E
{"class":"TPV","mode":0,"time":"2018-03-29T21:29:21.500Z","ept":0.005}
$GPRMC,212921.75,V,,S,,W,,,290318,,*13
$GPGSA,A,1,,,,,,,,,,,,,,,*1E
{"class":"TPV","mode":0,"time":"2018-03-29T21:29:21.750Z","ept":0.005}
$GPRMC,212922.00,V,,S,,W,,,290318,,*12
$GPGSA,A,1,,,,,,,,,,,,,,,*1E
{"class":"TPV","mode":0,"time":"2018-03-29T21:29:22.000Z","ept":0.005}
$GPRMC,212922.25,V,,S,,W,,,290318,,*15
$GPGSA,A,1,,,,,,,,,,,,,,,*1E
{"class":"TPV","mode":0,"time":"2018-03-29T21:29:22.250Z","ept":0.005}
$GPRMC,212922.50,V,,S,,W,,,290318,,*17
$GPGSA,A,1,,,,,,,,,,,,,,,*1E
{"class":"TPV","mode":0,"time":"2018-03-29T21:29:22.500Z","ept":0.005}
$GPRMC,212922.75,V,,S,,W,,,290318,,*10
$GPGSA,A,1,,,,,,,,,,,,,,,*1E
{"class":"TPV","mode":0,"time":"2018-03-29T21:29:22.750Z","ept":0.005}
$GPRMC,212923.00,V,,S,,W,,,290318,,*13
$GPGSA,A,1,,,,,,,,,,,,,,,*1E
{"class":"TPV","mode":0,"time":"2018-03-29T21:29:23.000Z","ept":0.005}
$GPRMC,212923.25,V,,S,,W,,,290318,,*14
$GPGSA,A,1,,,,,,,,,,,,,,,*1E
{"class":"TPV","mode":0,"time":"2018-03-29T21:29:23.250Z","ept":0.005}
$GPRMC,212923.50,V,,S,,W,,,290318,,*16
$GPGSA,A,1,,,,,,,,,,,,,,,*1E
{"class":"TPV","mode":0,"time":"2018-03-29T21:29:23.500Z","ept":0.005}
$GPRMC,212923.75,V,,S,,W,,,290318,,*11
$GPGSA,A,1,,,,,,,,,,,,,,,*1E
{"class":"TPV","mode":0,"time":"2018-03-29T21:29:23.750Z","ept":0.005}
$GPRMC,212924.00,V,,S,,W,,,290318,,*14
$GPGSA,A,1,,,,,,,,,,,,,,,*1E
{"class":"TPV","mode":0,"time":"2018-03-29T21:29:24.000Z","ept":0.005}
$GPRMC,212924.25,V,,S,,W,,,290318,,*13
$GPGSA,A,1,,,,,,,,,,,,,,,*1E
{"class":"TPV","mode":0,"time":"2018-03-29T21:29:24.250Z","ept":0.005}
$GPRMC,212924.50,V,,S,,W,,,290318,,*11
$GPGSA,A,1,,,,,,,,,,,,,,,*1E
{"class":"TPV","mode":0,"time":"2018-03-29T21:29:24.500Z","ept":0.005}
$GPRMC,212924.75,V,,S,,W,,,290318,,*16
$GPGSA,A,1,,,,,,,,,,,,,,,*1E
{"class":"TPV","mode":0,"time":"2018-03-29T21:29:24.750Z","ept":0.005}
$GPRMC,212925.00,V,,S,,W,,,290318,,*15
$GPGSA,A,1,,,,,,,,,,,,,,,*1E
{"class":"TPV","mode":0,"time":"2018-03-29T21:29:25.000Z","ept":0.005}
$GPRMC,212925.25,V,,S,,W,,,290318,,*12
$GPGSA,A,1,,,,,,,,,,,,,,,*1E
{"class":"TPV","mode":0,"time":"2018-03-29T21:29:25.250Z","ept":0.005}
$GPRMC,212926.00,V,,S,,W,,,290318,,*16
$GPGSA,A,1,,,,,,,,,,,,,,,*1E
{"class":"TPV","mode":0,"time":"2018-03-29T21:29:26.000Z","ept":0.005}
$GPRMC,212926.25,V,,S,,W,,,290318,,*11
$GPGSA,A,1,,,,,,,,,,,,,,,*1E
{"class":"TPV","mode":0,"time":"2018-03-29T21:29:26.250Z","ept":0.005}
$GPRMC,212926.50,V,,S,,W,,,290318,,*13
$GPGSA,A,1,,,,,,,,,,,,,,,*1E
{"class":"TPV","mode":0,"time":"2018-03-29T21:29:26.500Z","ept":0.005}
$GPRMC,212926.75,V,,S,,W,,,290318,,*14
$GPGSA,A,1,,,,,,,,,,,,,,,*1E
{"class":"TPV","mode":0,"time":"2018-03-29T21:29:26.750Z","ept":0.005}
{"class":"SKY","hdop":1.39,"pdop":1.68,"tdop":1.01,"vdop":0.94}
$GPZDA,212927.00,29,03,2018,00,00*68
$GPGGA,212927.00,4404.1273,N,12118.8471,W,1,12,1.39,1148.82,M,-22.155,M,,*63
$GPRMC,212927.00,A,4404.1273,N,12118.8471,W,0.0063,284.306,290318,14.4,E*4B
$GPGSA,A,3,11,8,13,17,28,30,7,18,131,135,138,,1.7,1.4,0.9*0D
{"class":"TPV","mode":3,"time":"2018-03-29T21:29:27.000Z","ept":0.005,"lat":44.068788735,"lon":-121.314117709,"altHAE":1126.6632,"altMSL":1148.8178,"alt":1148.8178,"epv":3.054,"track":284.3061,"magtrack":298.7246,"magvar":14.4,"speed":0.003,"climb":0.032,"eps":0.02,"ecefx":-2386064.76,"ecefy":-3922209.68,"ecefz":4414370.18,"ecefvx":-0.01,"ecefvy":-0.02,"ecefvz":0.02,"ecefpAcc":5.44,"ecefvAcc":0.04,"velN":0.001,"velE":-0.003,"velD":-0.032,"geoidSep":-22.155,"eph":4.504,"sep":31.959}
{"class":"SKY","hdop":1.39,"pdop":1.68,"tdop":1.01,"vdop":0.94,"nSat":13,"uSat":12,"satellites":[{"PRN":11,"gnssid":0,"svid":11,"az":102.0,"ss":45.0,"used":true},{"PRN":8,"gnssid":0,"svid":8,"az":48.0,"ss":42.0,"used":true},{"PRN":133,"gnssid":1,"svid":14,"az":192.0,"ss":44.0,"used":false},{"PRN":13,"gnssid":0,"svid":13,"az":306.0,"ss":41.0,"used":true},{"PRN":17,"gnssid":0,"svid":17,"az":186.0,"ss":44.0,"used":true},{"PRN":28,"gnssid":0,"svid":28,"az":276.0,"ss":50.0,"used":true},{"PRN":30,"gnssid":0,"svid":30,"az":76.0,"ss":57.0,"used":true},{"PRN":7,"gnssid":0,"svid":7,"az":102.0,"ss":47.0,"used":true},{"PRN":18,"gnssid":0,"svid":18,"az":86.0,"ss":42.0,"used":true},{"PRN":131,"gnssid":1,"svid":12,"az":174.0,"ss":46.0,"used":true},{"PRN":135,"gnssid":1,"svid":16,"az":196.0,"ss":47.0,"used":true},{"PRN":138,"gnssid":1,"svid":19,"az":160.0,"ss":49.0,"used":true},{"PRN":1,"gnssid":0,"svid":1,"az":108.0,"ss":38.0,"used":true}]}
{"class":"SKY","hdop":0.95,"pdop":1.68,"tdop":1.01,"vdop":1.39}
$GPZDA,212927.25,29,03,2018,00,00*6F
$GPGGA,212927.25,4404.1273,N,12118.8471,W,1,12,0.95,1148.64,M,-22.155,M,,*6B
$GPRMC,212927.25,A,4404.1273,N,12118.8471,W,0.0333,147.776,290318,14.4,E*45
$GPGSA,A,3,11,8,13,17,28,30,7,18,131,135,138,,1.7,0.9,1.4*0D
{"class":"TPV","mode":3,"time":"2018-03-29T21:29:27.250Z","ept":0.005,"lat":44.068788810,"lon":-121.314117892,"altHAE":1126.4810,"altMSL":1148.6356,"alt":1148.6356,"epv":4.443,"track":147.7758,"magtrack":162.1942,"magvar":14.4,"speed":0.017,"climb":0.022,"eps":0.02,"epc":29.99,"ecefx":-2386064.70,"ecefy":-3922209.55,"ecefz":4414370.06,"ecefvx":-0.01,"ecefvy":-0.03,"ecefvz":0.01,"ecefpAcc":5.37,"ecefvAcc":0.03,"velN":-0.015,"velE":0.009,"velD":-0.022,"geoidSep":-22.155,"eph":3.020,"sep":31.960}
{"class":"SKY","hdop":0.95,"pdop":1.68,"tdop":1.01,"vdop":1.39,"nSat":13,"uSat":12,"satellites":[{"PRN":11,"gnssid":0,"svid":11,"az":102.0,"ss":45.0,"used":true},{"PRN":8,"gnssid":0,"svid":8,"az":48.0,"ss":43.0,"used":true},{"PRN":133,"gnssid":1,"svid":14,"az":192.0,"ss":45.0,"used":false},{"PRN":13,"gnssid":0,"svid":13,"az":306.0,"ss":41.0,"used":true},{"PRN":17,"gnssid":0,"svid":17,"az":186.0,"ss":44.0,"used":true},{"PRN":28,"gnssid":0,"svid":28,"az":276.0,"ss":50.0,"used":true},{"PRN":30,"gnssid":0,"svid":30,"az":76.0,"ss":57.0,"used":true},{"PRN":7,"gnssid":0,"svid":7,"az":102.0,"ss":47.0,"used":true},{"PRN":18,"gnssid":0,"svid":18,"az":86.0,"ss":42.0,"used":true},{"PRN":131,"gnssid":1,"svid":12,"az":174.0,"ss":47.0,"used":true},{"PRN":135,"gnssid":1,"svid":16,"az":196.0,"ss":47.0,"used":true},{"PRN":138,"gnssid":1,"svid":19,"az":160.0,"ss":49.0,"used":true},{"PRN":1,"gnssid":0,"svid":1,"az":108.0,"ss":38.0,"used":true}]}
{"class":"SKY","hdop":0.95,"pdop":1.68,"tdop":1.01,"vdop":1.39}
$GPZDA,212927.50,29,03,2018,00,00*6D
$GPGGA,212927.50,4404.1273,N,12118.8470,W,1,12,0.95,1148.51,M,-22.155,M,,*6E
$GPRMC,212927.50,A,4404.1273,N,12118.8470,W,0.0307,101.597,290318,14.4,E*4E
$GPGSA,A,3,11,8,13,17,28,30,7,18,131,135,138,,1.7,0.9,1.4*0D
{"class":"TPV","mode":3,"time":"2018-03-29T21:29:27.500Z","ept":0.005,"lat":44.068788364,"lon":-121.314116991,"altHAE":1126.3537,"altMSL":1148.5082,"alt":1148.5082,"epv":4.415,"track":101.5969,"magtrack":116.0153,"magvar":14.4,"speed":0.016,"climb":0.009,"eps":0.01,"epc":35.43,"ecefx":-2386064.61,"ecefy":-3922209.54,"ecefz":4414369.94,"ecefvx":0.01,"ecefvy":-0.02,"ecefvz":0.00,"ecefpAcc":5.34,"ecefvAcc":0.01,"velN":-0.003,"velE":0.015,"velD":-0.009,"geoidSep":-22.155,"eph":2.999,"sep":31.960}
{"class":"SKY","hdop":0.95,"pdop":1.68,"tdop":1.01,"vdop":1.39,"nSat":13,"uSat":12,"satellites":[{"PRN":11,"gnssid":0,"svid":11,"az":102.0,"ss":45.0,"used":true},{"PRN":8,"gnssid":0,"svid":8,"az":48.0,"ss":43.0,"used":true},{"PRN":133,"gnssid":1,"svid":14,"az":192.0,"ss":44.0,"used":false},{"PRN":13,"gnssid":0,"svid":13,"az":306.0,"ss":42.0,"used":true},{"PRN":17,"gnssid":0,"svid":17,"az":186.0,"ss":44.0,"used":true},{"PRN":28,"gnssid":0,"svid":28,"az":276.0,"ss":50.0,"used":true},{"PRN":30,"gnssid":0,"svid":30,"az":76.0,"ss":56.0,"used":true},{"PRN":7,"gnssid":0,"svid":7,"az":102.0,"ss":47.0,"used":true},{"PRN":18,"gnssid":0,"svid":18,"az":86.0,"ss":42.0,"used":true},{"PRN":131,"gnssid":1,"svid":12,"az":174.0,"ss":47.0,"used":true},{"PRN":135,"gnssid":1,"svid":16,"az":196.0,"ss":47.0,"used":true},{"PRN":138,"gnssid":1,"svid":19,"az":160.0,"ss":49.0,"used":true},{"PRN":1,"gnssid":0,"svid":1,"az":108.0,"ss":37.0,"used":true}]}
{"class":"SKY","hdop":0.95,"pdop":1.68,"tdop":1.01,"vdop":1.39}
$GPZDA,212927.75,29,03,2018,00,00*6A
$GPGGA,212927.75,4404.1273,N,12118.8470,W,1,12,0.95,1148.44,M,-22.155,M,,*6D
$GPRMC,212927.75,A,4404.1273,N,12118.8470,W,0.0047,310.070,290318,14.4,E*40
$GPGSA,A,3,11,8,13,17,28,30,7,18,131,135,138,,1.7,0.9,1.4*0D
{"class":"TPV","mode":3,"time":"2018-03-29T21:29:27.750Z","ept":0.005,"lat":44.068788872,"lon":-121.314116757,"altHAE":1126.2901,"altMSL":1148.4447,"alt":1148.4447,"epv":4.398,"track":310.0705,"magtrack":324.4889,"magvar":14.4,"speed":0.002,"climb":-0.009,"eps":0.01,"epc":35.25,"ecefx":-2386064.55,"ecefy":-3922209.48,"ecefz":4414369.94,"ecefvx":0.00,"ecefvy":0.01,"ecefvz":-0.01,"ecefpAcc":5.32,"ecefvAcc":0.02,"velN":0.002,"velE":-0.002,"velD":0.009,"geoidSep":-22.155,"eph":2.986,"sep":31.961}
{"class":"SKY","hdop":0.95,"pdop":1.68,"tdop":1.01,"vdop":1.39,"nSat":13,"uSat":12,"satellites":[{"PRN":11,"gnssid":0,"svid":11,"az":102.0,"ss":45.0,"used":true},{"PRN":8,"gnssid":0,"svid":8,"az":48.0,"ss":43.0,"used":true},{"PRN":133,"gnssid":1,"svid":14,"az":192.0,"ss":45.0,"used":false},{"PRN":13,"gnssid":0,"svid":13,"az":306.0,"ss":42.0,"used":true},{"PRN":17,"gnssid":0,"svid":17,"az":186.0,"ss":44.0,"used":true},{"PRN":28,"gnssid":0,"svid":28,"az":276.0,"ss":50.0,"used":true},{"PRN":30,"gnssid":0,"svid":30,"az":76.0,"ss":56.0,"used":true},{"PRN":7,"gnssid":0,"svid":7,"az":102.0,"ss":47.0,"used":true},{"PRN":18,"gnssid":0,"svid":18,"az":86.0,"ss":42.0,"used":true},{"PRN":131,"gnssid":1,"svid":12,"az":174.0,"ss":46.0,"used":true},{"PRN":135,"gnssid":1,"svid":16,"az":196.0,"ss":47.0,"used":true},{"PRN":138,"gnssid":1,"svid":19,"az":160.0,"ss":49.0,"used":true},{"PRN":1,"gnssid":0,"svid":1,"az":108.0,"ss":37.0,"used":true}]}
{"class":"SKY","hdop":0.95,"pdop":1.68,"tdop":1.01,"vdop":1.39}
$GPZDA,212928.00,29,03,2018,00,00*67
$GPGGA,212928.00,4404.1273,N,12118.8461,W,1,12,0.95,1129.07,M,-22.155,M,,*60
$GPRMC,212928.00,A,4404.1273,N,12118.8461,W,0.0315,60.341,290318,14.4,E*7C
$GPGSA,A,3,11,8,13,17,28,30,7,18,131,135,138,,1.7,0.9,1.4*0D
{"class":"TPV","mode":3,"time":"2018-03-29T21:29:28.000Z","ept":0.005,"lat":44.068787737,"lon":-121.314101623,"altHAE":1106.9108,"altMSL":1129.0654,"alt":1129.0654,"epv":1.755,"track":60.3408,"magtrack":74.7592,"magvar":14.4,"speed":0.016,"climb":0.001,"eps":0.02,"epc":24.61,"ecefx":-2386056.32,"ecefy":-3922198.29,"ecefz":4414356.37,"ecefvx":0.01,"ecefvy":0.00,"ecefvz":0.01,"ecefpAcc":2.12,"ecefvAcc":0.03,"velN":0.008,"velE":0.014,"velD":-0.001,"geoidSep":-22.155,"eph":1.191,"sep":31.962}
{"class":"SKY","hdop":0.95,"pdop":1.68,"tdop":1.01,"vdop":1.39,"nSat":13,"uSat":12,"satellites":[{"PRN":11,"gnssid":0,"svid":11,"az":102.0,"ss":45.0,"used":true},{"PRN":8,"gnssid":0,"svid":8,"az":48.0,"ss":42.0,"used":true},{"PRN":133,"gnssid":1,"svid":14,"az":192.0,"ss":45.0,"used":false},{"PRN":13,"gnssid":0,"svid":13,"az":306.0,"ss":42.0,"used":true},{"PRN":17,"gnssid":0,"svid":17,"az":186.0,"ss":44.0,"used":true},{"PRN":28,"gnssid":0,"svid":28,"az":276.0,"ss":50.0,"used":true},{"PRN":30,"gnssid":0,"svid":30,"az":76.0,"ss":56.0,"used":true},{"PRN":7,"gnssid":0,"svid":7,"az":102.0,"ss":47.0,"used":true},{"PRN":18,"gnssid":0,"svid":18,"az":86.0,"ss":42.0,"used":true},{"PRN":131,"gnssid":1,"svid":12,"az":174.0,"ss":46.0,"used":true},{"PRN":135,"gnssid":1,"svid":16,"az":196.0,"ss":47.0,"used":true},{"PRN":138,"gnssid":1,"svid":19,"az":160.0,"ss":50.0,"used":true},{"PRN":1,"gnssid":0,"svid":1,"az":108.0,"ss":38.0,"used":true}]}
{"class":"SKY","hdop":0.95,"pdop":1.68,"tdop":1.01,"vdop":1.39}
$GPZDA,212928.25,29,03,2018,00,00*60
$GPGGA,212928.25,4404.1273,N,12118.8461,W,1,12,0.95,1128.98,M,-22.155,M,,*60
$GPRMC,212928.25,A,4404.1273,N,12118.8461,W,0.0404,155.231,290318,14.4,E*4D
$GPGSA,A,3,11,8,13,17,28,30,7,18,131,135,138,,1.7,0.9,1.4*0D
{"class":"TPV","mode":3,"time":"2018-03-29T21:29:28.250Z","ept":0.005,"lat":44.068787761,"lon":-121.314101649,"altHAE":1106.8264,"altMSL":1128.9810,"alt":1128.9810,"epv":1.736,"track":155.2310,"magtrack":169.6494,"magvar":14.4,"speed":0.021,"climb":0.007,"eps":0.01,"epc":13.96,"ecefx":-2386056.29,"ecefy":-3922198.23,"ecefz":4414356.31,"ecefvx":0.00,"ecefvy":-0.02,"ecefvz":-0.01,"ecefpAcc":2.10,"ecefvAcc":0.02,"velN":-0.019,"velE":0.009,"velD":-0.007,"geoidSep":-22.155,"eph":1.177,"sep":31.963}
{"class":"SKY","hdop":0.95,"pdop":1.68,"tdop":1.01,"vdop":1.39,"nSat":13,"uSat":12,"satellites":[{"PRN":11,"gnssid":0,"svid":11,"az":102.0,"ss":45.0,"used":true},{"PRN":8,"gnssid":0,"svid":8,"az":48.0,"ss":42.0,"used":true},{"PRN":133,"gnssid":1,"svid":14,"az":192.0,"ss":45.0,"used":false},{"PRN":13,"gnssid":0,"svid":13,"az":306.0,"ss":42.0,"used":true},{"PRN":17,"gnssid":0,"svid":17,"az":186.0,"ss":44.0,"used":true},{"PRN":28,"gnssid":0,"svid":28,"az":276.0,"ss":50.0,"used":true},{"PRN":30,"gnssid":0,"svid":30,"az":76.0,"ss":56.0,"used":true},{"PRN":7,"gnssid":0,"svid":7,"az":102.0,"ss":48.0,"used":true},{"PRN":18,"gnssid":0,"svid":18,"az":86.0,"ss":42.0,"used":true},{"PRN":131,"gnssid":1,"svid":12,"az":174.0,"ss":47.0,"used":true},{"PRN":135,"gnssid":1,"svid":16,"az":196.0,"ss":47.0,"used":true},{"PRN":138,"gnssid":1,"svid":19,"az":160.0,"ss":49.0,"used":true},{"PRN":1,"gnssid":0,"svid":1,"az":108.0,"ss":38.0,"used":true}]}
{"class":"SKY","hdop":0.95,"pdop":1.68,"tdop":1.01,"vdop":1.39}
$GPZDA,212928.50,29,03,2018,00,00*62
$GPGGA,212928.50,4404.1273,N,12118.8461,W,1,12,0.95,1128.78,M,-22.155,M,,*6C
$GPRMC,212928.50,A,4404.1273,N,12118.8461,W,0.0208,296.154,290318,14.4,E*49
$GPGSA,A,3,11,8,13,17,28,30,7,18,131,135,138,,1.7,0.9,1.4*0D
{"class":"TPV","mode":3,"time":"2018-03-29T21:29:28.500Z","ept":0.005,"lat":44.068788091,"lon":-121.314102178,"altHAE":1106.6263,"altMSL":1128.7809,"alt":1128.7809,"epv":1.721,"track":296.1535,"magtrack":310.5719,"magvar":14.4,"speed":0.011,"climb":-0.004,"eps":0.01,"epc":13.83,"ecefx":-2386056.24,"ecefy":-3922198.06,"ecefz":4414356.20,"ecefvx":-0.01,"ecefvy":0.01,"ecefvz":0.00,"ecefpAcc":2.08,"ecefvAcc":0.02,"velN":0.005,"velE":-0.010,"velD":0.004,"geoidSep":-22.155,"eph":1.166,"sep":31.964}
{"class":"SKY","hdop":0.95,"pdop":1.68,"tdop":1.01,"vdop":1.39,"nSat":13,"uSat":12,"satellites":[{"PRN":11,"gnssid":0,"svid":11,"az":102.0,"ss":45.0,"used":true},{"PRN":8,"gnssid":0,"svid":8,"az":48.0,"ss":43.0,"used":true},{"PRN":133,"gnssid":1,"svid":14,"az":192.0,"ss":45.0,"used":false},{"PRN":13,"gnssid":0,"svid":13,"az":306.0,"ss":41.0,"used":true},{"PRN":17,"gnssid":0,"svid":17,"az":186.0,"ss":44.0,"used":true},{"PRN":28,"gnssid":0,"svid":28,"az":276.0,"ss":50.0,"used":true},{"PRN":30,"gnssid":0,"svid":30,"az":76.0,"ss":56.0,"used":true},{"PRN":7,"gnssid":0,"svid":7,"az":102.0,"ss":48.0,"used":true},{"PRN":18,"gnssid":0,"svid":18,"az":86.0,"ss":42.0,"used":true},{"PRN":131,"gnssid":1,"svid":12,"az":174.0,"ss":47.0,"used":true},{"PRN":135,"gnssid":1,"svid":16,"az":196.0,"ss":47.0,"used":true},{"PRN":138,"gnssid":1,"svid":19,"az":160.0,"ss":49.0,"used":true},{"PRN":1,"gnssid":0,"svid":1,"az":108.0,"ss":38.0,"used":true}]}
{"class":"SKY","hdop":0.95,"pdop":1.68,"tdop":1.01,"vdop":1.39}
$GPZDA,212928.75,29,03,2018,00,00*65
$GPGGA,212928.75,4404.1273,N,12118.8462,W,1,12,0.95,1128.57,M,-22.155,M,,*65
$GPRMC,212928.75,A,4404.1273,N,12118.8462,W,0.0164,331.179,290318,14.4,E*47
$GPGSA,A,3,11,8,13,17,28,30,7,18,131,135,138,,1.7,0.9,1.4*0D
{"class":"TPV","mode":3,"time":"2018-03-29T21:29:28.750Z","ept":0.005,"lat":44.068788617,"lon":-121.314102594,"altHAE":1106.4121,"altMSL":1128.5667,"alt":1128.5667,"epv":1.697,"track":331.1789,"magtrack":345.5973,"magvar":14.4,"speed":0.008,"climb":0.004,"eps":0.02,"epc":13.67,"ecefx":-2386056.17,"ecefy":-3922197.88,"ecefz":4414356.09,"ecefvx":0.00,"ecefvy":0.00,"ecefvz":0.01,"ecefpAcc":2.05,"ecefvAcc":0.03,"velN":0.007,"velE":-0.004,"velD":-0.004,"geoidSep":-22.155,"eph":1.148,"sep":31.965}
{"class":"SKY","hdop":0.95,"pdop":1.68,"tdop":1.01,"vdop":1.39,"nSat":13,"uSat":12,"satellites":[{"PRN":11,"gnssid":0,"svid":11,"az":102.0,"ss":45.0,"used":true},{"PRN":8,"gnssid":0,"svid":8,"az":48.0,"ss":42.0,"used":true},{"PRN":133,"gnssid":1,"svid":14,"az":192.0,"ss":45.0,"used":false},{"PRN":13,"gnssid":0,"svid":13,"az":306.0,"ss":41.0,"used":true},{"PRN":17,"gnssid":0,"svid":17,"az":186.0,"ss":44.0,"used":true},{"PRN":28,"gnssid":0,"svid":28,"az":276.0,"ss":50.0,"used":true},{"PRN":30,"gnssid":0,"svid":30,"az":76.0,"ss":56.0,"used":true},{"PRN":7,"gnssid":0,"svid":7,"az":102.0,"ss":48.0,"used":true},{"PRN":18,"gnssid":0,"svid":18,"az":86.0,"ss":42.0,"used":true},{"PRN":131,"gnssid":1,"svid":12,"az":174.0,"ss":46.0,"used":true},{"PRN":135,"gnssid":1,"svid":16,"az":196.0,"ss":47.0,"used":true},{"PRN":138,"gnssid":1,"svid":19,"az":160.0,"ss":49.0,"used":true},{"PRN":1,"gnssid":0,"svid":1,"az":108.0,"ss":37.0,"used":true}]}
{"class":"SKY","hdop":0.95,"pdop":1.68,"tdop":1.01,"vdop":1.39}
$GPZDA,212929.00,29,03,2018,00,00*66
$GPGGA,212929.00,4404.1273,N,12118.8462,W,1,12,0.95,1128.41,M,-22.155,M,,*61
$GPRMC,212929.00,A,4404.1273,N,12118.8462,W,0.0466,130.192,290318,14.4,E*45
$GPGSA,A,3,11,8,13,17,28,30,7,18,131,135,138,,1.7,0.9,1.4*0D
{"class":"TPV","mode":3,"time":"2018-03-29T21:29:29.000Z","ept":0.005,"lat":44.068788843,"lon":-121.314102782,"altHAE":1106.2510,"altMSL":1128.4056,"alt":1128.4056,"epv":1.690,"track":130.1917,"magtrack":144.6101,"magvar":14.4,"speed":0.024,"climb":0.021,"eps":0.02,"epc":13.55,"ecefx":-2386056.11,"ecefy":-3922197.76,"ecefz":4414356.00,"ecefvx":0.00,"ecefvy":-0.03,"ecefvz":0.00,"ecefpAcc":2.04,"ecefvAcc":0.03,"velN":-0.015,"velE":0.018,"velD":-0.021,"geoidSep":-22.155,"eph":1.142,"sep":31.965}
{"class":"SKY","hdop":0.95,"pdop":1.68,"tdop":1.01,"vdop":1.39,"nSat":13,"uSat":12,"satellites":[{"PRN":11,"gnssid":0,"svid":11,"az":102.0,"ss":45.0,"used":true},{"PRN":8,"gnssid":0,"svid":8,"az":48.0,"ss":42.0,"used":true},{"PRN":133,"gnssid":1,"svid":14,"az":192.0,"ss":45.0,"used":false},{"PRN":13,"gnssid":0,"svid":13,"az":306.0,"ss":41.0,"used":true},{"PRN":17,"gnssid":0,"svid":17,"az":186.0,"ss":44.0,"used":true},{"PRN":28,"gnssid":0,"svid":28,"az":276.0,"ss":50.0,"used":true},{"PRN":30,"gnssid":0,"svid":30,"az":76.0,"ss":56.0,"used":true},{"PRN":7,"gnssid":0,"svid":7,"az":102.0,"ss":48.0,"used":true},{"PRN":18,"gnssid":0,"svid":18,"az":86.0,"ss":42.0,"used":true},{"PRN":131,"gnssid":1,"svid":12,"az":174.0,"ss":46.0,"used":true},{"PRN":135,"gnssid":1,"svid":16,"az":196.0,"ss":47.0,"used":true},{"PRN":138,"gnssid":1,"svid":19,"az":160.0,"ss":49.0,"used":true},{"PRN":1,"gnssid":0,"svid":1,"az":108.0,"ss":37.0,"used":true}]}
{"class":"SKY","hdop":0.95,"pdop":1.68,"tdop":1.01,"vdop":1.39}
$GPZDA,212929.25,29,03,2018,00,00*61
$GPGGA,212929.25,4404.1273,N,12118.8462,W,1,12,0.95,1128.26,M,-22.155,M,,*67
$GPRMC,212929.25,A,4404.1273,N,12118.8462,W,0.0187,200.870,290318,14.4,E*4D
$GPGSA,A,3,11,8,13,17,28,30,7,18,131,135,138,,1.7,0.9,1.4*0D
{"class":"TPV","mode":3,"time":"2018-03-29T21:29:29.250Z","ept":0.005,"lat":44.068788866,"lon":-121.314103188,"altHAE":1106.1090,"altMSL":1128.2635,"alt":1128.2635,"epv":1.670,"track":200.8703,"magtrack":215.2887,"magvar":14.4,"speed":0.010,"climb":0.001,"eps":0.01,"epc":13.44,"ecefx":-2386056.09,"ecefy":-3922197.65,"ecefz":4414355.90,"ecefvx":-0.01,"ecefvy":0.00,"ecefvz":-0.01,"ecefpAcc":2.02,"ecefvAcc":0.02,"velN":-0.009,"velE":-0.003,"velD":-0.001,"geoidSep":-22.155,"eph":1.128,"sep":31.966}
{"class":"SKY","hdop":0.95,"pdop":1.68,"tdop":1.01,"vdop":1.39,"nSat":13,"uSat":12,"satellites":[{"PRN":11,"gnssid":0,"svid":11,"az":102.0,"ss":45.0,"used":true},{"PRN":8,"gnssid":0,"svid":8,"az":48.0,"ss":42.0,"used":true},{"PRN":133,"gnssid":1,"svid":14,"az":192.0,"ss":45.0,"used":false},{"PRN":13,"gnssid":0,"svid":13,"az":306.0,"ss":41.0,"used":true},{"PRN":17,"gnssid":0,"svid":17,"az":186.0,"ss":44.0,"used":true},{"PRN":28,"gnssid":0,"svid":28,"az":276.0,"ss":50.0,"used":true},{"PRN":30,"gnssid":0,"svid":30,"az":76.0,"ss":56.0,"used":true},{"PRN":7,"gnssid":0,"svid":7,"az":102.0,"ss":48.0,"used":true},{"PRN":18,"gnssid":0,"svid":18,"az":86.0,"ss":42.0,"used":true},{"PRN":131,"gnssid":1,"svid":12,"az":174.0,"ss":46.0,"used":true},{"PRN":135,"gnssid":1,"svid":16,"az":196.0,"ss":47.0,"used":true},{"PRN":138,"gnssid":1,"svid":19,"az":160.0,"ss":49.0,"used":true},{"PRN":1,"gnssid":0,"svid":1,"az":108.0,"ss":37.0,"used":true}]}
{"class":"SKY","hdop":0.95,"pdop":1.68,"tdop":1.01,"vdop":1.39}
$GPZDA,212929.50,29,03,2018,00,00*63
$GPGGA,212929.50,4404.1273,N,12118.8462,W,1,12,0.95,1128.14,M,-22.155,M,,*64
$GPRMC,212929.50,A,4404.1273,N,12118.8462,W,0.0430,326.144,290318,14.4,E*4D
$GPGSA,A,3,11,8,13,17,28,30,7,18,131,135,138,,1.7,0.9,1.4*0D
{"class":"TPV","mode":3,"time":"2018-03-29T21:29:29.500Z","ept":0.005,"lat":44.068788962,"lon":-121.314103575,"altHAE":1105.9893,"altMSL":1128.1439,"alt":1128.1439,"epv":1.677,"track":326.1443,"magtrack":340.5628,"magvar":14.4,"speed":0.022,"climb":-0.010,"eps":0.02,"epc":13.39,"ecefx":-2386056.07,"ecefy":-3922197.56,"ecefz":4414355.82,"ecefvx":0.00,"ecefvy":0.02,"ecefvz":0.01,"ecefpAcc":2.02,"ecefvAcc":0.03,"velN":0.018,"velE":-0.012,"velD":0.010,"geoidSep":-22.155,"eph":1.131,"sep":31.967}
{"class":"SKY","hdop":0.95,"pdop":1.68,"tdop":1.01,"vdop":1.39,"nSat":13,"uSat":12,"satellites":[{"PRN":11,"gnssid":0,"svid":11,"az":102.0,"ss":45.0,"used":true},{"PRN":8,"gnssid":0,"svid":8,"az":48.0,"ss":42.0,"used":true},{"PRN":133,"gnssid":1,"svid":14,"az":192.0,"ss":44.0,"used":false},{"PRN":13,"gnssid":0,"svid":13,"az":306.0,"ss":41.0,"used":true},{"PRN":17,"gnssid":0,"svid":17,"az":186.0,"ss":44.0,"used":true},{"PRN":28,"gnssid":0,"svid":28,"az":276.0,"ss":50.0,"used":true},{"PRN":30,"gnssid":0,"svid":30,"az":76.0,"ss":56.0,"used":true},{"PRN":7,"gnssid":0,"svid":7,"az":102.0,"ss":48.0,"used":true},{"PRN":18,"gnssid":0,"svid":18,"az":86.0,"ss":41.0,"used":true},{"PRN":131,"gnssid":1,"svid":12,"az":174.0,"ss":47.0,"used":true},{"PRN":135,"gnssid":1,"svid":16,"az":196.0,"ss":47.0,"used":true},{"PRN":138,"gnssid":1,"svid":19,"az":160.0,"ss":49.0,"used":true},{"PRN":1,"gnssid":0,"svid":1,"az":108.0,"ss":37.0,"used":true}]}
{"class":"SKY","hdop":0.95,"pdop":1.68,"tdop":1.01,"vdop":1.39}
$GPZDA,212929.75,29,03,2018,00,00*64
$GPGGA,212929.75,4404.1273,N,12118.8462,W,1,12,0.95,1128.05,M,-22.155,M,,*63
$GPRMC,212929.75,A,4404.1273,N,12118.8462,W,0.0446,336.962,290318,14.4,E*46
$GPGSA,A,3,11,8,13,17,28,30,7,18,131,135,138,,1.7,0.9,1.4*0D
{"class":"TPV","mode":3,"time":"2018-03-29T21:29:29.750Z","ept":0.005,"lat":44.068789082,"lon":-121.314103526,"altHAE":1105.8925,"altMSL":1128.0471,"alt":1128.0471,"epv":1.675,"track":336.9622,"magtrack":351.3806,"magvar":14.4,"speed":0.023,"climb":-0.012,"eps":0.01,"epc":13.41,"ecefx":-2386056.02,"ecefy":-3922197.49,"ecefz":4414355.77,"ecefvx":0.00,"ecefvy":0.02,"ecefvz":0.01,"ecefpAcc":2.02,"ecefvAcc":0.01,"velN":0.021,"velE":-0.009,"velD":0.012,"geoidSep":-22.155,"eph":1.127,"sep":31.968}
{"class":"SKY","hdop":0.95,"pdop":1.68,"tdop":1.01,"vdop":1.39,"nSat":13,"uSat":12,"satellites":[{"PRN":11,"gnssid":0,"svid":11,"az":102.0,"ss":45.0,"used":true},{"PRN":8,"gnssid":0,"svid":8,"az":48.0,"ss":42.0,"used":true},{"PRN":133,"gnssid":1,"svid":14,"az":192.0,"ss":45.0,"used":false},{"PRN":13,"gnssid":0,"svid":13,"az":306.0,"ss":42.0,"used":true},{"PRN":17,"gnssid":0,"svid":17,"az":186.0,"ss":44.0,"used":true},{"PRN":28,"gnssid":0,"svid":28,"az":276.0,"ss":50.0,"used":true},{"PRN":30,"gnssid":0,"svid":30,"az":76.0,"ss":56.0,"used":true},{"PRN":7,"gnssid":0,"svid":7,"az":102.0,"ss":48.0,"used":true},{"PRN":18,"gnssid":0,"svid":18,"az":86.0,"ss":41.0,"used":true},{"PRN":131,"gnssid":1,"svid":12,"az":174.0,"ss":46.0,"used":true},{"PRN":135,"gnssid":1,"svid":16,"az":196.0,"ss":47.0,"used":true},{"PRN":138,"gnssid":1,"svid":19,"az":160.0,"ss":49.0,"used":true},{"PRN":1,"gnssid":0,"svid":1,"az":108.0,"ss":37.0,"used":true}]}
{"class":"SKY","hdop":0.95,"pdop":1.68,"tdop":1.01,"vdop":1.39}
$GPZDA,212930.00,29,03,2018,00,00*6E
$GPGGA,212930.00,4404.1273,N,12118.8462,W,1,12,0.95,1127.99,M,-22.155,M,,*63
$GPRMC,212930.00,A,4404.1273,N,12118.8462,W,0.0102,173.850,290318,14.4,E*4A
$GPGSA,A,3,11,8,13,17,28,30,7,18,131,135,138,,1.7,0.9,1.4*0D
{"class":"TPV","mode":3,"time":"2018-03-29T21:29:30.000Z","ept":0.005,"lat":44.068788800,"lon":-121.314103200,"altHAE":1105.8342,"altMSL":1127.9887,"alt":1127.9887,"epv":1.668,"track":173.8500,"magtrack":188.2684,"magvar":14.4,"speed":0.005,"climb":0.009,"eps":0.01,"epc":13.37,"ecefx":-2386055.99,"ecefy":-3922197.49,"ecefz":4414355.70,"ecefvx":0.00,"ecefvy":-0.01,"ecefvz":0.00,"ecefpAcc":2.01,"ecefvAcc":0.01,"velN":-0.005,"velE":0.001,"velD":-0.009,"geoidSep":-22.155,"eph":1.121,"sep":31.969}
{"class":"SKY","hdop":0.95,"pdop":1.68,"tdop":1.01,"vdop":1.39,"nSat":13,"uSat":12,"satellites":[{"PRN":11,"gnssid":0,"svid":11,"az":102.0,"ss":45.0,"used":true},{"PRN":8,"gnssid":0,"svid":8,"az":48.0,"ss":42.0,"used":true},{"PRN":133,"gnssid":1,"svid":14,"az":192.0,"ss":45.0,"used":false},{"PRN":13,"gnssid":0,"svid":13,"az":306.0,"ss":41.0,"used":true},{"PRN":17,"gnssid":0,"svid":17,"az":186.0,"ss":44.0,"used":true},{"PRN":28,"gnssid":0,"svid":28,"az":276.0,"ss":50.0,"used":true},{"PRN":30,"gnssid":0,"svid":30,"az":76.0,"ss":56.0,"used":true},{"PRN":7,"gnssid":0,"svid":7,"az":102.0,"ss":48.0,"used":true},{"PRN":18,"gnssid":0,"svid":18,"az":86.0,"ss":41.0,"used":true},{"PRN":131,"gnssid":1,"svid":12,"az":174.0,"ss":46.0,"used":true},{"PRN":135,"gnssid":1,"svid":16,"az":196.0,"ss":47.0,"used":true},{"PRN":138,"gnssid":1,"svid":19,"az":160.0,"ss":49.0,"used":true},{"PRN":1,"gnssid":0,"svid":1,"az":108.0,"ss":37.0,"used":true}]}
{"class":"SKY","hdop":0.95,"pdop":1.68,"tdop":1.01,"vdop":1.39}
$GPZDA,212930.25,29,03,2018,00,00*69
$GPGGA,212930.25,4404.1273,N,12118.8462,W,1,12,0.95,1127.94,M,-22.155,M,,*69
$GPRMC,212930.25,A,4404.1273,N,12118.8462,W,0.0028,44.356,290318,14.4,E*7C
$GPGSA,A,3,11,8,13,17,28,30,7,18,131,135,138,,1.7,0.9,1.4*0D
{"class":"TPV","mode":3,"time":"2018-03-29T21:29:30.250Z","ept":0.005,"lat":44.068788568,"lon":-121.314103286,"altHAE":1105.7841,"altMSL":1127.9386,"alt":1127.9386,"epv":1.664,"track":44.3564,"magtrack":58.7749,"magvar":14.4,"speed":0.001,"climb":0.013,"eps":0.01,"epc":13.33,"ecefx":-2386055.98,"ecefy":-3922197.47,"ecefz":4414355.65,"ecefvx":0.00,"ecefvy":-0.01,"ecefvz":0.01,"ecefpAcc":2.00,"ecefvAcc":0.01,"velN":0.001,"velE":0.001,"velD":-0.013,"geoidSep":-22.155,"eph":1.116,"sep":31.970}
{"class":"SKY","hdop":0.95,"pdop":1.68,"tdop":1.01,"vdop":1.39,"nSat":13,"uSat":12,"satellites":[{"PRN":11,"gnssid":0,"svid":11,"az":102.0,"ss":46.0,"used":true},{"PRN":8,"gnssid":0,"svid":8,"az":48.0,"ss":43.0,"used":true},{"PRN":133,"gnssid":1,"svid":14,"az":192.0,"ss":45.0,"used":false},{"PRN":13,"gnssid":0,"svid":13,"az":306.0,"ss":41.0,"used":true},{"PRN":17,"gnssid":0,"svid":17,"az":186.0,"ss":44.0,"used":true},{"PRN":28,"gnssid":0,"svid":28,"az":276.0,"ss":50.0,"used":true},{"PRN":30,"gnssid":0,"svid":30,"az":76.0,"ss":56.0,"used":true},{"PRN":7,"gnssid":0,"svid":7,"az":102.0,"ss":48.0,"used":true},{"PRN":18,"gnssid":0,"svid":18,"az":86.0,"ss":41.0,"used":true},{"PRN":131,"gnssid":1,"svid":12,"az":174.0,"ss":46.0,"used":true},{"PRN":135,"gnssid":1,"svid":16,"az":196.0,"ss":48.0,"used":true},{"PRN":138,"gnssid":1,"svid":19,"az":160.0,"ss":49.0,"used":true},{"PRN":1,"gnssid":0,"svid":1,"az":108.0,"ss":37.0,"used":true}]}
{"class":"SKY","hdop":0.95,"pdop":1.68,"tdop":1.01,"vdop":1.39}
$GPZDA,212930.50,29,03,2018,00,00*6B
$GPGGA,212930.50,4404.1273,N,12118.8462,W,1,12,0.95,1127.86,M,-22.155,M,,*68
$GPRMC,212930.50,A,4404.1273,N,12118.8462,W,0.0125,65.462,290318,14.4,E*71
$GPGSA,A,3,11,8,13,17,28,30,7,18,131,135,138,,1.7,0.9,1.4*0D
{"class":"TPV","mode":3,"time":"2018-03-29T21:29:30.500Z","ept":0.005,"lat":44.068788464,"lon":-121.314103206,"altHAE":1105.7032,"altMSL":1127.8578,"alt":1127.8578,"epv":1.653,"track":65.4619,"magtrack":79.8803,"magvar":14.4,"speed":0.006,"climb":0.012,"eps":0.02,"epc":13.27,"ecefx":-2386055.95,"ecefy":-3922197.43,"ecefz":4414355.58,"ecefvx":0.00,"ecefvy":-0.01,"ecefvz":0.01,"ecefpAcc":1.99,"ecefvAcc":0.03,"velN":0.003,"velE":0.006,"velD":-0.012,"geoidSep":-22.155,"eph":1.108,"sep":31.970}
{"class":"SKY","hdop":0.95,"pdop":1.68,"tdop":1.01,"vdop":1.39,"nSat":13,"uSat":12,"satellites":[{"PRN":11,"gnssid":0,"svid":11,"az":102.0,"ss":46.0,"used":true},{"PRN":8,"gnssid":0,"svid":8,"az":48.0,"ss":43.0,"used":true},{"PRN":133,"gnssid":1,"svid":14,"az":192.0,"ss":45.0,"used":false},{"PRN":13,"gnssid":0,"svid":13,"az":306.0,"ss":42.0,"used":true},{"PRN":17,"gnssid":0,"svid":17,"az":186.0,"ss":44.0,"used":true},{"PRN":28,"gnssid":0,"svid":28,"az":276.0,"ss":50.0,"used":true},{"PRN":30,"gnssid":0,"svid":30,"az":76.0,"ss":56.0,"used":true},{"PRN":7,"gnssid":0,"svid":7,"az":102.0,"ss":49.0,"used":true},{"PRN":18,"gnssid":0,"svid":18,"az":86.0,"ss":41.0,"used":true},{"PRN":131,"gnssid":1,"svid":12,"az":174.0,"ss":47.0,"used":true},{"PRN":135,"gnssid":1,"svid":16,"az":196.0,"ss":48.0,"used":true},{"PRN":138,"gnssid":1,"svid":19,"az":160.0,"ss":49.0,"used":true},{"PRN":1,"gnssid":0,"svid":1,"az":108.0,"ss":37.0,"used":true}]}
{"class":"SKY","hdop":0.95,"pdop":1.68,"tdop":1.01,"vdop":1.39}
$GPZDA,212930.75,29,03,2018,00,00*6C
$GPGGA,212930.75,4404.1273,N,12118.8462,W,1,12,0.95,1127.76,M,-22.155,M,,*60
$GPRMC,212930.75,A,4404.1273,N,12118.8462,W,0.0111,101.812,290318,14.4,E*49
$GPGSA,A,3,11,8,13,17,28,30,7,18,131,135,138,,1.7,0.9,1.4*0D
{"class":"TPV","mode":3,"time":"2018-03-29T21:29:30.750Z","ept":0.005,"lat":44.068788360,"lon":-121.314103248,"altHAE":1105.6009,"altMSL":1127.7555,"alt":1127.7555,"epv":1.645,"track":101.8120,"magtrack":116.2304,"magvar":14.4,"speed":0.006,"climb":0.032,"eps":0.01,"epc":13.19,"ecefx":-2386055.92,"ecefy":-3922197.37,"ecefz":4414355.51,"ecefvx":-0.01,"ecefvy":-0.02,"ecefvz":0.02,"ecefpAcc":1.98,"ecefvAcc":0.02,"velN":-0.001,"velE":0.006,"velD":-0.032,"geoidSep":-22.155,"eph":1.101,"sep":31.971}
{"class":"SKY","hdop":0.95,"pdop":1.68,"tdop":1.01,"vdop":1.39,"nSat":13,"uSat":12,"satellites":[{"PRN":11,"gnssid":0,"svid":11,"az":102.0,"ss":46.0,"used":true},{"PRN":8,"gnssid":0,"svid":8,"az":48.0,"ss":43.0,"used":true},{"PRN":133,"gnssid":1,"svid":14,"az":192.0,"ss":45.0,"used":false},{"PRN":13,"gnssid":0,"svid":13,"az":306.0,"ss":42.0,"used":true},{"PRN":17,"gnssid":0,"svid":17,"az":186.0,"ss":44.0,"used":true},{"PRN":28,"gnssid":0,"svid":28,"az":276.0,"ss":50.0,"used":true},{"PRN":30,"gnssid":0,"svid":30,"az":76.0,"ss":56.0,"used":true},{"PRN":7,"gnssid":0,"svid":7,"az":102.0,"ss":49.0,"used":true},{"PRN":18,"gnssid":0,"svid":18,"az":86.0,"ss":41.0,"used":true},{"PRN":131,"gnssid":1,"svid":12,"az":174.0,"ss":46.0,"used":true},{"PRN":135,"gnssid":1,"svid":16,"az":196.0,"ss":48.0,"used":true},{"PRN":138,"gnssid":1,"svid":19,"az":160.0,"ss":49.0,"used":true},{"PRN":1,"gnssid":0,"svid":1,"az":108.0,"ss":36.0,"used":true}]}
{"class":"SKY","hdop":0.95,"pdop":1.68,"tdop":1.01,"vdop":1.39}
$GPZDA,212931.00,29,03,2018,00,00*6F
$GPGGA,212931.00,4404.1273,N,12118.8462,W,1,12,0.95,1127.68,M,-22.155,M,,*6C
$GPRMC,212931.00,A,4404.1273,N,12118.8462,W,0.0164,323.270,290318,14.4,E*44
$GPGSA,A,3,11,8,13,17,28,30,7,18,131,135,138,,1.7,0.9,1.4*0D
{"class":"TPV","mode":3,"time":"2018-03-29T21:29:31.000Z","ept":0.005,"lat":44.068788239,"lon":-121.314102872,"altHAE":1105.5249,"altMSL":1127.6795,"alt":1127.6795,"epv":1.614,"track":323.2702,"magtrack":337.6887,"magvar":14.4,"speed":0.008,"climb":-0.002,"eps":0.01,"epc":13.04,"ecefx":-2386055.87,"ecefy":-3922197.35,"ecefz":4414355.44,"ecefvx":0.00,"ecefvy":0.01,"ecefvz":0.00,"ecefpAcc":1.94,"ecefvAcc":0.01,"velN":0.007,"velE":-0.005,"velD":0.002,"geoidSep":-22.155,"eph":1.080,"sep":31.972}
{"class":"SKY","hdop":0.95,"pdop":1.68,"tdop":1.01,"vdop":1.39,"nSat":13,"uSat":12,"satellites":[{"PRN":11,"gnssid":0,"svid":11,"az":102.0,"ss":46.0,"used":true},{"PRN":8,"gnssid":0,"svid":8,"az":48.0,"ss":42.0,"used":true},{"PRN":133,"gnssid":1,"svid":14,"az":192.0,"ss":45.0,"used":false},{"PRN":13,"gnssid":0,"svid":13,"az":306.0,"ss":41.0,"used":true},{"PRN":17,"gnssid":0,"svid":17,"az":186.0,"ss":44.0,"used":true},{"PRN":28,"gnssid":0,"svid":28,"az":276.0,"ss":50.0,"used":true},{"PRN":30,"gnssid":0,"svid":30,"az":76.0,"ss":56.0,"used":true},{"PRN":7,"gnssid":0,"svid":7,"az":102.0,"ss":49.0,"used":true},{"PRN":18,"gnssid":0,"svid":18,"az":86.0,"ss":41.0,"used":true},{"PRN":131,"gnssid":1,"svid":12,"az":174.0,"ss":46.0,"used":true},{"PRN":135,"gnssid":1,"svid":16,"az":196.0,"ss":47.0,"used":true},{"PRN":138,"gnssid":1,"svid":19,"az":160.0,"ss":49.0,"used":true},{"PRN":1,"gnssid":0,"svid":1,"az":108.0,"ss":36.0,"used":true}]}
{"class":"SKY","hdop":0.95,"pdop":1.68,"tdop":1.01,"vdop":1.39}
$GPZDA,212931.25,29,03,2018,00,00*68
$GPGGA,212931.25,4404.1273,N,12118.8462,W,1,12,0.95,1127.62,M,-22.155,M,,*61
$GPRMC,212931.25,A,4404.1273,N,12118.8462,W,0.0115,207.609,290318,14.4,E*48
$GPGSA,A,3,11,8,13,17,28,30,7,18,131,135,138,,1.7,0.9,1.4*0D
{"class":"TPV","mode":3,"time":"2018-03-29T21:29:31.250Z","ept":0.005,"lat":44.068788234,"lon":-121.314102610,"altHAE":1105.4692,"altMSL":1127.6237,"alt":1127.6237,"epv":1.588,"track":207.6093,"magtrack":222.0277,"magvar":14.4,"speed":0.006,"climb":0.008,"eps":0.01,"epc":12.81,"ecefx":-2386055.83,"ecefy":-3922197.33,"ecefz":4414355.40,"ecefvx":-0.01,"ecefvy":-0.01,"ecefvz":0.00,"ecefpAcc":1.91,"ecefvAcc":0.02,"velN":-0.005,"velE":-0.003,"velD":-0.008,"geoidSep":-22.155,"eph":1.062,"sep":31.973}
{"class":"SKY","hdop":0.95,"pdop":1.68,"tdop":1.01,"vdop":1.39,"nSat":13,"uSat":12,"satellites":[{"PRN":11,"gnssid":0,"svid":11,"az":102.0,"ss":46.0,"used":true},{"PRN":8,"gnssid":0,"svid":8,"az":48.0,"ss":42.0,"used":true},{"PRN":133,"gnssid":1,"svid":14,"az":192.0,"ss":45.0,"used":false},{"PRN":13,"gnssid":0,"svid":13,"az":306.0,"ss":41.0,"used":true},{"PRN":17,"gnssid":0,"svid":17,"az":186.0,"ss":44.0,"used":true},{"PRN":28,"gnssid":0,"svid":28,"az":276.0,"ss":50.0,"used":true},{"PRN":30,"gnssid":0,"svid":30,"az":76.0,"ss":56.0,"used":true},{"PRN":7,"gnssid":0,"svid":7,"az":102.0,"ss":49.0,"used":true},{"PRN":18,"gnssid":0,"svid":18,"az":86.0,"ss":41.0,"used":true},{"PRN":131,"gnssid":1,"svid":12,"az":174.0,"ss":46.0,"used":true},{"PRN":135,"gnssid":1,"svid":16,"az":196.0,"ss":47.0,"used":true},{"PRN":138,"gnssid":1,"svid":19,"az":160.0,"ss":49.0,"used":true},{"PRN":1,"gnssid":0,"svid":1,"az":108.0,"ss":37.0,"used":true}]}
{"class":"SKY","hdop":0.95,"pdop":1.68,"tdop":1.01,"vdop":1.39}
$GPZDA,212931.50,29,03,2018,00,00*6A
$GPGGA,212931.50,4404.1273,N,12118.8461,W,1,12,0.95,1127.55,M,-22.155,M,,*64
$GPRMC,212931.50,A,4404.1273,N,12118.8461,W,0.0199,321.130,290318,14.4,E*45
$GPGSA,A,3,11,8,13,17,28,30,7,18,131,135,138,,1.7,0.9,1.4*0D
{"class":"TPV","mode":3,"time":"2018-03-29T21:29:31.500Z","ept":0.005,"lat":44.068788339,"lon":-121.314102221,"altHAE":1105.3951,"altMSL":1127.5497,"alt":1127.5497,"epv":1.573,"track":321.1297,"magtrack":335.5481,"magvar":14.4,"speed":0.010,"climb":0.015,"eps":0.01,"epc":12.64,"ecefx":-2386055.78,"ecefy":-3922197.29,"ecefz":4414355.36,"ecefvx":-0.01,"ecefvy":0.00,"ecefvz":0.02,"ecefpAcc":1.89,"ecefvAcc":0.02,"velN":0.008,"velE":-0.006,"velD":-0.015,"geoidSep":-22.155,"eph":1.052,"sep":31.974}
{"class":"SKY","hdop":0.95,"pdop":1.68,"tdop":1.01,"vdop":1.39,"nSat":13,"uSat":12,"satellites":[{"PRN":11,"gnssid":0,"svid":11,"az":102.0,"ss":46.0,"used":true},{"PRN":8,"gnssid":0,"svid":8,"az":48.0,"ss":42.0,"used":true},{"PRN":133,"gnssid":1,"svid":14,"az":192.0,"ss":45.0,"used":false},{"PRN":13,"gnssid":0,"svid":13,"az":306.0,"ss":41.0,"used":true},{"PRN":17,"gnssid":0,"svid":17,"az":186.0,"ss":44.0,"used":true},{"PRN":28,"gnssid":0,"svid":28,"az":276.0,"ss":50.0,"used":true},{"PRN":30,"gnssid":0,"svid":30,"az":76.0,"ss":56.0,"used":true},{"PRN":7,"gnssid":0,"svid":7,"az":102.0,"ss":49.0,"used":true},{"PRN":18,"gnssid":0,"svid":18,"az":86.0,"ss":41.0,"used":true},{"PRN":131,"gnssid":1,"svid":12,"az":174.0,"ss":47.0,"used":true},{"PRN":135,"gnssid":1,"svid":16,"az":196.0,"ss":47.0,"used":true},{"PRN":138,"gnssid":1,"svid":19,"az":160.0,"ss":49.0,"used":true},{"PRN":1,"gnssid":0,"svid":1,"az":108.0,"ss":37.0,"used":true}]}
{"class":"SKY","hdop":0.95,"pdop":1.68,"tdop":1.01,"vdop":1.39}
$GPZDA,212931.75,29,03,2018,00,00*6D
$GPGGA,212931.75,4404.1273,N,12118.8461,W,1,12,0.95,1127.47,M,-22.155,M,,*60
$GPRMC,212931.75,A,4404.1273,N,12118.8461,W,0.0118,173.736,290318,14.4,E*4E
$GPGSA,A,3,11,8,13,17,28,30,7,18,131,135,138,,1.7,0.9,1.4*0D
{"class":"TPV","mode":3,"time":"2018-03-29T21:29:31.750Z","ept":0.005,"lat":44.068788473,"lon":-121.314102152,"altHAE":1105.3181,"altMSL":1127.4726,"alt":1127.4726,"epv":1.553,"track":173.7362,"magtrack":188.1546,"magvar":14.4,"speed":0.006,"climb":0.011,"eps":0.01,"epc":12.50,"ecefx":-2386055.74,"ecefy":-3922197.24,"ecefz":4414355.32,"ecefvx":-0.01,"ecefvy":-0.01,"ecefvz":0.00,"ecefpAcc":1.87,"ecefvAcc":0.01,"velN":-0.006,"velE":0.001,"velD":-0.011,"geoidSep":-22.155,"eph":1.039,"sep":31.975}
{"class":"SKY","hdop":0.95,"pdop":1.68,"tdop":1.01,"vdop":1.39,"nSat":13,"uSat":12,"satellites":[{"PRN":11,"gnssid":0,"svid":11,"az":102.0,"ss":46.0,"used":true},{"PRN":8,"gnssid":0,"svid":8,"az":48.0,"ss":43.0,"used":true},{"PRN":133,"gnssid":1,"svid":14,"az":192.0,"ss":45.0,"used":false},{"PRN":13,"gnssid":0,"svid":13,"az":306.0,"ss":41.0,"used":true},{"PRN":17,"gnssid":0,"svid":17,"az":186.0,"ss":44.0,"used":true},{"PRN":28,"gnssid":0,"svid":28,"az":276.0,"ss":50.0,"used":true},{"PRN":30,"gnssid":0,"svid":30,"az":76.0,"ss":56.0,"used":true},{"PRN":7,"gnssid":0,"svid":7,"az":102.0,"ss":49.0,"used":true},{"PRN":18,"gnssid":0,"svid":18,"az":86.0,"ss":41.0,"used":true},{"PRN":131,"gnssid":1,"svid":12,"az":174.0,"ss":46.0,"used":true},{"PRN":135,"gnssid":1,"svid":16,"az":196.0,"ss":47.0,"used":true},{"PRN":138,"gnssid":1,"svid":19,"az":160.0,"ss":49.0,"used":true},{"PRN":1,"gnssid":0,"svid":1,"az":108.0,"ss":36.0,"used":true}]}
{"class":"SKY","hdop":0.95,"pdop":1.68,"tdop":1.01,"vdop":1.39}
$GPZDA,212932.00,29,03,2018,00,00*6C
$GPGGA,212932.00,4404.1273,N,12118.8461,W,1,12,0.95,1127.41,M,-22.155,M,,*67
$GPRMC,212932.00,A,4404.1273,N,12118.8461,W,0.0203,4.972,290318,14.4,E*49
$GPGSA,A,3,11,8,13,17,28,30,7,18,131,135,138,,1.7,0.9,1.4*0D
{"class":"TPV","mode":3,"time":"2018-03-29T21:29:32.000Z","ept":0.005,"lat":44.068788431,"lon":-121.314102018,"altHAE":1105.2571,"altMSL":1127.4117,"alt":1127.4117,"epv":1.529,"track":4.9717,"magtrack":19.3902,"magvar":14.4,"speed":0.010,"climb":-0.021,"eps":0.00,"epc":12.33,"ecefx":-2386055.71,"ecefy":-3922197.21,"ecefz":4414355.27,"ecefvx":0.01,"ecefvy":0.02,"ecefvz":-0.01,"ecefpAcc":1.84,"ecefvAcc":0.01,"velN":0.010,"velE":0.001,"velD":0.021,"geoidSep":-22.155,"eph":1.022,"sep":31.975}
{"class":"SKY","hdop":0.95,"pdop":1.68,"tdop":1.01,"vdop":1.39,"nSat":13,"uSat":12,"satellites":[{"PRN":11,"gnssid":0,"svid":11,"az":102.0,"ss":46.0,"used":true},{"PRN":8,"gnssid":0,"svid":8,"az":48.0,"ss":43.0,"used":true},{"PRN":133,"gnssid":1,"svid":14,"az":192.0,"ss":45.0,"used":false},{"PRN":13,"gnssid":0,"svid":13,"az":306.0,"ss":41.0,"used":true},{"PRN":17,"gnssid":0,"svid":17,"az":186.0,"ss":43.0,"used":true},{"PRN":28,"gnssid":0,"svid":28,"az":276.0,"ss":50.0,"used":true},{"PRN":30,"gnssid":0,"svid":30,"az":76.0,"ss":56.0,"used":true},{"PRN":7,"gnssid":0,"svid":7,"az":102.0,"ss":49.0,"used":true},{"PRN":18,"gnssid":0,"svid":18,"az":86.0,"ss":41.0,"used":true},{"PRN":131,"gnssid":1,"svid":12,"az":174.0,"ss":46.0,"used":true},{"PRN":135,"gnssid":1,"svid":16,"az":196.0,"ss":48.0,"used":true},{"PRN":138,"gnssid":1,"svid":19,"az":160.0,"ss":49.0,"used":true},{"PRN":1,"gnssid":0,"svid":1,"az":108.0,"ss":37.0,"used":true}]}
{"class":"SKY","hdop":0.95,"pdop":1.68,"tdop":1.01,"vdop":1.39}
$GPZDA,212932.25,29,03,2018,00,00*6B
$GPGGA,212932.25,4404.1273,N,12118.8461,W,1,13,0.95,1127.36,M,-22.155,M,,*61
$GPRMC,212932.25,A,4404.1273,N,12118.8461,W,0.0246,42.007,290318,14.4,E*76
$GPGSA,A,3,94,11,8,13,17,28,30,7,18,131,135,,1.7,0.9,1.4*3A
{"class":"TPV","mode":3,"time":"2018-03-29T21:29:32.250Z","ept":0.005,"lat":44.068788333,"lon":-121.314101822,"altHAE":1105.2065,"altMSL":1127.3610,"alt":1127.3610,"epv":1.448,"track":42.0072,"magtrack":56.4256,"magvar":14.4,"speed":0.013,"climb":0.010,"eps":0.02,"epc":11.91,"ecefx":-2386055.68,"ecefy":-3922197.19,"ecefz":4414355.23,"ecefvx":0.01,"ecefvy":0.00,"ecefvz":0.01,"ecefpAcc":1.74,"ecefvAcc":0.03,"velN":0.009,"velE":0.008,"velD":-0.010,"geoidSep":-22.155,"eph":0.968,"sep":31.976}
{"class":"SKY","hdop":0.95,"pdop":1.68,"tdop":1.01,"vdop":1.39,"nSat":14,"uSat":13,"satellites":[{"PRN":94,"gnssid":2,"svid":24,"az":72.0,"ss":41.0,"used":true},{"PRN":11,"gnssid":0,"svid":11,"az":102.0,"ss":46.0,"used":true},{"PRN":8,"gnssid":0,"svid":8,"az":48.0,"ss":42.0,"used":true},{"PRN":133,"gnssid":1,"svid":14,"az":192.0,"ss":45.0,"used":false},{"PRN":13,"gnssid":0,"svid":13,"az":306.0,"ss":41.0,"used":true},{"PRN":17,"gnssid":0,"svid":17,"az":186.0,"ss":43.0,"used":true},{"PRN":28,"gnssid":0,"svid":28,"az":278.0,"ss":50.0,"used":true},{"PRN":30,"gnssid":0,"svid":30,"az":76.0,"ss":56.0,"used":true},{"PRN":7,"gnssid":0,"svid":7,"az":102.0,"ss":49.0,"used":true},{"PRN":18,"gnssid":0,"svid":18,"az":86.0,"ss":41.0,"used":true},{"PRN":131,"gnssid":1,"svid":12,"az":174.0,"ss":46.0,"used":true},{"PRN":135,"gnssid":1,"svid":16,"az":196.0,"ss":47.0,"used":true},{"PRN":138,"gnssid":1,"svid":19,"az":160.0,"ss":49.0,"used":true},{"PRN":1,"gnssid":0,"svid":1,"az":108.0,"ss":37.0,"used":true}]}
{"class":"SKY","hdop":0.95,"pdop":1.68,"tdop":1.01,"vdop":1.39}
$GPZDA,212932.50,29,03,2018,00,00*69
$GPGGA,212932.50,4404.1273,N,12118.8461,W,1,13,0.95,1127.31,M,-22.155,M,,*64
$GPRMC,212932.50,A,4404.1273,N,12118.8461,W,0.0296,356.267,290318,14.4,E*4B
$GPGSA,A,3,94,11,8,13,17,28,30,7,18,131,135,,1.7,0.9,1.4*3A
{"class":"TPV","mode":3,"time":"2018-03-29T21:29:32.500Z","ept":0.005,"lat":44.068788247,"lon":-121.314101500,"altHAE":1105.1575,"altMSL":1127.3120,"alt":1127.3120,"epv":1.432,"track":356.2674,"magtrack":10.6858,"magvar":14.4,"speed":0.015,"climb":0.003,"eps":0.01,"epc":11.52,"ecefx":-2386055.64,"ecefy":-3922197.18,"ecefz":4414355.19,"ecefvx":0.00,"ecefvy":0.01,"ecefvz":0.01,"ecefpAcc":1.72,"ecefvAcc":0.02,"velN":0.015,"velE":-0.001,"velD":-0.003,"geoidSep":-22.155,"eph":0.958,"sep":31.977}
{"class":"SKY","hdop":0.95,"pdop":1.68,"tdop":1.01,"vdop":1.39,"nSat":14,"uSat":13,"satellites":[{"PRN":94,"gnssid":2,"svid":24,"az":72.0,"ss":42.0,"used":true},{"PRN":11,"gnssid":0,"svid":11,"az":102.0,"ss":46.0,"used":true},{"PRN":8,"gnssid":0,"svid":8,"az":48.0,"ss":43.0,"used":true},{"PRN":133,"gnssid":1,"svid":14,"az":192.0,"ss":45.0,"used":false},{"PRN":13,"gnssid":0,"svid":13,"az":306.0,"ss":41.0,"used":true},{"PRN":17,"gnssid":0,"svid":17,"az":186.0,"ss":43.0,"used":true},{"PRN":28,"gnssid":0,"svid":28,"az":278.0,"ss":50.0,"used":true},{"PRN":30,"gnssid":0,"svid":30,"az":76.0,"ss":56.0,"used":true},{"PRN":7,"gnssid":0,"svid":7,"az":102.0,"ss":49.0,"used":true},{"PRN":18,"gnssid":0,"svid":18,"az":86.0,"ss":41.0,"used":true},{"PRN":131,"gnssid":1,"svid":12,"az":174.0,"ss":46.0,"used":true},{"PRN":135,"gnssid":1,"svid":16,"az":196.0,"ss":48.0,"used":true},{"PRN":138,"gnssid":1,"svid":19,"az":160.0,"ss":49.0,"used":true},{"PRN":1,"gnssid":0,"svid":1,"az":108.0,"ss":37.0,"used":true}]}
{"class":"SKY","hdop":0.95,"pdop":1.68,"tdop":1.01,"vdop":1.39}
$GPZDA,212932.75,29,03,2018,00,00*6E
$GPGGA,212932.75,4404.1273,N,12118.8461,W,1,13,0.95,1127.24,M,-22.155,M,,*67
$GPRMC,212932.75,A,4404.1273,N,12118.8461,W,0.0509,357.760,290318,14.4,E*4E
$GPGSA,A,3,94,11,8,13,17,28,30,7,18,131,135,,1.7,0.9,1.4*3A
{"class":"TPV","mode":3,"time":"2018-03-29T21:29:32.750Z","ept":0.005,"lat":44.068788278,"lon":-121.314101376,"altHAE":1105.0899,"altMSL":1127.2444,"alt":1127.2444,"epv":1.420,"track":357.7600,"magtrack":12.1784,"magvar":14.4,"speed":0.026,"climb":-0.010,"eps":0.01,"epc":11.41,"ecefx":-2386055.61,"ecefy":-3922197.14,"ecefz":4414355.14,"ecefvx":0.01,"ecefvy":0.02,"ecefvz":0.01,"ecefpAcc":1.71,"ecefvAcc":0.01,"velN":0.026,"velE":-0.001,"velD":0.010,"geoidSep":-22.155,"eph":0.950,"sep":31.978}
{"class":"SKY","hdop":0.95,"pdop":1.68,"tdop":1.01,"vdop":1.39,"nSat":14,"uSat":13,"satellites":[{"PRN":94,"gnssid":2,"svid":24,"az":72.0,"ss":43.0,"used":true},{"PRN":11,"gnssid":0,"svid":11,"az":102.0,"ss":46.0,"used":true},{"PRN":8,"gnssid":0,"svid":8,"az":48.0,"ss":43.0,"used":true},{"PRN":133,"gnssid":1,"svid":14,"az":192.0,"ss":45.0,"used":false},{"PRN":13,"gnssid":0,"svid":13,"az":306.0,"ss":41.0,"used":true},{"PRN":17,"gnssid":0,"svid":17,"az":186.0,"ss":43.0,"used":true},{"PRN":28,"gnssid":0,"svid":28,"az":278.0,"ss":50.0,"used":true},{"PRN":30,"gnssid":0,"svid":30,"az":76.0,"ss":56.0,"used":true},{"PRN":7,"gnssid":0,"svid":7,"az":102.0,"ss":49.0,"used":true},{"PRN":18,"gnssid":0,"svid":18,"az":86.0,"ss":41.0,"used":true},{"PRN":131,"gnssid":1,"svid":12,"az":174.0,"ss":46.0,"used":true},{"PRN":135,"gnssid":1,"svid":16,"az":196.0,"ss":48.0,"used":true},{"PRN":138,"gnssid":1,"svid":19,"az":160.0,"ss":49.0,"used":true},{"PRN":1,"gnssid":0,"svid":1,"az":108.0,"ss":37.0,"used":true}]}
{"class":"SKY","hdop":0.95,"pdop":1.68,"tdop":1.01,"vdop":1.39}
$GPZDA,212933.00,29,03,2018,00,00*6D
$GPGGA,212933.00,4404.1273,N,12118.8461,W,1,13,0.95,1127.19,M,-22.155,M,,*6A
$GPRMC,212933.00,A,4404.1273,N,12118.8461,W,0.0152,54.702,290318,14.4,E*73
$GPGSA,A,3,94,11,8,13,17,28,30,7,18,131,135,,1.7,0.9,1.4*3A
{"class":"TPV","mode":3,"time":"2018-03-29T21:29:33.000Z","ept":0.005,"lat":44.068788324,"lon":-121.314101483,"altHAE":1105.0305,"altMSL":1127.1851,"alt":1127.1851,"epv":1.410,"track":54.7022,"magtrack":69.1206,"magvar":14.4,"speed":0.008,"climb":0.018,"eps":0.01,"epc":11.32,"ecefx":-2386055.59,"ecefy":-3922197.10,"ecefz":4414355.11,"ecefvx":0.00,"ecefvy":-0.01,"ecefvz":0.02,"ecefpAcc":1.70,"ecefvAcc":0.01,"velN":0.005,"velE":0.006,"velD":-0.018,"geoidSep":-22.155,"eph":0.943,"sep":31.979}
{"class":"SKY","hdop":0.95,"pdop":1.68,"tdop":1.01,"vdop":1.39,"nSat":14,"uSat":13,"satellites":[{"PRN":94,"gnssid":2,"svid":24,"az":72.0,"ss":43.0,"used":true},{"PRN":11,"gnssid":0,"svid":11,"az":102.0,"ss":46.0,"used":true},{"PRN":8,"gnssid":0,"svid":8,"az":48.0,"ss":42.0,"used":true},{"PRN":133,"gnssid":1,"svid":14,"az":192.0,"ss":45.0,"used":false},{"PRN":13,"gnssid":0,"svid":13,"az":306.0,"ss":41.0,"used":true},{"PRN":17,"gnssid":0,"svid":17,"az":186.0,"ss":44.0,"used":true},{"PRN":28,"gnssid":0,"svid":28,"az":278.0,"ss":50.0,"used":true},{"PRN":30,"gnssid":0,"svid":30,"az":76.0,"ss":56.0,"used":true},{"PRN":7,"gnssid":0,"svid":7,"az":102.0,"ss":49.0,"used":true},{"PRN":18,"gnssid":0,"svid":18,"az":86.0,"ss":41.0,"used":true},{"PRN":131,"gnssid":1,"svid":12,"az":174.0,"ss":46.0,"used":true},{"PRN":135,"gnssid":1,"svid":16,"az":196.0,"ss":47.0,"used":true},{"PRN":138,"gnssid":1,"svid":19,"az":160.0,"ss":49.0,"used":true},{"PRN":1,"gnssid":0,"svid":1,"az":108.0,"ss":37.0,"used":true}]}
{"class":"SKY","hdop":0.95,"pdop":1.68,"tdop":1.01,"vdop":1.39}
$GPZDA,212933.25,29,03,2018,00,00*6A
$GPGGA,212933.25,4404.1273,N,12118.8461,W,1,13,0.95,1127.18,M,-22.155,M,,*6C
$GPRMC,212933.25,A,4404.1273,N,12118.8461,W,0.0198,106.259,290318,14.4,E*4F
$GPGSA,A,3,94,11,8,13,17,28,30,7,18,131,135,,1.7,0.9,1.4*3A
{"class":"TPV","mode":3,"time":"2018-03-29T21:29:33.250Z","ept":0.005,"lat":44.068788191,"lon":-121.314101332,"altHAE":1105.0290,"altMSL":1127.1835,"alt":1127.1835,"epv":1.401,"track":106.2593,"magtrack":120.6777,"magvar":14.4,"speed":0.010,"climb":0.022,"eps":0.01,"epc":11.25,"ecefx":-2386055.58,"ecefy":-3922197.11,"ecefz":4414355.09,"ecefvx":0.00,"ecefvy":-0.02,"ecefvz":0.01,"ecefpAcc":1.69,"ecefvAcc":0.02,"velN":-0.003,"velE":0.010,"velD":-0.022,"geoidSep":-22.155,"eph":0.937,"sep":31.980}
{"class":"SKY","hdop":0.95,"pdop":1.68,"tdop":1.01,"vdop":1.39,"nSat":14,"uSat":13,"satellites":[{"PRN":94,"gnssid":2,"svid":24,"az":72.0,"ss":44.0,"used":true},{"PRN":11,"gnssid":0,"svid":11,"az":102.0,"ss":46.0,"used":true},{"PRN":8,"gnssid":0,"svid":8,"az":48.0,"ss":43.0,"used":true},{"PRN":133,"gnssid":1,"svid":14,"az":192.0,"ss":45.0,"used":false},{"PRN":13,"gnssid":0,"svid":13,"az":306.0,"ss":41.0,"used":true},{"PRN":17,"gnssid":0,"svid":17,"az":186.0,"ss":44.0,"used":true},{"PRN":28,"gnssid":0,"svid":28,"az":278.0,"ss":50.0,"used":true},{"PRN":30,"gnssid":0,"svid":30,"az":76.0,"ss":56.0,"used":true},{"PRN":7,"gnssid":0,"svid":7,"az":102.0,"ss":49.0,"used":true},{"PRN":18,"gnssid":0,"svid":18,"az":86.0,"ss":41.0,"used":true},{"PRN":131,"gnssid":1,"svid":12,"az":174.0,"ss":46.0,"used":true},{"PRN":135,"gnssid":1,"svid":16,"az":196.0,"ss":47.0,"used":true},{"PRN":138,"gnssid":1,"svid":19,"az":160.0,"ss":49.0,"used":true},{"PRN":1,"gnssid":0,"svid":1,"az":108.0,"ss":37.0,"used":true}]}
{"class":"SKY","hdop":0.95,"pdop":1.68,"tdop":1.01,"vdop":1.39}
$GPZDA,212933.50,29,03,2018,00,00*68
$GPGGA,212933.50,4404.1273,N,12118.8461,W,1,13,0.95,1127.18,M,-22.155,M,,*6E
$GPRMC,212933.50,A,4404.1273,N,12118.8461,W,0.0198,137.366,290318,14.4,E*42
$GPGSA,A,3,94,11,8,13,17,28,30,7,18,131,135,,1.7,0.9,1.4*3A
{"class":"TPV","mode":3,"time":"2018-03-29T21:29:33.500Z","ept":0.005,"lat":44.068788172,"lon":-121.314101320,"altHAE":1105.0225,"altMSL":1127.1771,"alt":1127.1771,"epv":1.391,"track":137.3661,"magtrack":151.7846,"magvar":14.4,"speed":0.010,"climb":0.012,"eps":0.01,"epc":11.17,"ecefx":-2386055.58,"ecefy":-3922197.11,"ecefz":4414355.09,"ecefvx":0.00,"ecefvy":-0.02,"ecefvz":0.00,"ecefpAcc":1.67,"ecefvAcc":0.02,"velN":-0.008,"velE":0.007,"velD":-0.012,"geoidSep":-22.155,"eph":0.930,"sep":31.980}
{"class":"SKY","hdop":0.95,"pdop":1.68,"tdop":1.01,"vdop":1.39,"nSat":14,"uSat":13,"satellites":[{"PRN":94,"gnssid":2,"svid":24,"az":72.0,"ss":44.0,"used":true},{"PRN":11,"gnssid":0,"svid":11,"az":102.0,"ss":46.0,"used":true},{"PRN":8,"gnssid":0,"svid":8,"az":48.0,"ss":43.0,"used":true},{"PRN":133,"gnssid":1,"svid":14,"az":192.0,"ss":45.0,"used":false},{"PRN":13,"gnssid":0,"svid":13,"az":306.0,"ss":41.0,"used":true},{"PRN":17,"gnssid":0,"svid":17,"az":186.0,"ss":44.0,"used":true},{"PRN":28,"gnssid":0,"svid":28,"az":278.0,"ss":50.0,"used":true},{"PRN":30,"gnssid":0,"svid":30,"az":76.0,"ss":56.0,"used":true},{"PRN":7,"gnssid":0,"svid":7,"az":102.0,"ss":49.0,"used":true},{"PRN":18,"gnssid":0,"svid":18,"az":86.0,"ss":41.0,"used":true},{"PRN":131,"gnssid":1,"svid":12,"az":174.0,"ss":46.0,"used":true},{"PRN":135,"gnssid":1,"svid":16,"az":196.0,"ss":48.0,"used":true},{"PRN":138,"gnssid":1,"svid":19,"az":160.0,"ss":49.0,"used":true},{"PRN":1,"gnssid":0,"svid":1,"az":108.0,"ss":37.0,"used":true}]}
{"class":"SKY","hdop":0.95,"pdop":1.68,"tdop":1.01,"vdop":1.39}
$GPZDA,212933.75,29,03,2018,00,00*6F
$GPGGA,212933.75,4404.1273,N,12118.8461,W,1,13,0.95,1127.19,M,-22.155,M,,*68
$GPRMC,212933.75,A,4404.1273,N,12118.8461,W,0.0326,46.289,290318,14.4,E*75
$GPGSA,A,3,94,11,8,13,17,28,30,7,18,131,135,,1.7,0.9,1.4*3A
{"class":"TPV","mode":3,"time":"2018-03-29T21:29:33.750Z","ept":0.005,"lat":44.068788092,"lon":-121.314101318,"altHAE":1105.0386,"altMSL":1127.1931,"alt":1127.1931,"epv":1.390,"track":46.2890,"magtrack":60.7074,"magvar":14.4,"speed":0.017,"climb":0.015,"eps":0.01,"epc":11.12,"ecefx":-2386055.59,"ecefy":-3922197.13,"ecefz":4414355.09,"ecefvx":0.01,"ecefvy":-0.01,"ecefvz":0.02,"ecefpAcc":1.67,"ecefvAcc":0.01,"velN":0.012,"velE":0.012,"velD":-0.015,"geoidSep":-22.155,"eph":0.929,"sep":31.981}
{"class":"SKY","hdop":0.95,"pdop":1.68,"tdop":1.01,"vdop":1.39,"nSat":14,"uSat":13,"satellites":[{"PRN":94,"gnssid":2,"svid":24,"az":72.0,"ss":44.0,"used":true},{"PRN":11,"gnssid":0,"svid":11,"az":102.0,"ss":46.0,"used":true},{"PRN":8,"gnssid":0,"svid":8,"az":48.0,"ss":43.0,"used":true},{"PRN":133,"gnssid":1,"svid":14,"az":192.0,"ss":45.0,"used":false},{"PRN":13,"gnssid":0,"svid":13,"az":306.0,"ss":41.0,"used":true},{"PRN":17,"gnssid":0,"svid":17,"az":186.0,"ss":44.0,"used":true},{"PRN":28,"gnssid":0,"svid":28,"az":278.0,"ss":50.0,"used":true},{"PRN":30,"gnssid":0,"svid":30,"az":76.0,"ss":56.0,"used":true},{"PRN":7,"gnssid":0,"svid":7,"az":102.0,"ss":49.0,"used":true},{"PRN":18,"gnssid":0,"svid":18,"az":86.0,"ss":41.0,"used":true},{"PRN":131,"gnssid":1,"svid":12,"az":174.0,"ss":46.0,"used":true},{"PRN":135,"gnssid":1,"svid":16,"az":196.0,"ss":48.0,"used":true},{"PRN":138,"gnssid":1,"svid":19,"az":160.0,"ss":49.0,"used":true},{"PRN":1,"gnssid":0,"svid":1,"az":108.0,"ss":37.0,"used":true}]}
{"class":"SKY","hdop":0.95,"pdop":1.68,"tdop":1.01,"vdop":1.39}
$GPZDA,212934.00,29,03,2018,00,00*6A
$GPGGA,212934.00,4404.1273,N,12118.8461,W,1,13,0.95,1127.21,M,-22.155,M,,*66
$GPRMC,212934.00,A,4404.1273,N,12118.8461,W,0.0152,113.021,290318,14.4,E*40
$GPGSA,A,3,94,11,8,13,17,28,30,7,18,131,135,,1.7,0.9,1.4*3A
{"class":"TPV","mode":3,"time":"2018-03-29T21:29:34.000Z","ept":0.005,"lat":44.068787961,"lon":-121.314101158,"altHAE":1105.0580,"altMSL":1127.2126,"alt":1127.2126,"epv":1.390,"track":113.0212,"magtrack":127.4396,"magvar":14.4,"speed":0.008,"climb":0.035,"eps":0.01,"epc":11.12,"ecefx":-2386055.59,"ecefy":-3922197.15,"ecefz":4414355.10,"ecefvx":-0.01,"ecefvy":-0.03,"ecefvz":0.02,"ecefpAcc":1.67,"ecefvAcc":0.02,"velN":-0.003,"velE":0.007,"velD":-0.035,"geoidSep":-22.155,"eph":0.929,"sep":31.982}
{"class":"SKY","hdop":0.95,"pdop":1.68,"tdop":1.01,"vdop":1.39,"nSat":14,"uSat":13,"satellites":[{"PRN":94,"gnssid":2,"svid":24,"az":72.0,"ss":44.0,"used":true},{"PRN":11,"gnssid":0,"svid":11,"az":102.0,"ss":46.0,"used":true},{"PRN":8,"gnssid":0,"svid":8,"az":48.0,"ss":43.0,"used":true},{"PRN":133,"gnssid":1,"svid":14,"az":192.0,"ss":45.0,"used":false},{"PRN":13,"gnssid":0,"svid":13,"az":306.0,"ss":41.0,"used":true},{"PRN":17,"gnssid":0,"svid":17,"az":186.0,"ss":44.0,"used":true},{"PRN":28,"gnssid":0,"svid":28,"az":278.0,"ss":50.0,"used":true},{"PRN":30,"gnssid":0,"svid":30,"az":76.0,"ss":56.0,"used":true},{"PRN":7,"gnssid":0,"svid":7,"az":102.0,"ss":49.0,"used":true},{"PRN":18,"gnssid":0,"svid":18,"az":86.0,"ss":41.0,"used":true},{"PRN":131,"gnssid":1,"svid":12,"az":174.0,"ss":46.0,"used":true},{"PRN":135,"gnssid":1,"svid":16,"az":196.0,"ss":47.0,"used":true},{"PRN":138,"gnssid":1,"svid":19,"az":160.0,"ss":49.0,"used":true},{"PRN":1,"gnssid":0,"svid":1,"az":108.0,"ss":37.0,"used":true}]}
{"class":"SKY","hdop":0.93,"pdop":1.67,"tdop":1.01,"vdop":1.39}
$GPZDA,212934.25,29,03,2018,00,00*6D
$GPGGA,212934.25,4404.1273,N,12118.8461,W,1,14,0.93,1127.22,M,-22.155,M,,*63
$GPRMC,212934.25,A,4404.1273,N,12118.8461,W,0.0252,60.764,290318,14.4,E*77
$GPGSA,A,3,81,94,11,8,13,17,28,30,7,18,131,,1.7,0.9,1.4*04
