{"class":"SKY","hdop":0.61,"pdop":1.08,"tdop":0.52,"vdop":0.89}
$GPZDA,033459.50,16,12,2017,00,00*6B
$GPGGA,033459.50,3349.4617460,N,11808.8179006,W,1,17,0.61,20.93,M,-34.078,M,,*65
$GPRMC,033459.50,A,3349.4617460,N,11808.8179006,W,0.0160,246.760,161217,11.7,E*4E
$GPGSA,A,3,73,8,23,7,78,100,27,5,9,13,81,,1.1,0.6,0.9*0B
{"class":"TPV","mode":3,"time":"2017-12-16T03:34:59.500Z","ept":0.005,"lat":33.824362434,"lon":-118.146965011,"altHAE":-13.1490,"altMSL":20.9289,"alt":20.9289,"epv":0.763,"track":246.7599,"magtrack":258.4693,"magvar":11.7,"speed":0.008,"climb":0.011,"eps":0.01,"ecefx":-2502136.44,"ecefy":-4676854.48,"ecefz":3530271.38,"ecefvx":-0.01,"ecefvy":-0.01,"ecefvz":0.00,"ecefpAcc":0.89,"ecefvAcc":0.01,"velN":-0.003,"velE":-0.008,"velD":-0.011,"geoidSep":-34.078,"eph":0.449,"sep":20.446}
{"class":"SKY","hdop":0.61,"pdop":1.08,"tdop":0.52,"vdop":0.89,"nSat":20,"uSat":17,"satellites":[{"PRN":138,"gnssid":1,"svid":19,"az":160.0,"ss":47.0,"used":false},{"PRN":73,"gnssid":2,"svid":3,"az":176.0,"ss":47.0,"used":true},{"PRN":8,"gnssid":0,"svid":8,"az":62.0,"ss":47.0,"used":true},{"PRN":23,"gnssid":0,"svid":23,"az":150.0,"ss":46.0,"used":true},{"PRN":7,"gnssid":0,"svid":7,"az":36.0,"ss":47.0,"used":true},{"PRN":78,"gnssid":2,"svid":8,"az":234.0,"ss":55.0,"used":true},{"PRN":100,"gnssid":2,"svid":30,"az":286.0,"ss":48.0,"used":true},{"PRN":27,"gnssid":0,"svid":27,"az":38.0,"ss":42.0,"used":true},{"PRN":5,"gnssid":0,"svid":5,"az":288.0,"ss":50.0,"used":true},{"PRN":9,"gnssid":0,"svid":9,"az":160.0,"ss":49.0,"used":true},{"PRN":13,"gnssid":0,"svid":13,"az":320.0,"ss":40.0,"used":true},{"PRN":81,"gnssid":2,"svid":11,"az":52.0,"ss":45.0,"used":true},{"PRN":135,"gnssid":1,"svid":16,"az":206.0,"ss":52.0,"used":false},{"PRN":72,"gnssid":2,"svid":2,"az":18.0,"ss":49.0,"used":true},{"PRN":28,"gnssid":0,"svid":28,"az":252.0,"ss":46.0,"used":true},{"PRN":11,"gnssid":0,"svid":11,"az":120.0,"ss":40.0,"used":true},{"PRN":30,"gnssid":0,"svid":30,"az":332.0,"ss":48.0,"used":true},{"PRN":77,"gnssid":2,"svid":7,"az":304.0,"ss":45.0,"used":true},{"PRN":17,"gnssid":0,"svid":17,"az":190.0,"ss":45.0,"used":true},{"PRN":131,"gnssid":1,"svid":12,"az":178.0,"ss":48.0,"used":false}]}
{"class":"SKY","hdop":0.61,"pdop":1.08,"tdop":0.52,"vdop":0.89}
$GPZDA,033459.75,16,12,2017,00,00*6C
$GPGGA,033459.75,3349.4617456,N,11808.8178994,W,1,17,0.61,20.93,M,-34.078,M,,*64
$GPRMC,033459.75,A,3349.4617456,N,11808.8178994,W,0.0087,322.266,161217,11.7,E*47
$GPGSA,A,3,73,8,23,7,78,100,27,5,9,13,81,,1.1,0.6,0.9*0B
{"class":"TPV","mode":3,"time":"2017-12-16T03:34:59.750Z","ept":0.005,"lat":33.824362427,"lon":-118.146964990,"altHAE":-13.1481,"altMSL":20.9298,"alt":20.9298,"epv":0.764,"track":322.2664,"magtrack":333.9758,"magvar":11.7,"speed":0.004,"climb":-0.003,"eps":0.00,"epc":6.11,"ecefx":-2502136.44,"ecefy":-4676854.48,"ecefz":3530271.38,"ecefvx":0.00,"ecefvy":0.01,"ecefvz":0.00,"ecefpAcc":0.89,"ecefvAcc":0.01,"velN":0.004,"velE":-0.003,"velD":0.003,"geoidSep":-34.078,"eph":0.449,"sep":20.446}
{"class":"SKY","hdop":0.61,"pdop":1.08,"tdop":0.52,"vdop":0.89,"nSat":20,"uSat":17,"satellites":[{"PRN":138,"gnssid":1,"svid":19,"az":160.0,"ss":47.0,"used":false},{"PRN":73,"gnssid":2,"svid":3,"az":176.0,"ss":47.0,"used":true},{"PRN":8,"gnssid":0,"svid":8,"az":62.0,"ss":47.0,"used":true},{"PRN":23,"gnssid":0,"svid":23,"az":150.0,"ss":46.0,"used":true},{"PRN":7,"gnssid":0,"svid":7,"az":36.0,"ss":47.0,"used":true},{"PRN":78,"gnssid":2,"svid":8,"az":234.0,"ss":55.0,"used":true},{"PRN":100,"gnssid":2,"svid":30,"az":286.0,"ss":48.0,"used":true},{"PRN":27,"gnssid":0,"svid":27,"az":38.0,"ss":42.0,"used":true},{"PRN":5,"gnssid":0,"svid":5,"az":288.0,"ss":50.0,"used":true},{"PRN":9,"gnssid":0,"svid":9,"az":160.0,"ss":49.0,"used":true},{"PRN":13,"gnssid":0,"svid":13,"az":320.0,"ss":39.0,"used":true},{"PRN":81,"gnssid":2,"svid":11,"az":52.0,"ss":45.0,"used":true},{"PRN":135,"gnssid":1,"svid":16,"az":206.0,"ss":52.0,"used":false},{"PRN":72,"gnssid":2,"svid":2,"az":18.0,"ss":50.0,"used":true},{"PRN":28,"gnssid":0,"svid":28,"az":252.0,"ss":46.0,"used":true},{"PRN":11,"gnssid":0,"svid":11,"az":120.0,"ss":40.0,"used":true},{"PRN":30,"gnssid":0,"svid":30,"az":332.0,"ss":48.0,"used":true},{"PRN":77,"gnssid":2,"svid":7,"az":304.0,"ss":45.0,"used":true},{"PRN":17,"gnssid":0,"svid":17,"az":190.0,"ss":45.0,"used":true},{"PRN":131,"gnssid":1,"svid":12,"az":178.0,"ss":48.0,"used":false}]}
{"class":"SKY","hdop":0.61,"pdop":1.08,"tdop":0.52,"vdop":0.89}
$GPZDA,033500.00,16,12,2017,00,00*63
$GPGGA,033500.00,3349.4617456,N,11808.8178990,W,1,17,0.61,20.93,M,-34.078,M,,*6F
$GPRMC,033500.00,A,3349.4617456,N,11808.8178990,W,0.0296,70.245,161217,11.7,E*7B
$GPGSA,A,3,73,8,23,7,78,100,27,5,9,13,81,,1.1,0.6,0.9*0B
{"class":"TPV","mode":3,"time":"2017-12-16T03:35:00.000Z","ept":0.005,"lat":33.824362426,"lon":-118.146964983,"altHAE":-13.1467,"altMSL":20.9313,"alt":20.9313,"epv":0.765,"track":70.2452,"magtrack":81.9546,"magvar":11.7,"speed":0.015,"climb":-0.001,"eps":0.01,"epc":6.12,"ecefx":-2502136.44,"ecefy":-4676854.48,"ecefz":3530271.38,"ecefvx":0.01,"ecefvy":0.00,"ecefvz":0.00,"ecefpAcc":0.89,"ecefvAcc":0.01,"velN":0.005,"velE":0.014,"velD":0.001,"geoidSep":-34.078,"eph":0.450,"sep":20.446}
{"class":"SKY","hdop":0.61,"pdop":1.08,"tdop":0.52,"vdop":0.89,"nSat":20,"uSat":17,"satellites":[{"PRN":138,"gnssid":1,"svid":19,"az":160.0,"ss":47.0,"used":false},{"PRN":73,"gnssid":2,"svid":3,"az":176.0,"ss":47.0,"used":true},{"PRN":8,"gnssid":0,"svid":8,"az":62.0,"ss":47.0,"used":true},{"PRN":23,"gnssid":0,"svid":23,"az":150.0,"ss":46.0,"used":true},{"PRN":7,"gnssid":0,"svid":7,"az":36.0,"ss":47.0,"used":true},{"PRN":78,"gnssid":2,"svid":8,"az":234.0,"ss":55.0,"used":true},{"PRN":100,"gnssid":2,"svid":30,"az":286.0,"ss":48.0,"used":true},{"PRN":27,"gnssid":0,"svid":27,"az":38.0,"ss":42.0,"used":true},{"PRN":5,"gnssid":0,"svid":5,"az":288.0,"ss":50.0,"used":true},{"PRN":9,"gnssid":0,"svid":9,"az":160.0,"ss":49.0,"used":true},{"PRN":13,"gnssid":0,"svid":13,"az":320.0,"ss":40.0,"used":true},{"PRN":81,"gnssid":2,"svid":11,"az":52.0,"ss":45.0,"used":true},{"PRN":135,"gnssid":1,"svid":16,"az":206.0,"ss":52.0,"used":false},{"PRN":72,"gnssid":2,"svid":2,"az":18.0,"ss":49.0,"used":true},{"PRN":28,"gnssid":0,"svid":28,"az":252.0,"ss":46.0,"used":true},{"PRN":11,"gnssid":0,"svid":11,"az":120.0,"ss":40.0,"used":true},{"PRN":30,"gnssid":0,"svid":30,"az":332.0,"ss":48.0,"used":true},{"PRN":77,"gnssid":2,"svid":7,"az":304.0,"ss":45.0,"used":true},{"PRN":17,"gnssid":0,"svid":17,"az":190.0,"ss":45.0,"used":true},{"PRN":131,"gnssid":1,"svid":12,"az":178.0,"ss":48.0,"used":false}]}
{"class":"SKY","hdop":0.61,"pdop":1.08,"tdop":0.52,"vdop":0.89}
$GPZDA,033500.25,16,12,2017,00,00*64
$GPGGA,033500.25,3349.4617455,N,11808.8178993,W,1,17,0.61,20.93,M,-34.078,M,,*68
$GPRMC,033500.25,A,3349.4617455,N,11808.8178993,W,0.0111,225.113,161217,11.7,E*42
$GPGSA,A,3,73,8,23,7,78,100,27,5,9,13,81,,1.1,0.6,0.9*0B
{"class":"TPV","mode":3,"time":"2017-12-16T03:35:00.250Z","ept":0.005,"lat":33.824362425,"lon":-118.146964989,"altHAE":-13.1492,"altMSL":20.9287,"alt":20.9287,"epv":0.766,"track":225.1132,"magtrack":236.8226,"magvar":11.7,"speed":0.006,"climb":-0.005,"eps":0.00,"epc":6.13,"ecefx":-2502136.44,"ecefy":-4676854.48,"ecefz":3530271.38,"ecefvx":0.00,"ecefvy":0.00,"ecefvz":-0.01,"ecefpAcc":0.89,"ecefvAcc":0.01,"velN":-0.004,"velE":-0.004,"velD":0.005,"geoidSep":-34.078,"eph":0.451,"sep":20.446}
{"class":"SKY","hdop":0.61,"pdop":1.08,"tdop":0.52,"vdop":0.89,"nSat":20,"uSat":17,"satellites":[{"PRN":138,"gnssid":1,"svid":19,"az":160.0,"ss":47.0,"used":false},{"PRN":73,"gnssid":2,"svid":3,"az":176.0,"ss":47.0,"used":true},{"PRN":8,"gnssid":0,"svid":8,"az":62.0,"ss":47.0,"used":true},{"PRN":23,"gnssid":0,"svid":23,"az":150.0,"ss":46.0,"used":true},{"PRN":7,"gnssid":0,"svid":7,"az":36.0,"ss":47.0,"used":true},{"PRN":78,"gnssid":2,"svid":8,"az":234.0,"ss":55.0,"used":true},{"PRN":100,"gnssid":2,"svid":30,"az":286.0,"ss":48.0,"used":true},{"PRN":27,"gnssid":0,"svid":27,"az":38.0,"ss":42.0,"used":true},{"PRN":5,"gnssid":0,"svid":5,"az":288.0,"ss":50.0,"used":true},{"PRN":9,"gnssid":0,"svid":9,"az":160.0,"ss":49.0,"used":true},{"PRN":13,"gnssid":0,"svid":13,"az":320.0,"ss":40.0,"used":true},{"PRN":81,"gnssid":2,"svid":11,"az":52.0,"ss":45.0,"used":true},{"PRN":135,"gnssid":1,"svid":16,"az":206.0,"ss":52.0,"used":false},{"PRN":72,"gnssid":2,"svid":2,"az":18.0,"ss":50.0,"used":true},{"PRN":28,"gnssid":0,"svid":28,"az":252.0,"ss":46.0,"used":true},{"PRN":11,"gnssid":0,"svid":11,"az":120.0,"ss":40.0,"used":true},{"PRN":30,"gnssid":0,"svid":30,"az":332.0,"ss":47.0,"used":true},{"PRN":77,"gnssid":2,"svid":7,"az":304.0,"ss":45.0,"used":true},{"PRN":17,"gnssid":0,"svid":17,"az":190.0,"ss":45.0,"used":true},{"PRN":131,"gnssid":1,"svid":12,"az":178.0,"ss":48.0,"used":false}]}
{"class":"SKY","hdop":0.61,"pdop":1.08,"tdop":0.52,"vdop":0.89}
$GPZDA,033500.50,16,12,2017,00,00*66
$GPGGA,033500.50,3349.4617454,N,11808.8178972,W,1,17,0.61,20.93,M,-34.078,M,,*64
$GPRMC,033500.50,A,3349.4617454,N,11808.8178972,W,0.0041,340.926,161217,11.7,E*46
$GPGSA,A,3,73,8,23,7,78,100,27,5,9,13,81,,1.1,0.6,0.9*0B
{"class":"TPV","mode":3,"time":"2017-12-16T03:35:00.500Z","ept":0.005,"lat":33.824362424,"lon":-118.146964953,"altHAE":-13.1470,"altMSL":20.9309,"alt":20.9309,"epv":0.766,"track":340.9262,"magtrack":352.6356,"magvar":11.7,"speed":0.002,"climb":-0.001,"eps":0.01,"epc":6.13,"ecefx":-2502136.44,"ecefy":-4676854.48,"ecefz":3530271.38,"ecefvx":0.00,"ecefvy":0.00,"ecefvz":0.00,"ecefpAcc":0.89,"ecefvAcc":0.01,"velN":0.002,"velE":-0.001,"velD":0.001,"geoidSep":-34.078,"eph":0.451,"sep":20.446}
{"class":"SKY","hdop":0.61,"pdop":1.08,"tdop":0.52,"vdop":0.89,"nSat":20,"uSat":17,"satellites":[{"PRN":138,"gnssid":1,"svid":19,"az":160.0,"ss":47.0,"used":false},{"PRN":73,"gnssid":2,"svid":3,"az":176.0,"ss":47.0,"used":true},{"PRN":8,"gnssid":0,"svid":8,"az":62.0,"ss":47.0,"used":true},{"PRN":23,"gnssid":0,"svid":23,"az":150.0,"ss":46.0,"used":true},{"PRN":7,"gnssid":0,"svid":7,"az":36.0,"ss":47.0,"used":true},{"PRN":78,"gnssid":2,"svid":8,"az":234.0,"ss":55.0,"used":true},{"PRN":100,"gnssid":2,"svid":30,"az":286.0,"ss":48.0,"used":true},{"PRN":27,"gnssid":0,"svid":27,"az":38.0,"ss":42.0,"used":true},{"PRN":5,"gnssid":0,"svid":5,"az":288.0,"ss":50.0,"used":true},{"PRN":9,"gnssid":0,"svid":9,"az":160.0,"ss":49.0,"used":true},{"PRN":13,"gnssid":0,"svid":13,"az":320.0,"ss":40.0,"used":true},{"PRN":81,"gnssid":2,"svid":11,"az":52.0,"ss":45.0,"used":true},{"PRN":135,"gnssid":1,"svid":16,"az":206.0,"ss":52.0,"used":false},{"PRN":72,"gnssid":2,"svid":2,"az":18.0,"ss":50.0,"used":true},{"PRN":28,"gnssid":0,"svid":28,"az":252.0,"ss":46.0,"used":true},{"PRN":11,"gnssid":0,"svid":11,"az":120.0,"ss":40.0,"used":true},{"PRN":30,"gnssid":0,"svid":30,"az":332.0,"ss":48.0,"used":true},{"PRN":77,"gnssid":2,"svid":7,"az":304.0,"ss":45.0,"used":true},{"PRN":17,"gnssid":0,"svid":17,"az":190.0,"ss":45.0,"used":true},{"PRN":131,"gnssid":1,"svid":12,"az":178.0,"ss":48.0,"used":false}]}
{"class":"SKY","hdop":0.61,"pdop":1.08,"tdop":0.52,"vdop":0.89}
$GPZDA,033500.75,16,12,2017,00,00*61
$GPGGA,033500.75,3349.4617449,N,11808.8178975,W,1,17,0.61,20.93,M,-34.078,M,,*68
$GPRMC,033500.75,A,3349.4617449,N,11808.8178975,W,0.0022,102.497,161217,11.7,E*4C
$GPGSA,A,3,73,8,23,7,78,100,27,5,9,13,81,,1.1,0.6,0.9*0B
{"class":"TPV","mode":3,"time":"2017-12-16T03:35:00.750Z","ept":0.005,"lat":33.824362415,"lon":-118.146964959,"altHAE":-13.1432,"altMSL":20.9347,"alt":20.9347,"epv":0.767,"track":102.4965,"magtrack":114.2059,"magvar":11.7,"speed":0.001,"climb":0.029,"eps":0.01,"epc":6.13,"ecefx":-2502136.44,"ecefy":-4676854.48,"ecefz":3530271.38,"ecefvx":-0.01,"ecefvy":-0.02,"ecefvz":0.02,"ecefpAcc":0.89,"ecefvAcc":0.01,"velN":0.000,"velE":0.001,"velD":-0.029,"geoidSep":-34.078,"eph":0.451,"sep":20.446}
{"class":"SKY","hdop":0.61,"pdop":1.08,"tdop":0.52,"vdop":0.89,"nSat":20,"uSat":17,"satellites":[{"PRN":138,"gnssid":1,"svid":19,"az":160.0,"ss":47.0,"used":false},{"PRN":73,"gnssid":2,"svid":3,"az":176.0,"ss":47.0,"used":true},{"PRN":8,"gnssid":0,"svid":8,"az":62.0,"ss":47.0,"used":true},{"PRN":23,"gnssid":0,"svid":23,"az":150.0,"ss":46.0,"used":true},{"PRN":7,"gnssid":0,"svid":7,"az":36.0,"ss":47.0,"used":true},{"PRN":78,"gnssid":2,"svid":8,"az":234.0,"ss":55.0,"used":true},{"PRN":100,"gnssid":2,"svid":30,"az":286.0,"ss":48.0,"used":true},{"PRN":27,"gnssid":0,"svid":27,"az":38.0,"ss":42.0,"used":true},{"PRN":5,"gnssid":0,"svid":5,"az":288.0,"ss":50.0,"used":true},{"PRN":9,"gnssid":0,"svid":9,"az":160.0,"ss":49.0,"used":true},{"PRN":13,"gnssid":0,"svid":13,"az":320.0,"ss":40.0,"used":true},{"PRN":81,"gnssid":2,"svid":11,"az":52.0,"ss":45.0,"used":true},{"PRN":135,"gnssid":1,"svid":16,"az":206.0,"ss":52.0,"used":false},{"PRN":72,"gnssid":2,"svid":2,"az":18.0,"ss":49.0,"used":true},{"PRN":28,"gnssid":0,"svid":28,"az":252.0,"ss":46.0,"used":true},{"PRN":11,"gnssid":0,"svid":11,"az":120.0,"ss":40.0,"used":true},{"PRN":30,"gnssid":0,"svid":30,"az":332.0,"ss":47.0,"used":true},{"PRN":77,"gnssid":2,"svid":7,"az":304.0,"ss":45.0,"used":true},{"PRN":17,"gnssid":0,"svid":17,"az":190.0,"ss":45.0,"used":true},{"PRN":131,"gnssid":1,"svid":12,"az":178.0,"ss":48.0,"used":false}]}
{"class":"SKY","hdop":0.61,"pdop":1.08,"tdop":0.52,"vdop":0.89}
$GPZDA,033501.00,16,12,2017,00,00*62
$GPGGA,033501.00,3349.4617445,N,11808.8178971,W,1,17,0.61,20.93,M,-34.078,M,,*63
$GPRMC,033501.00,A,3349.4617445,N,11808.8178971,W,0.0061,208.089,161217,11.7,E*42
$GPGSA,A,3,73,8,23,7,78,100,27,5,9,13,81,,1.1,0.6,0.9*0B
{"class":"TPV","mode":3,"time":"2017-12-16T03:35:01.000Z","ept":0.005,"lat":33.824362408,"lon":-118.146964952,"altHAE":-13.1448,"altMSL":20.9331,"alt":20.9331,"epv":0.769,"track":208.0892,"magtrack":219.7986,"magvar":11.7,"speed":0.003,"climb":0.010,"eps":0.01,"epc":6.14,"ecefx":-2502136.44,"ecefy":-4676854.48,"ecefz":3530271.38,"ecefvx":-0.01,"ecefvy":-0.01,"ecefvz":0.00,"ecefpAcc":0.89,"ecefvAcc":0.01,"velN":-0.003,"velE":-0.001,"velD":-0.010,"geoidSep":-34.078,"eph":0.452,"sep":20.446}
{"class":"SKY","hdop":0.61,"pdop":1.08,"tdop":0.52,"vdop":0.89,"nSat":20,"uSat":17,"satellites":[{"PRN":138,"gnssid":1,"svid":19,"az":160.0,"ss":47.0,"used":false},{"PRN":73,"gnssid":2,"svid":3,"az":176.0,"ss":47.0,"used":true},{"PRN":8,"gnssid":0,"svid":8,"az":62.0,"ss":47.0,"used":true},{"PRN":23,"gnssid":0,"svid":23,"az":150.0,"ss":46.0,"used":true},{"PRN":7,"gnssid":0,"svid":7,"az":36.0,"ss":47.0,"used":true},{"PRN":78,"gnssid":2,"svid":8,"az":234.0,"ss":55.0,"used":true},{"PRN":100,"gnssid":2,"svid":30,"az":286.0,"ss":48.0,"used":true},{"PRN":27,"gnssid":0,"svid":27,"az":38.0,"ss":42.0,"used":true},{"PRN":5,"gnssid":0,"svid":5,"az":288.0,"ss":50.0,"used":true},{"PRN":9,"gnssid":0,"svid":9,"az":160.0,"ss":49.0,"used":true},{"PRN":13,"gnssid":0,"svid":13,"az":320.0,"ss":40.0,"used":true},{"PRN":81,"gnssid":2,"svid":11,"az":52.0,"ss":45.0,"used":true},{"PRN":135,"gnssid":1,"svid":16,"az":206.0,"ss":52.0,"used":false},{"PRN":72,"gnssid":2,"svid":2,"az":18.0,"ss":49.0,"used":true},{"PRN":28,"gnssid":0,"svid":28,"az":252.0,"ss":46.0,"used":true},{"PRN":11,"gnssid":0,"svid":11,"az":120.0,"ss":40.0,"used":true},{"PRN":30,"gnssid":0,"svid":30,"az":332.0,"ss":48.0,"used":true},{"PRN":77,"gnssid":2,"svid":7,"az":304.0,"ss":45.0,"used":true},{"PRN":17,"gnssid":0,"svid":17,"az":190.0,"ss":45.0,"used":true},{"PRN":131,"gnssid":1,"svid":12,"az":178.0,"ss":48.0,"used":false}]}
{"class":"SKY","hdop":0.61,"pdop":1.08,"tdop":0.52,"vdop":0.89}
$GPZDA,033501.25,16,12,2017,00,00*65
$GPGGA,033501.25,3349.4617449,N,11808.8178979,W,1,17,0.61,20.93,M,-34.078,M,,*60
$GPRMC,033501.25,A,3349.4617449,N,11808.8178979,W,0.0054,146.691,161217,11.7,E*41
$GPGSA,A,3,73,8,23,7,78,100,27,5,9,13,81,,1.1,0.6,0.9*0B
{"class":"TPV","mode":3,"time":"2017-12-16T03:35:01.250Z","ept":0.005,"lat":33.824362415,"lon":-118.146964965,"altHAE":-13.1488,"altMSL":20.9291,"alt":20.9291,"epv":0.769,"track":146.6911,"magtrack":158.4005,"magvar":11.7,"speed":0.003,"climb":-0.001,"eps":0.01,"epc":6.15,"ecefx":-2502136.44,"ecefy":-4676854.48,"ecefz":3530271.38,"ecefvx":0.00,"ecefvy":0.00,"ecefvz":0.00,"ecefpAcc":0.89,"ecefvAcc":0.01,"velN":-0.002,"velE":0.002,"velD":0.001,"geoidSep":-34.078,"eph":0.452,"sep":20.447}
{"class":"SKY","hdop":0.61,"pdop":1.08,"tdop":0.52,"vdop":0.89,"nSat":20,"uSat":17,"satellites":[{"PRN":138,"gnssid":1,"svid":19,"az":160.0,"ss":47.0,"used":false},{"PRN":73,"gnssid":2,"svid":3,"az":176.0,"ss":47.0,"used":true},{"PRN":8,"gnssid":0,"svid":8,"az":62.0,"ss":47.0,"used":true},{"PRN":23,"gnssid":0,"svid":23,"az":150.0,"ss":46.0,"used":true},{"PRN":7,"gnssid":0,"svid":7,"az":36.0,"ss":47.0,"used":true},{"PRN":78,"gnssid":2,"svid":8,"az":234.0,"ss":55.0,"used":true},{"PRN":100,"gnssid":2,"svid":30,"az":286.0,"ss":48.0,"used":true},{"PRN":27,"gnssid":0,"svid":27,"az":38.0,"ss":42.0,"used":true},{"PRN":5,"gnssid":0,"svid":5,"az":288.0,"ss":50.0,"used":true},{"PRN":9,"gnssid":0,"svid":9,"az":160.0,"ss":49.0,"used":true},{"PRN":13,"gnssid":0,"svid":13,"az":320.0,"ss":40.0,"used":true},{"PRN":81,"gnssid":2,"svid":11,"az":52.0,"ss":45.0,"used":true},{"PRN":135,"gnssid":1,"svid":16,"az":206.0,"ss":52.0,"used":false},{"PRN":72,"gnssid":2,"svid":2,"az":18.0,"ss":49.0,"used":true},{"PRN":28,"gnssid":0,"svid":28,"az":252.0,"ss":46.0,"used":true},{"PRN":11,"gnssid":0,"svid":11,"az":120.0,"ss":40.0,"used":true},{"PRN":30,"gnssid":0,"svid":30,"az":332.0,"ss":47.0,"used":true},{"PRN":77,"gnssid":2,"svid":7,"az":304.0,"ss":45.0,"used":true},{"PRN":17,"gnssid":0,"svid":17,"az":190.0,"ss":45.0,"used":true},{"PRN":131,"gnssid":1,"svid":12,"az":178.0,"ss":48.0,"used":false}]}
{"class":"SKY","hdop":0.61,"pdop":1.08,"tdop":0.52,"vdop":0.89}
$GPZDA,033501.50,16,12,2017,00,00*67
$GPGGA,033501.50,3349.4617450,N,11808.8178972,W,1,17,0.61,20.93,M,-34.078,M,,*61
$GPRMC,033501.50,A,3349.4617450,N,11808.8178972,W,0.0088,303.129,161217,11.7,E*46
$GPGSA,A,3,73,8,23,7,78,100,27,5,9,13,81,,1.1,0.6,0.9*0B
{"class":"TPV","mode":3,"time":"2017-12-16T03:35:01.500Z","ept":0.005,"lat":33.824362417,"lon":-118.146964953,"altHAE":-13.1463,"altMSL":20.9316,"alt":20.9316,"epv":0.768,"track":303.1285,"magtrack":314.8379,"magvar":11.7,"speed":0.005,"climb":-0.002,"eps":0.00,"epc":6.15,"ecefx":-2502136.44,"ecefy":-4676854.48,"ecefz":3530271.38,"ecefvx":0.00,"ecefvy":0.00,"ecefvz":0.00,"ecefpAcc":0.89,"ecefvAcc":0.01,"velN":0.002,"velE":-0.004,"velD":0.002,"geoidSep":-34.078,"eph":0.452,"sep":20.447}
{"class":"SKY","hdop":0.61,"pdop":1.08,"tdop":0.52,"vdop":0.89,"nSat":20,"uSat":17,"satellites":[{"PRN":138,"gnssid":1,"svid":19,"az":160.0,"ss":47.0,"used":false},{"PRN":73,"gnssid":2,"svid":3,"az":176.0,"ss":47.0,"used":true},{"PRN":8,"gnssid":0,"svid":8,"az":62.0,"ss":47.0,"used":true},{"PRN":23,"gnssid":0,"svid":23,"az":150.0,"ss":46.0,"used":true},{"PRN":7,"gnssid":0,"svid":7,"az":36.0,"ss":47.0,"used":true},{"PRN":78,"gnssid":2,"svid":8,"az":234.0,"ss":55.0,"used":true},{"PRN":100,"gnssid":2,"svid":30,"az":286.0,"ss":48.0,"used":true},{"PRN":27,"gnssid":0,"svid":27,"az":38.0,"ss":42.0,"used":true},{"PRN":5,"gnssid":0,"svid":5,"az":288.0,"ss":50.0,"used":true},{"PRN":9,"gnssid":0,"svid":9,"az":160.0,"ss":49.0,"used":true},{"PRN":13,"gnssid":0,"svid":13,"az":320.0,"ss":40.0,"used":true},{"PRN":81,"gnssid":2,"svid":11,"az":52.0,"ss":45.0,"used":true},{"PRN":135,"gnssid":1,"svid":16,"az":206.0,"ss":52.0,"used":false},{"PRN":72,"gnssid":2,"svid":2,"az":18.0,"ss":49.0,"used":true},{"PRN":28,"gnssid":0,"svid":28,"az":252.0,"ss":46.0,"used":true},{"PRN":11,"gnssid":0,"svid":11,"az":120.0,"ss":40.0,"used":true},{"PRN":30,"gnssid":0,"svid":30,"az":332.0,"ss":47.0,"used":true},{"PRN":77,"gnssid":2,"svid":7,"az":304.0,"ss":45.0,"used":true},{"PRN":17,"gnssid":0,"svid":17,"az":190.0,"ss":46.0,"used":true},{"PRN":131,"gnssid":1,"svid":12,"az":178.0,"ss":48.0,"used":false}]}
{"class":"SKY","hdop":0.61,"pdop":1.08,"tdop":0.52,"vdop":0.89}
$GPZDA,033501.75,16,12,2017,00,00*60
$GPGGA,033501.75,3349.4617447,N,11808.8178973,W,1,17,0.61,20.93,M,-34.078,M,,*61
$GPRMC,033501.75,A,3349.4617447,N,11808.8178973,W,0.0078,8.433,161217,11.7,E*4F
$GPGSA,A,3,73,8,23,7,78,100,27,5,9,13,81,,1.1,0.6,0.9*0B
{"class":"TPV","mode":3,"time":"2017-12-16T03:35:01.750Z","ept":0.005,"lat":33.824362412,"lon":-118.146964955,"altHAE":-13.1463,"altMSL":20.9316,"alt":20.9316,"epv":0.769,"track":8.4332,"magtrack":20.1426,"magvar":11.7,"speed":0.004,"climb":-0.009,"eps":0.01,"epc":6.15,"ecefx":-2502136.44,"ecefy":-4676854.48,"ecefz":3530271.38,"ecefvx":0.01,"ecefvy":0.01,"ecefvz":0.00,"ecefpAcc":0.89,"ecefvAcc":0.01,"velN":0.004,"velE":0.001,"velD":0.009,"geoidSep":-34.078,"eph":0.452,"sep":20.447}
{"class":"SKY","hdop":0.61,"pdop":1.08,"tdop":0.52,"vdop":0.89,"nSat":20,"uSat":17,"satellites":[{"PRN":138,"gnssid":1,"svid":19,"az":160.0,"ss":47.0,"used":false},{"PRN":73,"gnssid":2,"svid":3,"az":176.0,"ss":47.0,"used":true},{"PRN":8,"gnssid":0,"svid":8,"az":62.0,"ss":47.0,"used":true},{"PRN":23,"gnssid":0,"svid":23,"az":150.0,"ss":46.0,"used":true},{"PRN":7,"gnssid":0,"svid":7,"az":36.0,"ss":47.0,"used":true},{"PRN":78,"gnssid":2,"svid":8,"az":234.0,"ss":55.0,"used":true},{"PRN":100,"gnssid":2,"svid":30,"az":286.0,"ss":48.0,"used":true},{"PRN":27,"gnssid":0,"svid":27,"az":38.0,"ss":42.0,"used":true},{"PRN":5,"gnssid":0,"svid":5,"az":288.0,"ss":50.0,"used":true},{"PRN":9,"gnssid":0,"svid":9,"az":160.0,"ss":49.0,"used":true},{"PRN":13,"gnssid":0,"svid":13,"az":320.0,"ss":39.0,"used":true},{"PRN":81,"gnssid":2,"svid":11,"az":52.0,"ss":45.0,"used":true},{"PRN":135,"gnssid":1,"svid":16,"az":206.0,"ss":52.0,"used":false},{"PRN":72,"gnssid":2,"svid":2,"az":18.0,"ss":49.0,"used":true},{"PRN":28,"gnssid":0,"svid":28,"az":252.0,"ss":46.0,"used":true},{"PRN":11,"gnssid":0,"svid":11,"az":120.0,"ss":40.0,"used":true},{"PRN":30,"gnssid":0,"svid":30,"az":332.0,"ss":48.0,"used":true},{"PRN":77,"gnssid":2,"svid":7,"az":304.0,"ss":45.0,"used":true},{"PRN":17,"gnssid":0,"svid":17,"az":190.0,"ss":46.0,"used":true},{"PRN":131,"gnssid":1,"svid":12,"az":178.0,"ss":48.0,"used":false}]}
{"class":"SKY","hdop":0.61,"pdop":1.08,"tdop":0.52,"vdop":0.89}
$GPZDA,033502.00,16,12,2017,00,00*61
$GPGGA,033502.00,3349.4617445,N,11808.8178980,W,1,17,0.61,20.93,M,-34.078,M,,*6E
$GPRMC,033502.00,A,3349.4617445,N,11808.8178980,W,0.0180,275.631,161217,11.7,E*4E
$GPGSA,A,3,73,8,23,7,78,100,27,5,9,13,81,,1.1,0.6,0.9*0B
{"class":"TPV","mode":3,"time":"2017-12-16T03:35:02.000Z","ept":0.005,"lat":33.824362409,"lon":-118.146964966,"altHAE":-13.1454,"altMSL":20.9325,"alt":20.9325,"epv":0.769,"track":275.6307,"magtrack":287.3401,"magvar":11.7,"speed":0.009,"climb":0.007,"eps":0.00,"epc":6.15,"ecefx":-2502136.44,"ecefy":-4676854.48,"ecefz":3530271.38,"ecefvx":-0.01,"ecefvy":0.00,"ecefvz":0.00,"ecefpAcc":0.89,"ecefvAcc":0.01,"velN":0.001,"velE":-0.009,"velD":-0.007,"geoidSep":-34.078,"eph":0.452,"sep":20.447}
{"class":"SKY","hdop":0.61,"pdop":1.08,"tdop":0.52,"vdop":0.89,"nSat":20,"uSat":17,"satellites":[{"PRN":138,"gnssid":1,"svid":19,"az":160.0,"ss":47.0,"used":false},{"PRN":73,"gnssid":2,"svid":3,"az":176.0,"ss":47.0,"used":true},{"PRN":8,"gnssid":0,"svid":8,"az":62.0,"ss":47.0,"used":true},{"PRN":23,"gnssid":0,"svid":23,"az":150.0,"ss":46.0,"used":true},{"PRN":7,"gnssid":0,"svid":7,"az":36.0,"ss":47.0,"used":true},{"PRN":78,"gnssid":2,"svid":8,"az":234.0,"ss":55.0,"used":true},{"PRN":100,"gnssid":2,"svid":30,"az":286.0,"ss":48.0,"used":true},{"PRN":27,"gnssid":0,"svid":27,"az":38.0,"ss":42.0,"used":true},{"PRN":5,"gnssid":0,"svid":5,"az":288.0,"ss":50.0,"used":true},{"PRN":9,"gnssid":0,"svid":9,"az":160.0,"ss":49.0,"used":true},{"PRN":13,"gnssid":0,"svid":13,"az":320.0,"ss":40.0,"used":true},{"PRN":81,"gnssid":2,"svid":11,"az":52.0,"ss":45.0,"used":true},{"PRN":135,"gnssid":1,"svid":16,"az":206.0,"ss":52.0,"used":false},{"PRN":72,"gnssid":2,"svid":2,"az":18.0,"ss":49.0,"used":true},{"PRN":28,"gnssid":0,"svid":28,"az":252.0,"ss":46.0,"used":true},{"PRN":11,"gnssid":0,"svid":11,"az":120.0,"ss":40.0,"used":true},{"PRN":30,"gnssid":0,"svid":30,"az":332.0,"ss":48.0,"used":true},{"PRN":77,"gnssid":2,"svid":7,"az":304.0,"ss":45.0,"used":true},{"PRN":17,"gnssid":0,"svid":17,"az":190.0,"ss":46.0,"used":true},{"PRN":131,"gnssid":1,"svid":12,"az":178.0,"ss":48.0,"used":false}]}
{"class":"SKY","hdop":0.61,"pdop":1.08,"tdop":0.52,"vdop":0.89}
$GPZDA,033502.25,16,12,2017,00,00*66
$GPGGA,033502.25,3349.4617443,N,11808.8178976,W,1,17,0.61,20.93,M,-34.078,M,,*66
$GPRMC,033502.25,A,3349.4617443,N,11808.8178976,W,0.0105,217.090,161217,11.7,E*42
$GPGSA,A,3,73,8,23,7,78,100,27,5,9,13,81,,1.1,0.6,0.9*0B
{"class":"TPV","mode":3,"time":"2017-12-16T03:35:02.250Z","ept":0.005,"lat":33.824362405,"lon":-118.146964960,"altHAE":-13.1490,"altMSL":20.9289,"alt":20.9289,"epv":0.769,"track":217.0899,"magtrack":228.7993,"magvar":11.7,"speed":0.005,"climb":0.004,"eps":0.00,"epc":6.15,"ecefx":-2502136.44,"ecefy":-4676854.48,"ecefz":3530271.38,"ecefvx":-0.01,"ecefvy":0.00,"ecefvz":0.00,"ecefpAcc":0.89,"ecefvAcc":0.01,"velN":-0.004,"velE":-0.003,"velD":-0.004,"geoidSep":-34.078,"eph":0.452,"sep":20.447}
{"class":"SKY","hdop":0.61,"pdop":1.08,"tdop":0.52,"vdop":0.89,"nSat":20,"uSat":17,"satellites":[{"PRN":138,"gnssid":1,"svid":19,"az":160.0,"ss":47.0,"used":false},{"PRN":73,"gnssid":2,"svid":3,"az":176.0,"ss":47.0,"used":true},{"PRN":8,"gnssid":0,"svid":8,"az":62.0,"ss":47.0,"used":true},{"PRN":23,"gnssid":0,"svid":23,"az":150.0,"ss":46.0,"used":true},{"PRN":7,"gnssid":0,"svid":7,"az":36.0,"ss":47.0,"used":true},{"PRN":78,"gnssid":2,"svid":8,"az":234.0,"ss":55.0,"used":true},{"PRN":100,"gnssid":2,"svid":30,"az":286.0,"ss":48.0,"used":true},{"PRN":27,"gnssid":0,"svid":27,"az":38.0,"ss":42.0,"used":true},{"PRN":5,"gnssid":0,"svid":5,"az":288.0,"ss":50.0,"used":true},{"PRN":9,"gnssid":0,"svid":9,"az":160.0,"ss":48.0,"used":true},{"PRN":13,"gnssid":0,"svid":13,"az":320.0,"ss":39.0,"used":true},{"PRN":81,"gnssid":2,"svid":11,"az":52.0,"ss":45.0,"used":true},{"PRN":135,"gnssid":1,"svid":16,"az":206.0,"ss":52.0,"used":false},{"PRN":72,"gnssid":2,"svid":2,"az":18.0,"ss":49.0,"used":true},{"PRN":28,"gnssid":0,"svid":28,"az":252.0,"ss":46.0,"used":true},{"PRN":11,"gnssid":0,"svid":11,"az":120.0,"ss":40.0,"used":true},{"PRN":30,"gnssid":0,"svid":30,"az":332.0,"ss":48.0,"used":true},{"PRN":77,"gnssid":2,"svid":7,"az":304.0,"ss":45.0,"used":true},{"PRN":17,"gnssid":0,"svid":17,"az":190.0,"ss":46.0,"used":true},{"PRN":131,"gnssid":1,"svid":12,"az":178.0,"ss":48.0,"used":false}]}
{"class":"SKY","hdop":0.61,"pdop":1.08,"tdop":0.52,"vdop":0.89}
$GPZDA,033502.50,16,12,2017,00,00*64
$GPGGA,033502.50,3349.4617445,N,11808.8178967,W,1,17,0.61,20.93,M,-34.078,M,,*62
$GPRMC,033502.50,A,3349.4617445,N,11808.8178967,W,0.0048,24.979,161217,11.7,E*72
$GPGSA,A,3,73,8,23,7,78,100,27,5,9,13,81,,1.1,0.6,0.9*0B
{"class":"TPV","mode":3,"time":"2017-12-16T03:35:02.500Z","ept":0.005,"lat":33.824362408,"lon":-118.146964945,"altHAE":-13.1504,"altMSL":20.9275,"alt":20.9275,"epv":0.768,"track":24.9792,"magtrack":36.6886,"magvar":11.7,"speed":0.002,"climb":0.003,"eps":0.00,"epc":6.15,"ecefx":-2502136.44,"ecefy":-4676854.48,"ecefz":3530271.38,"ecefvx":0.00,"ecefvy":0.00,"ecefvz":0.00,"ecefpAcc":0.89,"ecefvAcc":0.01,"velN":0.002,"velE":0.001,"velD":-0.003,"geoidSep":-34.078,"eph":0.452,"sep":20.447}
{"class":"SKY","hdop":0.61,"pdop":1.08,"tdop":0.52,"vdop":0.89,"nSat":20,"uSat":17,"satellites":[{"PRN":138,"gnssid":1,"svid":19,"az":160.0,"ss":47.0,"used":false},{"PRN":73,"gnssid":2,"svid":3,"az":176.0,"ss":47.0,"used":true},{"PRN":8,"gnssid":0,"svid":8,"az":62.0,"ss":47.0,"used":true},{"PRN":23,"gnssid":0,"svid":23,"az":150.0,"ss":46.0,"used":true},{"PRN":7,"gnssid":0,"svid":7,"az":36.0,"ss":47.0,"used":true},{"PRN":78,"gnssid":2,"svid":8,"az":234.0,"ss":55.0,"used":true},{"PRN":100,"gnssid":2,"svid":30,"az":286.0,"ss":48.0,"used":true},{"PRN":27,"gnssid":0,"svid":27,"az":38.0,"ss":42.0,"used":true},{"PRN":5,"gnssid":0,"svid":5,"az":288.0,"ss":50.0,"used":true},{"PRN":9,"gnssid":0,"svid":9,"az":160.0,"ss":49.0,"used":true},{"PRN":13,"gnssid":0,"svid":13,"az":320.0,"ss":40.0,"used":true},{"PRN":81,"gnssid":2,"svid":11,"az":52.0,"ss":45.0,"used":true},{"PRN":135,"gnssid":1,"svid":16,"az":206.0,"ss":52.0,"used":false},{"PRN":72,"gnssid":2,"svid":2,"az":18.0,"ss":49.0,"used":true},{"PRN":28,"gnssid":0,"svid":28,"az":252.0,"ss":46.0,"used":true},{"PRN":11,"gnssid":0,"svid":11,"az":120.0,"ss":40.0,"used":true},{"PRN":30,"gnssid":0,"svid":30,"az":332.0,"ss":48.0,"used":true},{"PRN":77,"gnssid":2,"svid":7,"az":304.0,"ss":45.0,"used":true},{"PRN":17,"gnssid":0,"svid":17,"az":190.0,"ss":46.0,"used":true},{"PRN":131,"gnssid":1,"svid":12,"az":178.0,"ss":48.0,"used":false}]}
{"class":"SKY","hdop":0.61,"pdop":1.08,"tdop":0.52,"vdop":0.89}
$GPZDA,033502.75,16,12,2017,00,00*63
$GPGGA,033502.75,3349.4617444,N,11808.8178977,W,1,17,0.61,20.93,M,-34.078,M,,*65
$GPRMC,033502.75,A,3349.4617444,N,11808.8178977,W,0.0118,204.918,161217,11.7,E*46
$GPGSA,A,3,73,8,23,7,78,100,27,5,9,13,81,,1.1,0.6,0.9*0B
{"class":"TPV","mode":3,"time":"2017-12-16T03:35:02.750Z","ept":0.005,"lat":33.824362407,"lon":-118.146964962,"altHAE":-13.1511,"altMSL":20.9268,"alt":20.9268,"epv":0.768,"track":204.9180,"magtrack":216.6274,"magvar":11.7,"speed":0.006,"climb":-0.001,"eps":0.00,"epc":6.15,"ecefx":-2502136.44,"ecefy":-4676854.48,"ecefz":3530271.37,"ecefvx":0.00,"ecefvy":0.00,"ecefvz":0.00,"ecefpAcc":0.89,"ecefvAcc":0.01,"velN":-0.005,"velE":-0.003,"velD":0.001,"geoidSep":-34.078,"eph":0.452,"sep":20.447}
{"class":"SKY","hdop":0.61,"pdop":1.08,"tdop":0.52,"vdop":0.89,"nSat":20,"uSat":17,"satellites":[{"PRN":138,"gnssid":1,"svid":19,"az":160.0,"ss":47.0,"used":false},{"PRN":73,"gnssid":2,"svid":3,"az":176.0,"ss":47.0,"used":true},{"PRN":8,"gnssid":0,"svid":8,"az":62.0,"ss":47.0,"used":true},{"PRN":23,"gnssid":0,"svid":23,"az":150.0,"ss":46.0,"used":true},{"PRN":7,"gnssid":0,"svid":7,"az":36.0,"ss":47.0,"used":true},{"PRN":78,"gnssid":2,"svid":8,"az":234.0,"ss":55.0,"used":true},{"PRN":100,"gnssid":2,"svid":30,"az":286.0,"ss":48.0,"used":true},{"PRN":27,"gnssid":0,"svid":27,"az":38.0,"ss":42.0,"used":true},{"PRN":5,"gnssid":0,"svid":5,"az":288.0,"ss":50.0,"used":true},{"PRN":9,"gnssid":0,"svid":9,"az":160.0,"ss":49.0,"used":true},{"PRN":13,"gnssid":0,"svid":13,"az":320.0,"ss":40.0,"used":true},{"PRN":81,"gnssid":2,"svid":11,"az":52.0,"ss":45.0,"used":true},{"PRN":135,"gnssid":1,"svid":16,"az":206.0,"ss":52.0,"used":false},{"PRN":72,"gnssid":2,"svid":2,"az":18.0,"ss":49.0,"used":true},{"PRN":28,"gnssid":0,"svid":28,"az":252.0,"ss":46.0,"used":true},{"PRN":11,"gnssid":0,"svid":11,"az":120.0,"ss":40.0,"used":true},{"PRN":30,"gnssid":0,"svid":30,"az":332.0,"ss":48.0,"used":true},{"PRN":77,"gnssid":2,"svid":7,"az":304.0,"ss":45.0,"used":true},{"PRN":17,"gnssid":0,"svid":17,"az":190.0,"ss":46.0,"used":true},{"PRN":131,"gnssid":1,"svid":12,"az":178.0,"ss":48.0,"used":false}]}
{"class":"SKY","hdop":0.61,"pdop":1.08,"tdop":0.52,"vdop":0.89}
$GPZDA,033503.00,16,12,2017,00,00*60
$GPGGA,033503.00,3349.4617448,N,11808.8178984,W,1,17,0.61,20.93,M,-34.078,M,,*66
$GPRMC,033503.00,A,3349.4617448,N,11808.8178984,W,0.0180,281.170,161217,11.7,E*4F
$GPGSA,A,3,73,8,23,7,78,100,27,5,9,13,81,,1.1,0.6,0.9*0B
{"class":"TPV","mode":3,"time":"2017-12-16T03:35:03.000Z","ept":0.005,"lat":33.824362413,"lon":-118.146964973,"altHAE":-13.1501,"altMSL":20.9278,"alt":20.9278,"epv":0.768,"track":281.1698,"magtrack":292.8792,"magvar":11.7,"speed":0.009,"climb":0.005,"eps":0.01,"epc":6.14,"ecefx":-2502136.44,"ecefy":-4676854.48,"ecefz":3530271.38,"ecefvx":-0.01,"ecefvy":0.00,"ecefvz":0.00,"ecefpAcc":0.89,"ecefvAcc":0.01,"velN":0.002,"velE":-0.009,"velD":-0.005,"geoidSep":-34.078,"eph":0.452,"sep":20.447}
{"class":"SKY","hdop":0.61,"pdop":1.08,"tdop":0.52,"vdop":0.89,"nSat":20,"uSat":17,"satellites":[{"PRN":138,"gnssid":1,"svid":19,"az":160.0,"ss":47.0,"used":false},{"PRN":73,"gnssid":2,"svid":3,"az":176.0,"ss":47.0,"used":true},{"PRN":8,"gnssid":0,"svid":8,"az":62.0,"ss":47.0,"used":true},{"PRN":23,"gnssid":0,"svid":23,"az":150.0,"ss":46.0,"used":true},{"PRN":7,"gnssid":0,"svid":7,"az":36.0,"ss":47.0,"used":true},{"PRN":78,"gnssid":2,"svid":8,"az":234.0,"ss":55.0,"used":true},{"PRN":100,"gnssid":2,"svid":30,"az":286.0,"ss":48.0,"used":true},{"PRN":27,"gnssid":0,"svid":27,"az":38.0,"ss":42.0,"used":true},{"PRN":5,"gnssid":0,"svid":5,"az":288.0,"ss":50.0,"used":true},{"PRN":9,"gnssid":0,"svid":9,"az":160.0,"ss":48.0,"used":true},{"PRN":13,"gnssid":0,"svid":13,"az":320.0,"ss":40.0,"used":true},{"PRN":81,"gnssid":2,"svid":11,"az":52.0,"ss":45.0,"used":true},{"PRN":135,"gnssid":1,"svid":16,"az":206.0,"ss":52.0,"used":false},{"PRN":72,"gnssid":2,"svid":2,"az":18.0,"ss":49.0,"used":true},{"PRN":28,"gnssid":0,"svid":28,"az":252.0,"ss":46.0,"used":true},{"PRN":11,"gnssid":0,"svid":11,"az":120.0,"ss":40.0,"used":true},{"PRN":30,"gnssid":0,"svid":30,"az":332.0,"ss":48.0,"used":true},{"PRN":77,"gnssid":2,"svid":7,"az":304.0,"ss":45.0,"used":true},{"PRN":17,"gnssid":0,"svid":17,"az":190.0,"ss":46.0,"used":true},{"PRN":131,"gnssid":1,"svid":12,"az":178.0,"ss":48.0,"used":false}]}
{"class":"SKY","hdop":0.61,"pdop":1.08,"tdop":0.52,"vdop":0.89}
$GPZDA,033503.25,16,12,2017,00,00*67
$GPGGA,033503.25,3349.4617451,N,11808.8178982,W,1,17,0.61,20.93,M,-34.078,M,,*6F
$GPRMC,033503.25,A,3349.4617451,N,11808.8178982,W,0.0118,64.373,161217,11.7,E*7F
$GPGSA,A,3,73,8,23,7,78,100,27,5,9,13,81,,1.1,0.6,0.9*0B
{"class":"TPV","mode":3,"time":"2017-12-16T03:35:03.250Z","ept":0.005,"lat":33.824362418,"lon":-118.146964970,"altHAE":-13.1528,"altMSL":20.9251,"alt":20.9251,"epv":0.768,"track":64.3733,"magtrack":76.0827,"magvar":11.7,"speed":0.006,"climb":0.000,"eps":0.00,"epc":6.15,"ecefx":-2502136.44,"ecefy":-4676854.48,"ecefz":3530271.37,"ecefvx":0.01,"ecefvy":0.00,"ecefvz":0.00,"ecefpAcc":0.89,"ecefvAcc":0.01,"velN":0.003,"velE":0.005,"velD":0.000,"geoidSep":-34.078,"eph":0.452,"sep":20.447}
{"class":"SKY","hdop":0.61,"pdop":1.08,"tdop":0.52,"vdop":0.89,"nSat":20,"uSat":17,"satellites":[{"PRN":138,"gnssid":1,"svid":19,"az":160.0,"ss":47.0,"used":false},{"PRN":73,"gnssid":2,"svid":3,"az":176.0,"ss":47.0,"used":true},{"PRN":8,"gnssid":0,"svid":8,"az":62.0,"ss":47.0,"used":true},{"PRN":23,"gnssid":0,"svid":23,"az":150.0,"ss":46.0,"used":true},{"PRN":7,"gnssid":0,"svid":7,"az":36.0,"ss":47.0,"used":true},{"PRN":78,"gnssid":2,"svid":8,"az":234.0,"ss":55.0,"used":true},{"PRN":100,"gnssid":2,"svid":30,"az":286.0,"ss":48.0,"used":true},{"PRN":27,"gnssid":0,"svid":27,"az":38.0,"ss":42.0,"used":true},{"PRN":5,"gnssid":0,"svid":5,"az":288.0,"ss":50.0,"used":true},{"PRN":9,"gnssid":0,"svid":9,"az":160.0,"ss":49.0,"used":true},{"PRN":13,"gnssid":0,"svid":13,"az":320.0,"ss":40.0,"used":true},{"PRN":81,"gnssid":2,"svid":11,"az":52.0,"ss":45.0,"used":true},{"PRN":135,"gnssid":1,"svid":16,"az":206.0,"ss":52.0,"used":false},{"PRN":72,"gnssid":2,"svid":2,"az":18.0,"ss":49.0,"used":true},{"PRN":28,"gnssid":0,"svid":28,"az":252.0,"ss":46.0,"used":true},{"PRN":11,"gnssid":0,"svid":11,"az":120.0,"ss":41.0,"used":true},{"PRN":30,"gnssid":0,"svid":30,"az":332.0,"ss":48.0,"used":true},{"PRN":77,"gnssid":2,"svid":7,"az":304.0,"ss":45.0,"used":true},{"PRN":17,"gnssid":0,"svid":17,"az":190.0,"ss":46.0,"used":true},{"PRN":131,"gnssid":1,"svid":12,"az":178.0,"ss":48.0,"used":false}]}
{"class":"SKY","hdop":0.61,"pdop":1.08,"tdop":0.52,"vdop":0.89}
$GPZDA,033503.50,16,12,2017,00,00*65
$GPGGA,033503.50,3349.4617440,N,11808.8178973,W,1,17,0.61,20.93,M,-34.078,M,,*63
$GPRMC,033503.50,A,3349.4617440,N,11808.8178973,W,0.0172,302.592,161217,11.7,E*45
$GPGSA,A,3,73,8,23,7,78,100,27,5,9,13,81,,1.1,0.6,0.9*0B
{"class":"TPV","mode":3,"time":"2017-12-16T03:35:03.500Z","ept":0.005,"lat":33.824362400,"lon":-118.146964956,"altHAE":-13.1504,"altMSL":20.9275,"alt":20.9275,"epv":0.768,"track":302.5924,"magtrack":314.3018,"magvar":11.7,"speed":0.009,"climb":-0.006,"eps":0.01,"epc":6.15,"ecefx":-2502136.44,"ecefy":-4676854.48,"ecefz":3530271.37,"ecefvx":0.00,"ecefvy":0.01,"ecefvz":0.00,"ecefpAcc":0.89,"ecefvAcc":0.01,"velN":0.005,"velE":-0.007,"velD":0.006,"geoidSep":-34.078,"eph":0.452,"sep":20.447}
{"class":"SKY","hdop":0.61,"pdop":1.08,"tdop":0.52,"vdop":0.89,"nSat":20,"uSat":17,"satellites":[{"PRN":138,"gnssid":1,"svid":19,"az":160.0,"ss":47.0,"used":false},{"PRN":73,"gnssid":2,"svid":3,"az":176.0,"ss":47.0,"used":true},{"PRN":8,"gnssid":0,"svid":8,"az":62.0,"ss":46.0,"used":true},{"PRN":23,"gnssid":0,"svid":23,"az":150.0,"ss":46.0,"used":true},{"PRN":7,"gnssid":0,"svid":7,"az":36.0,"ss":47.0,"used":true},{"PRN":78,"gnssid":2,"svid":8,"az":234.0,"ss":55.0,"used":true},{"PRN":100,"gnssid":2,"svid":30,"az":286.0,"ss":48.0,"used":true},{"PRN":27,"gnssid":0,"svid":27,"az":38.0,"ss":42.0,"used":true},{"PRN":5,"gnssid":0,"svid":5,"az":288.0,"ss":50.0,"used":true},{"PRN":9,"gnssid":0,"svid":9,"az":160.0,"ss":49.0,"used":true},{"PRN":13,"gnssid":0,"svid":13,"az":320.0,"ss":40.0,"used":true},{"PRN":81,"gnssid":2,"svid":11,"az":52.0,"ss":45.0,"used":true},{"PRN":135,"gnssid":1,"svid":16,"az":206.0,"ss":52.0,"used":false},{"PRN":72,"gnssid":2,"svid":2,"az":18.0,"ss":49.0,"used":true},{"PRN":28,"gnssid":0,"svid":28,"az":252.0,"ss":46.0,"used":true},{"PRN":11,"gnssid":0,"svid":11,"az":120.0,"ss":40.0,"used":true},{"PRN":30,"gnssid":0,"svid":30,"az":332.0,"ss":48.0,"used":true},{"PRN":77,"gnssid":2,"svid":7,"az":304.0,"ss":45.0,"used":true},{"PRN":17,"gnssid":0,"svid":17,"az":190.0,"ss":46.0,"used":true},{"PRN":131,"gnssid":1,"svid":12,"az":178.0,"ss":48.0,"used":false}]}
{"class":"SKY","hdop":0.61,"pdop":1.08,"tdop":0.52,"vdop":0.89}
$GPZDA,033503.75,16,12,2017,00,00*62
$GPGGA,033503.75,3349.4617436,N,11808.8178973,W,1,17,0.61,20.93,M,-34.078,M,,*65
$GPRMC,033503.75,A,3349.4617436,N,11808.8178973,W,0.0134,228.636,161217,11.7,E*45
$GPGSA,A,3,73,8,23,7,78,100,27,5,9,13,81,,1.1,0.6,0.9*0B
{"class":"TPV","mode":3,"time":"2017-12-16T03:35:03.750Z","ept":0.005,"lat":33.824362393,"lon":-118.146964954,"altHAE":-13.1517,"altMSL":20.9263,"alt":20.9263,"epv":0.769,"track":228.6357,"magtrack":240.3451,"magvar":11.7,"speed":0.007,"climb":0.005,"eps":0.01,"epc":6.15,"ecefx":-2502136.44,"ecefy":-4676854.48,"ecefz":3530271.37,"ecefvx":-0.01,"ecefvy":0.00,"ecefvz":0.00,"ecefpAcc":0.89,"ecefvAcc":0.01,"velN":-0.005,"velE":-0.005,"velD":-0.005,"geoidSep":-34.078,"eph":0.452,"sep":20.448}
{"class":"SKY","hdop":0.61,"pdop":1.08,"tdop":0.52,"vdop":0.89,"nSat":20,"uSat":17,"satellites":[{"PRN":138,"gnssid":1,"svid":19,"az":160.0,"ss":47.0,"used":false},{"PRN":73,"gnssid":2,"svid":3,"az":176.0,"ss":47.0,"used":true},{"PRN":8,"gnssid":0,"svid":8,"az":62.0,"ss":47.0,"used":true},{"PRN":23,"gnssid":0,"svid":23,"az":150.0,"ss":46.0,"used":true},{"PRN":7,"gnssid":0,"svid":7,"az":36.0,"ss":47.0,"used":true},{"PRN":78,"gnssid":2,"svid":8,"az":234.0,"ss":55.0,"used":true},{"PRN":100,"gnssid":2,"svid":30,"az":286.0,"ss":48.0,"used":true},{"PRN":27,"gnssid":0,"svid":27,"az":38.0,"ss":42.0,"used":true},{"PRN":5,"gnssid":0,"svid":5,"az":288.0,"ss":50.0,"used":true},{"PRN":9,"gnssid":0,"svid":9,"az":160.0,"ss":49.0,"used":true},{"PRN":13,"gnssid":0,"svid":13,"az":320.0,"ss":40.0,"used":true},{"PRN":81,"gnssid":2,"svid":11,"az":52.0,"ss":45.0,"used":true},{"PRN":135,"gnssid":1,"svid":16,"az":206.0,"ss":52.0,"used":false},{"PRN":72,"gnssid":2,"svid":2,"az":18.0,"ss":49.0,"used":true},{"PRN":28,"gnssid":0,"svid":28,"az":252.0,"ss":46.0,"used":true},{"PRN":11,"gnssid":0,"svid":11,"az":120.0,"ss":40.0,"used":true},{"PRN":30,"gnssid":0,"svid":30,"az":332.0,"ss":48.0,"used":true},{"PRN":77,"gnssid":2,"svid":7,"az":304.0,"ss":45.0,"used":true},{"PRN":17,"gnssid":0,"svid":17,"az":190.0,"ss":46.0,"used":true},{"PRN":131,"gnssid":1,"svid":12,"az":178.0,"ss":48.0,"used":false}]}
{"class":"SKY","hdop":0.61,"pdop":1.08,"tdop":0.52,"vdop":0.89}
$GPZDA,033504.00,16,12,2017,00,00*67
$GPGGA,033504.00,3349.4617431,N,11808.8178967,W,1,17,0.61,20.93,M,-34.078,M,,*62
$GPRMC,033504.00,A,3349.4617431,N,11808.8178967,W,0.0116,261.693,161217,11.7,E*40
$GPGSA,A,3,73,8,23,7,78,100,27,5,9,13,81,,1.1,0.6,0.9*0B
{"class":"TPV","mode":3,"time":"2017-12-16T03:35:04.000Z","ept":0.005,"lat":33.824362385,"lon":-118.146964944,"altHAE":-13.1523,"altMSL":20.9256,"alt":20.9256,"epv":0.769,"track":261.6930,"magtrack":273.4024,"magvar":11.7,"speed":0.006,"climb":0.012,"eps":0.00,"epc":6.15,"ecefx":-2502136.44,"ecefy":-4676854.48,"ecefz":3530271.37,"ecefvx":-0.01,"ecefvy":-0.01,"ecefvz":0.01,"ecefpAcc":0.89,"ecefvAcc":0.01,"velN":-0.001,"velE":-0.006,"velD":-0.012,"geoidSep":-34.078,"eph":0.452,"sep":20.448}
{"class":"SKY","hdop":0.61,"pdop":1.08,"tdop":0.52,"vdop":0.89,"nSat":20,"uSat":17,"satellites":[{"PRN":138,"gnssid":1,"svid":19,"az":160.0,"ss":47.0,"used":false},{"PRN":73,"gnssid":2,"svid":3,"az":176.0,"ss":47.0,"used":true},{"PRN":8,"gnssid":0,"svid":8,"az":62.0,"ss":47.0,"used":true},{"PRN":23,"gnssid":0,"svid":23,"az":150.0,"ss":46.0,"used":true},{"PRN":7,"gnssid":0,"svid":7,"az":36.0,"ss":47.0,"used":true},{"PRN":78,"gnssid":2,"svid":8,"az":234.0,"ss":55.0,"used":true},{"PRN":100,"gnssid":2,"svid":30,"az":286.0,"ss":48.0,"used":true},{"PRN":27,"gnssid":0,"svid":27,"az":38.0,"ss":42.0,"used":true},{"PRN":5,"gnssid":0,"svid":5,"az":288.0,"ss":50.0,"used":true},{"PRN":9,"gnssid":0,"svid":9,"az":160.0,"ss":48.0,"used":true},{"PRN":13,"gnssid":0,"svid":13,"az":320.0,"ss":40.0,"used":true},{"PRN":81,"gnssid":2,"svid":11,"az":52.0,"ss":45.0,"used":true},{"PRN":135,"gnssid":1,"svid":16,"az":206.0,"ss":52.0,"used":false},{"PRN":72,"gnssid":2,"svid":2,"az":18.0,"ss":49.0,"used":true},{"PRN":28,"gnssid":0,"svid":28,"az":252.0,"ss":46.0,"used":true},{"PRN":11,"gnssid":0,"svid":11,"az":120.0,"ss":40.0,"used":true},{"PRN":30,"gnssid":0,"svid":30,"az":332.0,"ss":48.0,"used":true},{"PRN":77,"gnssid":2,"svid":7,"az":304.0,"ss":45.0,"used":true},{"PRN":17,"gnssid":0,"svid":17,"az":190.0,"ss":46.0,"used":true},{"PRN":131,"gnssid":1,"svid":12,"az":178.0,"ss":48.0,"used":false}]}
{"class":"SKY","hdop":0.61,"pdop":1.08,"tdop":0.52,"vdop":0.89}
$GPZDA,033504.25,16,12,2017,00,00*60
$GPGGA,033504.25,3349.4617427,N,11808.8178970,W,1,17,0.61,20.92,M,-34.078,M,,*65
$GPRMC,033504.25,A,3349.4617427,N,11808.8178970,W,0.0118,120.124,161217,11.7,E*45
$GPGSA,A,3,73,8,23,7,78,100,27,5,9,13,81,,1.1,0.6,0.9*0B
{"class":"TPV","mode":3,"time":"2017-12-16T03:35:04.250Z","ept":0.005,"lat":33.824362378,"lon":-118.146964949,"altHAE":-13.1549,"altMSL":20.9230,"alt":20.9230,"epv":0.769,"track":120.1242,"magtrack":131.8336,"magvar":11.7,"speed":0.006,"climb":0.000,"eps":0.01,"epc":6.15,"ecefx":-2502136.44,"ecefy":-4676854.48,"ecefz":3530271.37,"ecefvx":0.00,"ecefvy":0.00,"ecefvz":0.00,"ecefpAcc":0.89,"ecefvAcc":0.01,"velN":-0.003,"velE":0.005,"velD":0.000,"geoidSep":-34.078,"eph":0.452,"sep":20.448}
{"class":"SKY","hdop":0.61,"pdop":1.08,"tdop":0.52,"vdop":0.89,"nSat":20,"uSat":17,"satellites":[{"PRN":138,"gnssid":1,"svid":19,"az":160.0,"ss":47.0,"used":false},{"PRN":73,"gnssid":2,"svid":3,"az":176.0,"ss":47.0,"used":true},{"PRN":8,"gnssid":0,"svid":8,"az":62.0,"ss":47.0,"used":true},{"PRN":23,"gnssid":0,"svid":23,"az":150.0,"ss":46.0,"used":true},{"PRN":7,"gnssid":0,"svid":7,"az":36.0,"ss":47.0,"used":true},{"PRN":78,"gnssid":2,"svid":8,"az":234.0,"ss":55.0,"used":true},{"PRN":100,"gnssid":2,"svid":30,"az":286.0,"ss":48.0,"used":true},{"PRN":27,"gnssid":0,"svid":27,"az":38.0,"ss":42.0,"used":true},{"PRN":5,"gnssid":0,"svid":5,"az":288.0,"ss":50.0,"used":true},{"PRN":9,"gnssid":0,"svid":9,"az":160.0,"ss":49.0,"used":true},{"PRN":13,"gnssid":0,"svid":13,"az":320.0,"ss":40.0,"used":true},{"PRN":81,"gnssid":2,"svid":11,"az":52.0,"ss":45.0,"used":true},{"PRN":135,"gnssid":1,"svid":16,"az":206.0,"ss":52.0,"used":false},{"PRN":72,"gnssid":2,"svid":2,"az":18.0,"ss":49.0,"used":true},{"PRN":28,"gnssid":0,"svid":28,"az":252.0,"ss":46.0,"used":true},{"PRN":11,"gnssid":0,"svid":11,"az":120.0,"ss":40.0,"used":true},{"PRN":30,"gnssid":0,"svid":30,"az":332.0,"ss":48.0,"used":true},{"PRN":77,"gnssid":2,"svid":7,"az":304.0,"ss":45.0,"used":true},{"PRN":17,"gnssid":0,"svid":17,"az":190.0,"ss":46.0,"used":true},{"PRN":131,"gnssid":1,"svid":12,"az":178.0,"ss":48.0,"used":false}]}
{"class":"SKY","hdop":0.61,"pdop":1.08,"tdop":0.52,"vdop":0.89}
$GPZDA,033504.50,16,12,2017,00,00*62
$GPGGA,033504.50,3349.4617424,N,11808.8178962,W,1,17,0.61,20.93,M,-34.078,M,,*66
$GPRMC,033504.50,A,3349.4617424,N,11808.8178962,W,0.0049,268.755,161217,11.7,E*4D
$GPGSA,A,3,73,8,23,7,78,100,27,5,9,13,81,,1.1,0.6,0.9*0B
{"class":"TPV","mode":3,"time":"2017-12-16T03:35:04.500Z","ept":0.005,"lat":33.824362373,"lon":-118.146964937,"altHAE":-13.1515,"altMSL":20.9264,"alt":20.9264,"epv":0.770,"track":268.7549,"magtrack":280.4643,"magvar":11.7,"speed":0.003,"climb":0.005,"eps":0.01,"epc":6.16,"ecefx":-2502136.44,"ecefy":-4676854.48,"ecefz":3530271.37,"ecefvx":0.00,"ecefvy":0.00,"ecefvz":0.00,"ecefpAcc":0.89,"ecefvAcc":0.01,"velN":0.000,"velE":-0.003,"velD":-0.005,"geoidSep":-34.078,"eph":0.453,"sep":20.448}
{"class":"SKY","hdop":0.61,"pdop":1.08,"tdop":0.52,"vdop":0.89,"nSat":20,"uSat":17,"satellites":[{"PRN":138,"gnssid":1,"svid":19,"az":160.0,"ss":47.0,"used":false},{"PRN":73,"gnssid":2,"svid":3,"az":176.0,"ss":47.0,"used":true},{"PRN":8,"gnssid":0,"svid":8,"az":62.0,"ss":47.0,"used":true},{"PRN":23,"gnssid":0,"svid":23,"az":150.0,"ss":46.0,"used":true},{"PRN":7,"gnssid":0,"svid":7,"az":36.0,"ss":47.0,"used":true},{"PRN":78,"gnssid":2,"svid":8,"az":234.0,"ss":55.0,"used":true},{"PRN":100,"gnssid":2,"svid":30,"az":286.0,"ss":48.0,"used":true},{"PRN":27,"gnssid":0,"svid":27,"az":38.0,"ss":42.0,"used":true},{"PRN":5,"gnssid":0,"svid":5,"az":288.0,"ss":50.0,"used":true},{"PRN":9,"gnssid":0,"svid":9,"az":160.0,"ss":49.0,"used":true},{"PRN":13,"gnssid":0,"svid":13,"az":320.0,"ss":40.0,"used":true},{"PRN":81,"gnssid":2,"svid":11,"az":52.0,"ss":45.0,"used":true},{"PRN":135,"gnssid":1,"svid":16,"az":206.0,"ss":52.0,"used":false},{"PRN":72,"gnssid":2,"svid":2,"az":18.0,"ss":49.0,"used":true},{"PRN":28,"gnssid":0,"svid":28,"az":252.0,"ss":46.0,"used":true},{"PRN":11,"gnssid":0,"svid":11,"az":120.0,"ss":40.0,"used":true},{"PRN":30,"gnssid":0,"svid":30,"az":332.0,"ss":48.0,"used":true},{"PRN":77,"gnssid":2,"svid":7,"az":304.0,"ss":45.0,"used":true},{"PRN":17,"gnssid":0,"svid":17,"az":190.0,"ss":45.0,"used":true},{"PRN":131,"gnssid":1,"svid":12,"az":178.0,"ss":48.0,"used":false}]}
{"class":"SKY","hdop":0.61,"pdop":1.08,"tdop":0.52,"vdop":0.89}
$GPZDA,033504.75,16,12,2017,00,00*65
$GPGGA,033504.75,3349.4617419,N,11808.8178947,W,1,17,0.61,20.93,M,-34.078,M,,*68
$GPRMC,033504.75,A,3349.4617419,N,11808.8178947,W,0.0033,271.861,161217,11.7,E*4E
$GPGSA,A,3,73,8,23,7,78,100,27,5,9,13,81,,1.1,0.6,0.9*0B
{"class":"TPV","mode":3,"time":"2017-12-16T03:35:04.750Z","ept":0.005,"lat":33.824362366,"lon":-118.146964912,"altHAE":-13.1519,"altMSL":20.9260,"alt":20.9260,"epv":0.770,"track":271.8614,"magtrack":283.5708,"magvar":11.7,"speed":0.002,"climb":-0.011,"eps":0.01,"epc":6.16,"ecefx":-2502136.43,"ecefy":-4676854.48,"ecefz":3530271.37,"ecefvx":0.00,"ecefvy":0.01,"ecefvz":-0.01,"ecefpAcc":0.89,"ecefvAcc":0.01,"velN":0.000,"velE":-0.002,"velD":0.011,"geoidSep":-34.078,"eph":0.453,"sep":20.448}
{"class":"SKY","hdop":0.61,"pdop":1.08,"tdop":0.52,"vdop":0.89,"nSat":20,"uSat":17,"satellites":[{"PRN":138,"gnssid":1,"svid":19,"az":160.0,"ss":47.0,"used":false},{"PRN":73,"gnssid":2,"svid":3,"az":176.0,"ss":47.0,"used":true},{"PRN":8,"gnssid":0,"svid":8,"az":62.0,"ss":47.0,"used":true},{"PRN":23,"gnssid":0,"svid":23,"az":150.0,"ss":46.0,"used":true},{"PRN":7,"gnssid":0,"svid":7,"az":36.0,"ss":47.0,"used":true},{"PRN":78,"gnssid":2,"svid":8,"az":234.0,"ss":55.0,"used":true},{"PRN":100,"gnssid":2,"svid":30,"az":286.0,"ss":48.0,"used":true},{"PRN":27,"gnssid":0,"svid":27,"az":38.0,"ss":42.0,"used":true},{"PRN":5,"gnssid":0,"svid":5,"az":288.0,"ss":50.0,"used":true},{"PRN":9,"gnssid":0,"svid":9,"az":160.0,"ss":49.0,"used":true},{"PRN":13,"gnssid":0,"svid":13,"az":320.0,"ss":39.0,"used":true},{"PRN":81,"gnssid":2,"svid":11,"az":52.0,"ss":45.0,"used":true},{"PRN":135,"gnssid":1,"svid":16,"az":206.0,"ss":52.0,"used":false},{"PRN":72,"gnssid":2,"svid":2,"az":18.0,"ss":49.0,"used":true},{"PRN":28,"gnssid":0,"svid":28,"az":252.0,"ss":46.0,"used":true},{"PRN":11,"gnssid":0,"svid":11,"az":120.0,"ss":40.0,"used":true},{"PRN":30,"gnssid":0,"svid":30,"az":332.0,"ss":48.0,"used":true},{"PRN":77,"gnssid":2,"svid":7,"az":304.0,"ss":45.0,"used":true},{"PRN":17,"gnssid":0,"svid":17,"az":190.0,"ss":45.0,"used":true},{"PRN":131,"gnssid":1,"svid":12,"az":178.0,"ss":48.0,"used":false}]}
{"class":"SKY","hdop":0.61,"pdop":1.08,"tdop":0.52,"vdop":0.89}
$GPZDA,033505.00,16,12,2017,00,00*66
$GPGGA,033505.00,3349.4617419,N,11808.8178951,W,1,17,0.61,20.92,M,-34.078,M,,*6D
$GPRMC,033505.00,A,3349.4617419,N,11808.8178951,W,0.0067,183.000,161217,11.7,E*4A
$GPGSA,A,3,73,8,23,7,78,100,27,5,9,13,81,,1.1,0.6,0.9*0B
{"class":"TPV","mode":3,"time":"2017-12-16T03:35:05.000Z","ept":0.005,"lat":33.824362365,"lon":-118.146964919,"altHAE":-13.1533,"altMSL":20.9247,"alt":20.9247,"epv":0.769,"track":183.0000,"magtrack":194.7094,"magvar":11.7,"speed":0.003,"climb":-0.006,"eps":0.01,"epc":6.16,"ecefx":-2502136.43,"ecefy":-4676854.48,"ecefz":3530271.37,"ecefvx":0.00,"ecefvy":0.00,"ecefvz":-0.01,"ecefpAcc":0.89,"ecefvAcc":0.01,"velN":-0.003,"velE":0.000,"velD":0.006,"geoidSep":-34.078,"eph":0.452,"sep":20.448}
{"class":"SKY","hdop":0.61,"pdop":1.08,"tdop":0.52,"vdop":0.89,"nSat":20,"uSat":17,"satellites":[{"PRN":138,"gnssid":1,"svid":19,"az":160.0,"ss":47.0,"used":false},{"PRN":73,"gnssid":2,"svid":3,"az":176.0,"ss":47.0,"used":true},{"PRN":8,"gnssid":0,"svid":8,"az":62.0,"ss":47.0,"used":true},{"PRN":23,"gnssid":0,"svid":23,"az":150.0,"ss":46.0,"used":true},{"PRN":7,"gnssid":0,"svid":7,"az":36.0,"ss":47.0,"used":true},{"PRN":78,"gnssid":2,"svid":8,"az":234.0,"ss":55.0,"used":true},{"PRN":100,"gnssid":2,"svid":30,"az":286.0,"ss":48.0,"used":true},{"PRN":27,"gnssid":0,"svid":27,"az":38.0,"ss":42.0,"used":true},{"PRN":5,"gnssid":0,"svid":5,"az":288.0,"ss":50.0,"used":true},{"PRN":9,"gnssid":0,"svid":9,"az":160.0,"ss":49.0,"used":true},{"PRN":13,"gnssid":0,"svid":13,"az":320.0,"ss":40.0,"used":true},{"PRN":81,"gnssid":2,"svid":11,"az":52.0,"ss":45.0,"used":true},{"PRN":135,"gnssid":1,"svid":16,"az":206.0,"ss":52.0,"used":false},{"PRN":72,"gnssid":2,"svid":2,"az":18.0,"ss":50.0,"used":true},{"PRN":28,"gnssid":0,"svid":28,"az":252.0,"ss":46.0,"used":true},{"PRN":11,"gnssid":0,"svid":11,"az":120.0,"ss":40.0,"used":true},{"PRN":30,"gnssid":0,"svid":30,"az":332.0,"ss":48.0,"used":true},{"PRN":77,"gnssid":2,"svid":7,"az":304.0,"ss":45.0,"used":true},{"PRN":17,"gnssid":0,"svid":17,"az":190.0,"ss":45.0,"used":true},{"PRN":131,"gnssid":1,"svid":12,"az":178.0,"ss":48.0,"used":false}]}
{"class":"SKY","hdop":0.61,"pdop":1.08,"tdop":0.52,"vdop":0.89}
$GPZDA,033505.25,16,12,2017,00,00*61
$GPGGA,033505.25,3349.4617419,N,11808.8178949,W,1,17,0.61,20.93,M,-34.078,M,,*62
$GPRMC,033505.25,A,3349.4617419,N,11808.8178949,W,0.0189,47.308,161217,11.7,E*77
$GPGSA,A,3,73,8,23,7,78,100,27,5,9,13,81,,1.1,0.6,0.9*0B
{"class":"TPV","mode":3,"time":"2017-12-16T03:35:05.250Z","ept":0.005,"lat":33.824362365,"lon":-118.146964915,"altHAE":-13.1515,"altMSL":20.9264,"alt":20.9264,"epv":0.770,"track":47.3081,"magtrack":59.0175,"magvar":11.7,"speed":0.010,"climb":-0.009,"eps":0.01,"epc":6.16,"ecefx":-2502136.44,"ecefy":-4676854.48,"ecefz":3530271.37,"ecefvx":0.01,"ecefvy":0.01,"ecefvz":0.00,"ecefpAcc":0.89,"ecefvAcc":0.01,"velN":0.007,"velE":0.007,"velD":0.009,"geoidSep":-34.078,"eph":0.453,"sep":20.448}
{"class":"SKY","hdop":0.61,"pdop":1.08,"tdop":0.52,"vdop":0.89,"nSat":20,"uSat":17,"satellites":[{"PRN":138,"gnssid":1,"svid":19,"az":160.0,"ss":47.0,"used":false},{"PRN":73,"gnssid":2,"svid":3,"az":176.0,"ss":47.0,"used":true},{"PRN":8,"gnssid":0,"svid":8,"az":62.0,"ss":47.0,"used":true},{"PRN":23,"gnssid":0,"svid":23,"az":150.0,"ss":46.0,"used":true},{"PRN":7,"gnssid":0,"svid":7,"az":36.0,"ss":47.0,"used":true},{"PRN":78,"gnssid":2,"svid":8,"az":234.0,"ss":55.0,"used":true},{"PRN":100,"gnssid":2,"svid":30,"az":286.0,"ss":48.0,"used":true},{"PRN":27,"gnssid":0,"svid":27,"az":38.0,"ss":42.0,"used":true},{"PRN":5,"gnssid":0,"svid":5,"az":288.0,"ss":50.0,"used":true},{"PRN":9,"gnssid":0,"svid":9,"az":160.0,"ss":49.0,"used":true},{"PRN":13,"gnssid":0,"svid":13,"az":320.0,"ss":40.0,"used":true},{"PRN":81,"gnssid":2,"svid":11,"az":52.0,"ss":45.0,"used":true},{"PRN":135,"gnssid":1,"svid":16,"az":206.0,"ss":52.0,"used":false},{"PRN":72,"gnssid":2,"svid":2,"az":18.0,"ss":49.0,"used":true},{"PRN":28,"gnssid":0,"svid":28,"az":252.0,"ss":46.0,"used":true},{"PRN":11,"gnssid":0,"svid":11,"az":120.0,"ss":40.0,"used":true},{"PRN":30,"gnssid":0,"svid":30,"az":332.0,"ss":48.0,"used":true},{"PRN":77,"gnssid":2,"svid":7,"az":304.0,"ss":45.0,"used":true},{"PRN":17,"gnssid":0,"svid":17,"az":190.0,"ss":45.0,"used":true},{"PRN":131,"gnssid":1,"svid":12,"az":178.0,"ss":48.0,"used":false}]}
{"class":"SKY","hdop":0.61,"pdop":1.08,"tdop":0.52,"vdop":0.89}
$GPZDA,033505.50,16,12,2017,00,00*63
$GPGGA,033505.50,3349.4617426,N,11808.8178960,W,1,17,0.61,20.92,M,-34.078,M,,*66
$GPRMC,033505.50,A,3349.4617426,N,11808.8178960,W,0.0210,262.294,161217,11.7,E*40
$GPGSA,A,3,73,8,23,7,78,100,27,5,9,13,81,,1.1,0.6,0.9*0B
{"class":"TPV","mode":3,"time":"2017-12-16T03:35:05.500Z","ept":0.005,"lat":33.824362376,"lon":-118.146964933,"altHAE":-13.1530,"altMSL":20.9249,"alt":20.9249,"epv":0.770,"track":262.2943,"magtrack":274.0037,"magvar":11.7,"speed":0.011,"climb":0.012,"eps":0.01,"epc":6.16,"ecefx":-2502136.44,"ecefy":-4676854.48,"ecefz":3530271.37,"ecefvx":-0.01,"ecefvy":0.00,"ecefvz":0.01,"ecefpAcc":0.89,"ecefvAcc":0.01,"velN":-0.001,"velE":-0.011,"velD":-0.012,"geoidSep":-34.078,"eph":0.453,"sep":20.448}
{"class":"SKY","hdop":0.61,"pdop":1.08,"tdop":0.52,"vdop":0.89,"nSat":20,"uSat":17,"satellites":[{"PRN":138,"gnssid":1,"svid":19,"az":160.0,"ss":47.0,"used":false},{"PRN":73,"gnssid":2,"svid":3,"az":176.0,"ss":47.0,"used":true},{"PRN":8,"gnssid":0,"svid":8,"az":62.0,"ss":47.0,"used":true},{"PRN":23,"gnssid":0,"svid":23,"az":150.0,"ss":46.0,"used":true},{"PRN":7,"gnssid":0,"svid":7,"az":36.0,"ss":47.0,"used":true},{"PRN":78,"gnssid":2,"svid":8,"az":234.0,"ss":55.0,"used":true},{"PRN":100,"gnssid":2,"svid":30,"az":286.0,"ss":48.0,"used":true},{"PRN":27,"gnssid":0,"svid":27,"az":38.0,"ss":42.0,"used":true},{"PRN":5,"gnssid":0,"svid":5,"az":288.0,"ss":50.0,"used":true},{"PRN":9,"gnssid":0,"svid":9,"az":160.0,"ss":49.0,"used":true},{"PRN":13,"gnssid":0,"svid":13,"az":320.0,"ss":40.0,"used":true},{"PRN":81,"gnssid":2,"svid":11,"az":52.0,"ss":45.0,"used":true},{"PRN":135,"gnssid":1,"svid":16,"az":206.0,"ss":52.0,"used":false},{"PRN":72,"gnssid":2,"svid":2,"az":18.0,"ss":49.0,"used":true},{"PRN":28,"gnssid":0,"svid":28,"az":252.0,"ss":46.0,"used":true},{"PRN":11,"gnssid":0,"svid":11,"az":120.0,"ss":40.0,"used":true},{"PRN":30,"gnssid":0,"svid":30,"az":332.0,"ss":48.0,"used":true},{"PRN":77,"gnssid":2,"svid":7,"az":304.0,"ss":45.0,"used":true},{"PRN":17,"gnssid":0,"svid":17,"az":190.0,"ss":45.0,"used":true},{"PRN":131,"gnssid":1,"svid":12,"az":178.0,"ss":47.0,"used":false}]}
{"class":"SKY","hdop":0.61,"pdop":1.08,"tdop":0.52,"vdop":0.89}
$GPZDA,033505.75,16,12,2017,00,00*64
$GPGGA,033505.75,3349.4617427,N,11808.8178939,W,1,17,0.61,20.92,M,-34.078,M,,*6C
$GPRMC,033505.75,A,3349.4617427,N,11808.8178939,W,0.0085,52.984,161217,11.7,E*7F
$GPGSA,A,3,73,8,23,7,78,100,27,5,9,13,81,,1.1,0.6,0.9*0B
{"class":"TPV","mode":3,"time":"2017-12-16T03:35:05.750Z","ept":0.005,"lat":33.824362378,"lon":-118.146964898,"altHAE":-13.1541,"altMSL":20.9238,"alt":20.9238,"epv":0.770,"track":52.9844,"magtrack":64.6938,"magvar":11.7,"speed":0.004,"climb":0.008,"eps":0.01,"epc":6.16,"ecefx":-2502136.43,"ecefy":-4676854.48,"ecefz":3530271.37,"ecefvx":0.00,"ecefvy":-0.01,"ecefvz":0.01,"ecefpAcc":0.89,"ecefvAcc":0.01,"velN":0.003,"velE":0.003,"velD":-0.008,"geoidSep":-34.078,"eph":0.452,"sep":20.448}
{"class":"SKY","hdop":0.61,"pdop":1.08,"tdop":0.52,"vdop":0.89,"nSat":20,"uSat":17,"satellites":[{"PRN":138,"gnssid":1,"svid":19,"az":160.0,"ss":47.0,"used":false},{"PRN":73,"gnssid":2,"svid":3,"az":176.0,"ss":47.0,"used":true},{"PRN":8,"gnssid":0,"svid":8,"az":62.0,"ss":47.0,"used":true},{"PRN":23,"gnssid":0,"svid":23,"az":150.0,"ss":46.0,"used":true},{"PRN":7,"gnssid":0,"svid":7,"az":36.0,"ss":47.0,"used":true},{"PRN":78,"gnssid":2,"svid":8,"az":234.0,"ss":55.0,"used":true},{"PRN":100,"gnssid":2,"svid":30,"az":286.0,"ss":48.0,"used":true},{"PRN":27,"gnssid":0,"svid":27,"az":38.0,"ss":42.0,"used":true},{"PRN":5,"gnssid":0,"svid":5,"az":288.0,"ss":50.0,"used":true},{"PRN":9,"gnssid":0,"svid":9,"az":160.0,"ss":49.0,"used":true},{"PRN":13,"gnssid":0,"svid":13,"az":320.0,"ss":40.0,"used":true},{"PRN":81,"gnssid":2,"svid":11,"az":52.0,"ss":45.0,"used":true},{"PRN":135,"gnssid":1,"svid":16,"az":206.0,"ss":52.0,"used":false},{"PRN":72,"gnssid":2,"svid":2,"az":18.0,"ss":49.0,"used":true},{"PRN":28,"gnssid":0,"svid":28,"az":252.0,"ss":46.0,"used":true},{"PRN":11,"gnssid":0,"svid":11,"az":120.0,"ss":40.0,"used":true},{"PRN":30,"gnssid":0,"svid":30,"az":332.0,"ss":48.0,"used":true},{"PRN":77,"gnssid":2,"svid":7,"az":304.0,"ss":45.0,"used":true},{"PRN":17,"gnssid":0,"svid":17,"az":190.0,"ss":45.0,"used":true},{"PRN":131,"gnssid":1,"svid":12,"az":178.0,"ss":47.0,"used":false}]}
{"class":"SKY","hdop":0.61,"pdop":1.08,"tdop":0.52,"vdop":0.89}
$GPZDA,033506.00,16,12,2017,00,00*65
$GPGGA,033506.00,3349.4617426,N,11808.8178932,W,1,17,0.61,20.92,M,-34.078,M,,*67
$GPRMC,033506.00,A,3349.4617426,N,11808.8178932,W,0.0274,68.529,161217,11.7,E*7A
$GPGSA,A,3,73,8,23,7,78,100,27,5,9,13,81,,1.1,0.6,0.9*0B
{"class":"TPV","mode":3,"time":"2017-12-16T03:35:06.000Z","ept":0.005,"lat":33.824362377,"lon":-118.146964887,"altHAE":-13.1533,"altMSL":20.9246,"alt":20.9246,"epv":0.770,"track":68.5289,"magtrack":80.2383,"magvar":11.7,"speed":0.014,"climb":-0.017,"eps":0.01,"epc":6.16,"ecefx":-2502136.43,"ecefy":-4676854.48,"ecefz":3530271.37,"ecefvx":0.02,"ecefvy":0.01,"ecefvz":-0.01,"ecefpAcc":0.89,"ecefvAcc":0.01,"velN":0.005,"velE":0.013,"velD":0.017,"geoidSep":-34.078,"eph":0.453,"sep":20.448}
{"class":"SKY","hdop":0.61,"pdop":1.08,"tdop":0.52,"vdop":0.89,"nSat":20,"uSat":17,"satellites":[{"PRN":138,"gnssid":1,"svid":19,"az":160.0,"ss":47.0,"used":false},{"PRN":73,"gnssid":2,"svid":3,"az":176.0,"ss":47.0,"used":true},{"PRN":8,"gnssid":0,"svid":8,"az":62.0,"ss":47.0,"used":true},{"PRN":23,"gnssid":0,"svid":23,"az":150.0,"ss":46.0,"used":true},{"PRN":7,"gnssid":0,"svid":7,"az":36.0,"ss":47.0,"used":true},{"PRN":78,"gnssid":2,"svid":8,"az":234.0,"ss":55.0,"used":true},{"PRN":100,"gnssid":2,"svid":30,"az":286.0,"ss":48.0,"used":true},{"PRN":27,"gnssid":0,"svid":27,"az":38.0,"ss":42.0,"used":true},{"PRN":5,"gnssid":0,"svid":5,"az":288.0,"ss":50.0,"used":true},{"PRN":9,"gnssid":0,"svid":9,"az":160.0,"ss":49.0,"used":true},{"PRN":13,"gnssid":0,"svid":13,"az":320.0,"ss":40.0,"used":true},{"PRN":81,"gnssid":2,"svid":11,"az":52.0,"ss":45.0,"used":true},{"PRN":135,"gnssid":1,"svid":16,"az":206.0,"ss":52.0,"used":false},{"PRN":72,"gnssid":2,"svid":2,"az":18.0,"ss":49.0,"used":true},{"PRN":28,"gnssid":0,"svid":28,"az":252.0,"ss":46.0,"used":true},{"PRN":11,"gnssid":0,"svid":11,"az":120.0,"ss":40.0,"used":true},{"PRN":30,"gnssid":0,"svid":30,"az":332.0,"ss":48.0,"used":true},{"PRN":77,"gnssid":2,"svid":7,"az":304.0,"ss":45.0,"used":true},{"PRN":17,"gnssid":0,"svid":17,"az":190.0,"ss":45.0,"used":true},{"PRN":131,"gnssid":1,"svid":12,"az":178.0,"ss":47.0,"used":false}]}
{"class":"SKY","hdop":0.61,"pdop":1.08,"tdop":0.52,"vdop":0.89}
$GPZDA,033506.25,16,12,2017,00,00*62
$GPGGA,033506.25,3349.4617426,N,11808.8178954,W,1,17,0.61,20.93,M,-34.078,M,,*61
$GPRMC,033506.25,A,3349.4617426,N,11808.8178954,W,0.0121,222.792,161217,11.7,E*40
$GPGSA,A,3,73,8,23,7,78,100,27,5,9,13,81,,1.1,0.6,0.9*0B
