{"class":"SKY","hdop":0.70,"pdop":1.38,"tdop":0.80,"vdop":1.19}
$GPZDA,,00,01,1900,00,00*41
$GPGGA,,4404.1285,N,12118.8458,W,1,17,0.70,1125.74,M,-22.155,M,,*49
$GPRMC,,A,4404.1285,N,12118.8458,W,0.0149,25.022,,14.4,E*5E
$GPGSA,A,3,131,135,79,11,7,18,75,13,19,15,30,1,1.4,0.7,1.2*39
{"class":"TPV","mode":3,"lat":44.068809013,"lon":-121.314096779,"altHAE":1103.5872,"altMSL":1125.7418,"alt":1125.7418,"epv":1.281,"track":25.0225,"magtrack":39.4409,"magvar":14.4,"speed":0.008,"climb":-0.002,"eps":0.01,"ecefx":-2386053.90,"ecefy":-3922195.04,"ecefz":4414355.75,"ecefvx":0.01,"ecefvy":0.00,"ecefvz":0.00,"ecefpAcc":1.44,"ecefvAcc":0.01,"velN":0.007,"velE":0.003,"velD":0.002,"geoidSep":-22.155,"eph":0.659,"sep":26.190}
{"class":"SKY","hdop":0.70,"pdop":1.38,"tdop":0.80,"vdop":1.19,"nSat":18,"uSat":17,"satellites":[{"PRN":131,"gnssid":1,"svid":12,"az":174.0,"ss":45.0,"used":true},{"PRN":135,"gnssid":1,"svid":16,"az":196.0,"ss":46.0,"used":true},{"PRN":79,"gnssid":2,"svid":9,"az":206.0,"ss":41.0,"used":true},{"PRN":11,"gnssid":0,"svid":11,"az":66.0,"ss":47.0,"used":true},{"PRN":7,"gnssid":0,"svid":7,"az":126.0,"ss":47.0,"used":true},{"PRN":18,"gnssid":0,"svid":18,"az":56.0,"ss":34.0,"used":true},{"PRN":75,"gnssid":2,"svid":5,"az":254.0,"ss":43.0,"used":true},{"PRN":13,"gnssid":0,"svid":13,"az":262.0,"ss":47.0,"used":true},{"PRN":19,"gnssid":0,"svid":19,"az":196.0,"ss":46.0,"used":true},{"PRN":15,"gnssid":0,"svid":15,"az":298.0,"ss":43.0,"used":true},{"PRN":30,"gnssid":0,"svid":30,"az":122.0,"ss":48.0,"used":true},{"PRN":1,"gnssid":0,"svid":1,"az":80.0,"ss":42.0,"used":true},{"PRN":28,"gnssid":0,"svid":28,"az":38.0,"ss":46.0,"used":true},{"PRN":138,"gnssid":1,"svid":19,"az":160.0,"ss":46.0,"used":true},{"PRN":133,"gnssid":1,"svid":14,"az":192.0,"ss":45.0,"used":false},{"PRN":94,"gnssid":2,"svid":24,"az":326.0,"ss":44.0,"used":true},{"PRN":17,"gnssid":0,"svid":17,"az":186.0,"ss":47.0,"used":true},{"PRN":82,"gnssid":2,"svid":12,"az":140.0,"ss":47.0,"used":true}]}
{"class":"SKY","hdop":0.70,"pdop":1.38,"tdop":0.80,"vdop":1.19}
$GPZDA,,00,01,1900,00,00*41
$GPGGA,,4404.1285,N,12118.8458,W,1,17,0.70,1125.75,M,-22.155,M,,*48
$GPRMC,,A,4404.1285,N,12118.8458,W,0.0022,309.027,,14.4,E*6A
$GPGSA,A,3,131,135,79,11,7,18,75,13,19,15,30,1,1.4,0.7,1.2*39
{"class":"TPV","mode":3,"lat":44.068809025,"lon":-121.314096799,"altHAE":1103.5926,"altMSL":1125.7471,"alt":1125.7471,"epv":1.278,"track":309.0270,"magtrack":323.4454,"magvar":14.4,"speed":0.001,"climb":-0.002,"eps":0.01,"ecefx":-2386053.90,"ecefy":-3922195.04,"ecefz":4414355.76,"ecefvx":0.00,"ecefvy":0.00,"ecefvz":0.00,"ecefpAcc":1.44,"ecefvAcc":0.02,"velN":0.001,"velE":-0.001,"velD":0.002,"geoidSep":-22.155,"eph":0.658,"sep":26.189}
{"class":"SKY","hdop":0.70,"pdop":1.38,"tdop":0.80,"vdop":1.19,"nSat":18,"uSat":17,"satellites":[{"PRN":131,"gnssid":1,"svid":12,"az":174.0,"ss":45.0,"used":true},{"PRN":135,"gnssid":1,"svid":16,"az":196.0,"ss":47.0,"used":true},{"PRN":79,"gnssid":2,"svid":9,"az":206.0,"ss":41.0,"used":true},{"PRN":11,"gnssid":0,"svid":11,"az":66.0,"ss":47.0,"used":true},{"PRN":7,"gnssid":0,"svid":7,"az":126.0,"ss":47.0,"used":true},{"PRN":18,"gnssid":0,"svid":18,"az":56.0,"ss":34.0,"used":true},{"PRN":75,"gnssid":2,"svid":5,"az":254.0,"ss":42.0,"used":true},{"PRN":13,"gnssid":0,"svid":13,"az":262.0,"ss":47.0,"used":true},{"PRN":19,"gnssid":0,"svid":19,"az":196.0,"ss":46.0,"used":true},{"PRN":15,"gnssid":0,"svid":15,"az":298.0,"ss":43.0,"used":true},{"PRN":30,"gnssid":0,"svid":30,"az":122.0,"ss":48.0,"used":true},{"PRN":1,"gnssid":0,"svid":1,"az":80.0,"ss":42.0,"used":true},{"PRN":28,"gnssid":0,"svid":28,"az":38.0,"ss":46.0,"used":true},{"PRN":138,"gnssid":1,"svid":19,"az":160.0,"ss":46.0,"used":true},{"PRN":133,"gnssid":1,"svid":14,"az":192.0,"ss":45.0,"used":false},{"PRN":94,"gnssid":2,"svid":24,"az":326.0,"ss":44.0,"used":true},{"PRN":17,"gnssid":0,"svid":17,"az":186.0,"ss":47.0,"used":true},{"PRN":82,"gnssid":2,"svid":12,"az":140.0,"ss":47.0,"used":true}]}
{"class":"SKY","hdop":0.70,"pdop":1.38,"tdop":0.80,"vdop":1.19}
$GPZDA,,00,01,1900,00,00*41
$GPGGA,,4404.1285,N,12118.8458,W,1,17,0.70,1125.75,M,-22.155,M,,*48
$GPRMC,,A,4404.1285,N,12118.8458,W,0.0160,83.821,,14.4,E*52
$GPGSA,A,3,131,135,79,11,7,18,75,13,19,15,30,1,1.4,0.7,1.2*39
{"class":"TPV","mode":3,"lat":44.068809022,"lon":-121.314096795,"altHAE":1103.5922,"altMSL":1125.7467,"alt":1125.7467,"epv":1.278,"track":83.8207,"magtrack":98.2391,"magvar":14.4,"speed":0.008,"climb":-0.005,"eps":0.01,"ecefx":-2386053.90,"ecefy":-3922195.04,"ecefz":4414355.76,"ecefvx":0.01,"ecefvy":0.00,"ecefvz":0.00,"ecefpAcc":1.44,"ecefvAcc":0.02,"velN":0.001,"velE":0.008,"velD":0.005,"geoidSep":-22.155,"eph":0.658,"sep":26.188}
{"class":"SKY","hdop":0.70,"pdop":1.38,"tdop":0.80,"vdop":1.19,"nSat":18,"uSat":17,"satellites":[{"PRN":131,"gnssid":1,"svid":12,"az":174.0,"ss":45.0,"used":true},{"PRN":135,"gnssid":1,"svid":16,"az":196.0,"ss":47.0,"used":true},{"PRN":79,"gnssid":2,"svid":9,"az":206.0,"ss":41.0,"used":true},{"PRN":11,"gnssid":0,"svid":11,"az":66.0,"ss":47.0,"used":true},{"PRN":7,"gnssid":0,"svid":7,"az":126.0,"ss":47.0,"used":true},{"PRN":18,"gnssid":0,"svid":18,"az":56.0,"ss":34.0,"used":true},{"PRN":75,"gnssid":2,"svid":5,"az":254.0,"ss":43.0,"used":true},{"PRN":13,"gnssid":0,"svid":13,"az":262.0,"ss":47.0,"used":true},{"PRN":19,"gnssid":0,"svid":19,"az":196.0,"ss":46.0,"used":true},{"PRN":15,"gnssid":0,"svid":15,"az":298.0,"ss":43.0,"used":true},{"PRN":30,"gnssid":0,"svid":30,"az":122.0,"ss":48.0,"used":true},{"PRN":1,"gnssid":0,"svid":1,"az":80.0,"ss":42.0,"used":true},{"PRN":28,"gnssid":0,"svid":28,"az":38.0,"ss":46.0,"used":true},{"PRN":138,"gnssid":1,"svid":19,"az":160.0,"ss":47.0,"used":true},{"PRN":133,"gnssid":1,"svid":14,"az":192.0,"ss":45.0,"used":false},{"PRN":94,"gnssid":2,"svid":24,"az":326.0,"ss":44.0,"used":true},{"PRN":17,"gnssid":0,"svid":17,"az":186.0,"ss":47.0,"used":true},{"PRN":82,"gnssid":2,"svid":12,"az":140.0,"ss":47.0,"used":true}]}
{"class":"SKY","hdop":0.70,"pdop":1.38,"tdop":0.80,"vdop":1.19}
$GPZDA,,00,01,1900,00,00*41
$GPGGA,,4404.1285,N,12118.8458,W,1,17,0.70,1125.75,M,-22.155,M,,*48
$GPRMC,,A,4404.1285,N,12118.8458,W,0.0151,54.245,,14.4,E*52
$GPGSA,A,3,131,135,79,11,7,18,75,13,19,15,30,1,1.4,0.7,1.2*39
{"class":"TPV","mode":3,"lat":44.068809031,"lon":-121.314096770,"altHAE":1103.5995,"altMSL":1125.7540,"alt":1125.7540,"epv":1.276,"track":54.2451,"magtrack":68.6635,"magvar":14.4,"speed":0.008,"climb":0.002,"eps":0.01,"ecefx":-2386053.90,"ecefy":-3922195.05,"ecefz":4414355.76,"ecefvx":0.01,"ecefvy":0.00,"ecefvz":0.00,"ecefpAcc":1.43,"ecefvAcc":0.02,"velN":0.005,"velE":0.006,"velD":-0.002,"geoidSep":-22.155,"eph":0.656,"sep":26.187}
{"class":"SKY","hdop":0.70,"pdop":1.38,"tdop":0.80,"vdop":1.19,"nSat":18,"uSat":17,"satellites":[{"PRN":131,"gnssid":1,"svid":12,"az":174.0,"ss":45.0,"used":true},{"PRN":135,"gnssid":1,"svid":16,"az":196.0,"ss":46.0,"used":true},{"PRN":79,"gnssid":2,"svid":9,"az":206.0,"ss":41.0,"used":true},{"PRN":11,"gnssid":0,"svid":11,"az":66.0,"ss":47.0,"used":true},{"PRN":7,"gnssid":0,"svid":7,"az":126.0,"ss":47.0,"used":true},{"PRN":18,"gnssid":0,"svid":18,"az":56.0,"ss":34.0,"used":true},{"PRN":75,"gnssid":2,"svid":5,"az":254.0,"ss":42.0,"used":true},{"PRN":13,"gnssid":0,"svid":13,"az":262.0,"ss":47.0,"used":true},{"PRN":19,"gnssid":0,"svid":19,"az":196.0,"ss":46.0,"used":true},{"PRN":15,"gnssid":0,"svid":15,"az":298.0,"ss":43.0,"used":true},{"PRN":30,"gnssid":0,"svid":30,"az":122.0,"ss":48.0,"used":true},{"PRN":1,"gnssid":0,"svid":1,"az":80.0,"ss":42.0,"used":true},{"PRN":28,"gnssid":0,"svid":28,"az":38.0,"ss":46.0,"used":true},{"PRN":138,"gnssid":1,"svid":19,"az":160.0,"ss":46.0,"used":true},{"PRN":133,"gnssid":1,"svid":14,"az":192.0,"ss":45.0,"used":false},{"PRN":94,"gnssid":2,"svid":24,"az":326.0,"ss":44.0,"used":true},{"PRN":17,"gnssid":0,"svid":17,"az":186.0,"ss":47.0,"used":true},{"PRN":82,"gnssid":2,"svid":12,"az":140.0,"ss":47.0,"used":true}]}
{"class":"SKY","hdop":0.70,"pdop":1.38,"tdop":0.80,"vdop":1.19}
$GPZDA,,00,01,1900,00,00*41
$GPGGA,,4404.1285,N,12118.8458,W,1,17,0.70,1125.76,M,-22.155,M,,*4B
$GPRMC,,A,4404.1285,N,12118.8458,W,0.0082,1.378,,14.4,E*62
$GPGSA,A,3,131,135,79,11,7,18,75,13,19,15,30,1,1.4,0.7,1.2*39
{"class":"TPV","mode":3,"lat":44.068809010,"lon":-121.314096763,"altHAE":1103.6038,"altMSL":1125.7583,"alt":1125.7583,"epv":1.275,"track":1.3779,"magtrack":15.7964,"magvar":14.4,"speed":0.004,"climb":0.009,"eps":0.01,"ecefx":-2386053.90,"ecefy":-3922195.05,"ecefz":4414355.76,"ecefvx":0.00,"ecefvy":0.00,"ecefvz":0.01,"ecefpAcc":1.43,"ecefvAcc":0.01,"velN":0.004,"velE":0.000,"velD":-0.009,"geoidSep":-22.155,"eph":0.656,"sep":26.186}
{"class":"SKY","hdop":0.70,"pdop":1.38,"tdop":0.80,"vdop":1.19,"nSat":18,"uSat":17,"satellites":[{"PRN":131,"gnssid":1,"svid":12,"az":174.0,"ss":45.0,"used":true},{"PRN":135,"gnssid":1,"svid":16,"az":196.0,"ss":46.0,"used":true},{"PRN":79,"gnssid":2,"svid":9,"az":206.0,"ss":41.0,"used":true},{"PRN":11,"gnssid":0,"svid":11,"az":66.0,"ss":47.0,"used":true},{"PRN":7,"gnssid":0,"svid":7,"az":126.0,"ss":47.0,"used":true},{"PRN":18,"gnssid":0,"svid":18,"az":56.0,"ss":34.0,"used":true},{"PRN":75,"gnssid":2,"svid":5,"az":254.0,"ss":43.0,"used":true},{"PRN":13,"gnssid":0,"svid":13,"az":262.0,"ss":47.0,"used":true},{"PRN":19,"gnssid":0,"svid":19,"az":196.0,"ss":46.0,"used":true},{"PRN":15,"gnssid":0,"svid":15,"az":298.0,"ss":44.0,"used":true},{"PRN":30,"gnssid":0,"svid":30,"az":122.0,"ss":48.0,"used":true},{"PRN":1,"gnssid":0,"svid":1,"az":80.0,"ss":42.0,"used":true},{"PRN":28,"gnssid":0,"svid":28,"az":38.0,"ss":46.0,"used":true},{"PRN":138,"gnssid":1,"svid":19,"az":160.0,"ss":46.0,"used":true},{"PRN":133,"gnssid":1,"svid":14,"az":192.0,"ss":45.0,"used":false},{"PRN":94,"gnssid":2,"svid":24,"az":326.0,"ss":44.0,"used":true},{"PRN":17,"gnssid":0,"svid":17,"az":186.0,"ss":47.0,"used":true},{"PRN":82,"gnssid":2,"svid":12,"az":140.0,"ss":47.0,"used":true}]}
{"class":"SKY","hdop":0.70,"pdop":1.38,"tdop":0.80,"vdop":1.19}
$GPZDA,,00,01,1900,00,00*41
$GPGGA,,4404.1285,N,12118.8458,W,1,17,0.70,1125.77,M,-22.155,M,,*4A
$GPRMC,,A,4404.1285,N,12118.8458,W,0.0130,84.827,,14.4,E*56
$GPGSA,A,3,131,135,79,11,7,18,75,13,19,15,30,1,1.4,0.7,1.2*39
{"class":"TPV","mode":3,"lat":44.068809033,"lon":-121.314096725,"altHAE":1103.6107,"altMSL":1125.7652,"alt":1125.7652,"epv":1.274,"track":84.8268,"magtrack":99.2452,"magvar":14.4,"speed":0.007,"climb":0.013,"eps":0.01,"ecefx":-2386053.90,"ecefy":-3922195.06,"ecefz":4414355.77,"ecefvx":0.00,"ecefvy":-0.01,"ecefvz":0.01,"ecefpAcc":1.43,"ecefvAcc":0.01,"velN":0.001,"velE":0.007,"velD":-0.013,"geoidSep":-22.155,"eph":0.655,"sep":26.185}
{"class":"SKY","hdop":0.70,"pdop":1.38,"tdop":0.80,"vdop":1.19,"nSat":18,"uSat":17,"satellites":[{"PRN":131,"gnssid":1,"svid":12,"az":174.0,"ss":45.0,"used":true},{"PRN":135,"gnssid":1,"svid":16,"az":196.0,"ss":47.0,"used":true},{"PRN":79,"gnssid":2,"svid":9,"az":206.0,"ss":41.0,"used":true},{"PRN":11,"gnssid":0,"svid":11,"az":66.0,"ss":47.0,"used":true},{"PRN":7,"gnssid":0,"svid":7,"az":126.0,"ss":47.0,"used":true},{"PRN":18,"gnssid":0,"svid":18,"az":56.0,"ss":34.0,"used":true},{"PRN":75,"gnssid":2,"svid":5,"az":254.0,"ss":43.0,"used":true},{"PRN":13,"gnssid":0,"svid":13,"az":262.0,"ss":47.0,"used":true},{"PRN":19,"gnssid":0,"svid":19,"az":196.0,"ss":46.0,"used":true},{"PRN":15,"gnssid":0,"svid":15,"az":298.0,"ss":44.0,"used":true},{"PRN":30,"gnssid":0,"svid":30,"az":122.0,"ss":48.0,"used":true},{"PRN":1,"gnssid":0,"svid":1,"az":80.0,"ss":43.0,"used":true},{"PRN":28,"gnssid":0,"svid":28,"az":38.0,"ss":46.0,"used":true},{"PRN":138,"gnssid":1,"svid":19,"az":160.0,"ss":46.0,"used":true},{"PRN":133,"gnssid":1,"svid":14,"az":192.0,"ss":45.0,"used":false},{"PRN":94,"gnssid":2,"svid":24,"az":326.0,"ss":44.0,"used":true},{"PRN":17,"gnssid":0,"svid":17,"az":186.0,"ss":47.0,"used":true},{"PRN":82,"gnssid":2,"svid":12,"az":140.0,"ss":47.0,"used":true}]}
{"class":"SKY","hdop":0.70,"pdop":1.38,"tdop":0.80,"vdop":1.19}
$GPZDA,,00,01,1900,00,00*41
$GPGGA,,4404.1285,N,12118.8458,W,1,17,0.70,1125.76,M,-22.155,M,,*4B
$GPRMC,,A,4404.1285,N,12118.8458,W,0.0174,43.664,,14.4,E*54
$GPGSA,A,3,131,135,79,11,7,18,75,13,19,15,30,1,1.4,0.7,1.2*39
{"class":"TPV","mode":3,"lat":44.068809037,"lon":-121.314096717,"altHAE":1103.6086,"altMSL":1125.7631,"alt":1125.7631,"epv":27.324,"track":43.6643,"magtrack":58.0827,"magvar":14.4,"speed":0.009,"climb":0.000,"ecefx":-2386053.90,"ecefy":-3922195.06,"ecefz":4414355.77,"ecefvx":0.01,"ecefvy":0.00,"ecefvz":0.00,"ecefpAcc":1.43,"ecefvAcc":0.03,"velN":0.006,"velE":0.006,"velD":0.000,"geoidSep":-22.155,"eph":13.271,"sep":26.184}
{"class":"SKY","hdop":0.70,"pdop":1.38,"tdop":0.80,"vdop":1.19,"nSat":18,"uSat":17,"satellites":[{"PRN":131,"gnssid":1,"svid":12,"az":174.0,"ss":45.0,"used":true},{"PRN":135,"gnssid":1,"svid":16,"az":196.0,"ss":46.0,"used":true},{"PRN":79,"gnssid":2,"svid":9,"az":206.0,"ss":41.0,"used":true},{"PRN":11,"gnssid":0,"svid":11,"az":66.0,"ss":47.0,"used":true},{"PRN":7,"gnssid":0,"svid":7,"az":126.0,"ss":47.0,"used":true},{"PRN":18,"gnssid":0,"svid":18,"az":56.0,"ss":34.0,"used":true},{"PRN":75,"gnssid":2,"svid":5,"az":254.0,"ss":42.0,"used":true},{"PRN":13,"gnssid":0,"svid":13,"az":262.0,"ss":47.0,"used":true},{"PRN":19,"gnssid":0,"svid":19,"az":196.0,"ss":46.0,"used":true},{"PRN":15,"gnssid":0,"svid":15,"az":298.0,"ss":44.0,"used":true},{"PRN":30,"gnssid":0,"svid":30,"az":122.0,"ss":48.0,"used":true},{"PRN":1,"gnssid":0,"svid":1,"az":80.0,"ss":42.0,"used":true},{"PRN":28,"gnssid":0,"svid":28,"az":38.0,"ss":46.0,"used":true},{"PRN":138,"gnssid":1,"svid":19,"az":160.0,"ss":47.0,"used":true},{"PRN":133,"gnssid":1,"svid":14,"az":192.0,"ss":45.0,"used":false},{"PRN":94,"gnssid":2,"svid":24,"az":326.0,"ss":44.0,"used":true},{"PRN":17,"gnssid":0,"svid":17,"az":186.0,"ss":47.0,"used":true},{"PRN":82,"gnssid":2,"svid":12,"az":140.0,"ss":47.0,"used":true}]}
{"class":"SKY","hdop":0.70,"pdop":1.38,"tdop":0.80,"vdop":1.19}
$GPZDA,,00,01,1900,00,00*41
$GPGGA,,4404.1285,N,12118.8458,W,1,17,0.70,1125.77,M,-22.155,M,,*4A
$GPRMC,,A,4404.1285,N,12118.8458,W,0.0293,144.391,,14.4,E*67
$GPGSA,A,3,131,135,79,11,7,18,75,13,19,15,30,1,1.4,0.7,1.2*39
{"class":"TPV","mode":3,"lat":44.068809031,"lon":-121.314096692,"altHAE":1103.6120,"altMSL":1125.7666,"alt":1125.7666,"epv":1.273,"track":144.3912,"magtrack":158.8096,"magvar":14.4,"speed":0.015,"climb":0.003,"eps":0.01,"ecefx":-2386053.90,"ecefy":-3922195.06,"ecefz":4414355.77,"ecefvx":0.00,"ecefvy":-0.01,"ecefvz":-0.01,"ecefpAcc":1.43,"ecefvAcc":0.02,"velN":-0.012,"velE":0.009,"velD":-0.003,"geoidSep":-22.155,"eph":0.655,"sep":26.184}
{"class":"SKY","hdop":0.70,"pdop":1.38,"tdop":0.80,"vdop":1.19,"nSat":18,"uSat":17,"satellites":[{"PRN":131,"gnssid":1,"svid":12,"az":174.0,"ss":45.0,"used":true},{"PRN":135,"gnssid":1,"svid":16,"az":196.0,"ss":46.0,"used":true},{"PRN":79,"gnssid":2,"svid":9,"az":206.0,"ss":41.0,"used":true},{"PRN":11,"gnssid":0,"svid":11,"az":66.0,"ss":47.0,"used":true},{"PRN":7,"gnssid":0,"svid":7,"az":126.0,"ss":47.0,"used":true},{"PRN":18,"gnssid":0,"svid":18,"az":56.0,"ss":34.0,"used":true},{"PRN":75,"gnssid":2,"svid":5,"az":254.0,"ss":42.0,"used":true},{"PRN":13,"gnssid":0,"svid":13,"az":262.0,"ss":47.0,"used":true},{"PRN":19,"gnssid":0,"svid":19,"az":196.0,"ss":46.0,"used":true},{"PRN":15,"gnssid":0,"svid":15,"az":298.0,"ss":44.0,"used":true},{"PRN":30,"gnssid":0,"svid":30,"az":122.0,"ss":48.0,"used":true},{"PRN":1,"gnssid":0,"svid":1,"az":80.0,"ss":42.0,"used":true},{"PRN":28,"gnssid":0,"svid":28,"az":38.0,"ss":46.0,"used":true},{"PRN":138,"gnssid":1,"svid":19,"az":160.0,"ss":46.0,"used":true},{"PRN":133,"gnssid":1,"svid":14,"az":192.0,"ss":45.0,"used":false},{"PRN":94,"gnssid":2,"svid":24,"az":326.0,"ss":44.0,"used":true},{"PRN":17,"gnssid":0,"svid":17,"az":186.0,"ss":47.0,"used":true},{"PRN":82,"gnssid":2,"svid":12,"az":140.0,"ss":47.0,"used":true}]}
$GPZDA,,00,01,1900,00,00*41
$GPGGA,,4404.1285,N,12118.8458,W,1,17,,1125.77,M,-22.155,M,,*53
$GPRMC,,A,4404.1285,N,12118.8458,W,0.0135,90.588,,14.4,E*5E
$GPGSA,A,3,131,135,79,11,7,18,75,13,19,15,30,1,,,*16
{"class":"TPV","mode":3,"lat":44.068809046,"lon":-121.314096684,"altHAE":1103.6112,"altMSL":1125.7657,"alt":1125.7657,"epv":1.271,"track":90.5884,"magtrack":105.0068,"magvar":14.4,"speed":0.007,"climb":0.002,"eps":0.01,"ecefx":-2386053.90,"ecefy":-3922195.06,"ecefz":4414355.77,"ecefvx":0.01,"ecefvy":-0.01,"ecefvz":0.00,"ecefpAcc":1.43,"ecefvAcc":0.02,"velN":0.000,"velE":0.007,"velD":-0.002,"geoidSep":-22.155,"eph":0.654}
{"class":"SKY","nSat":18,"uSat":17,"satellites":[{"PRN":131,"gnssid":1,"svid":12,"az":174.0,"ss":45.0,"used":true},{"PRN":135,"gnssid":1,"svid":16,"az":196.0,"ss":46.0,"used":true},{"PRN":79,"gnssid":2,"svid":9,"az":206.0,"ss":41.0,"used":true},{"PRN":11,"gnssid":0,"svid":11,"az":66.0,"ss":47.0,"used":true},{"PRN":7,"gnssid":0,"svid":7,"az":126.0,"ss":47.0,"used":true},{"PRN":18,"gnssid":0,"svid":18,"az":56.0,"ss":34.0,"used":true},{"PRN":75,"gnssid":2,"svid":5,"az":254.0,"ss":42.0,"used":true},{"PRN":13,"gnssid":0,"svid":13,"az":262.0,"ss":47.0,"used":true},{"PRN":19,"gnssid":0,"svid":19,"az":196.0,"ss":46.0,"used":true},{"PRN":15,"gnssid":0,"svid":15,"az":298.0,"ss":44.0,"used":true},{"PRN":30,"gnssid":0,"svid":30,"az":122.0,"ss":48.0,"used":true},{"PRN":1,"gnssid":0,"svid":1,"az":80.0,"ss":42.0,"used":true},{"PRN":28,"gnssid":0,"svid":28,"az":38.0,"ss":46.0,"used":true},{"PRN":138,"gnssid":1,"svid":19,"az":160.0,"ss":46.0,"used":true},{"PRN":133,"gnssid":1,"svid":14,"az":192.0,"ss":45.0,"used":false},{"PRN":94,"gnssid":2,"svid":24,"az":326.0,"ss":44.0,"used":true},{"PRN":17,"gnssid":0,"svid":17,"az":186.0,"ss":47.0,"used":true},{"PRN":82,"gnssid":2,"svid":12,"az":140.0,"ss":47.0,"used":true}]}
{"class":"SKY","hdop":0.70,"pdop":1.38,"tdop":0.80,"vdop":1.19}
$GPZDA,,00,01,1900,00,00*41
$GPGGA,,4404.1285,N,12118.8458,W,1,17,0.70,1125.77,M,-22.155,M,,*4A
$GPRMC,,A,4404.1285,N,12118.8458,W,0.0167,109.743,,14.4,E*6D
$GPGSA,A,3,131,135,79,11,7,18,75,13,19,15,30,1,1.4,0.7,1.2*39
{"class":"TPV","mode":3,"lat":44.068809046,"lon":-121.314096680,"altHAE":1103.6144,"altMSL":1125.7689,"alt":1125.7689,"epv":1.270,"track":109.7432,"magtrack":124.1616,"magvar":14.4,"speed":0.009,"climb":-0.003,"eps":0.01,"ecefx":-2386053.90,"ecefy":-3922195.06,"ecefz":4414355.78,"ecefvx":0.01,"ecefvy":0.00,"ecefvz":0.00,"ecefpAcc":1.43,"ecefvAcc":0.03,"velN":-0.003,"velE":0.008,"velD":0.003,"geoidSep":-22.155,"eph":0.654,"sep":26.183}
{"class":"SKY","hdop":0.70,"pdop":1.38,"tdop":0.80,"vdop":1.19,"nSat":18,"uSat":17,"satellites":[{"PRN":131,"gnssid":1,"svid":12,"az":174.0,"ss":45.0,"used":true},{"PRN":135,"gnssid":1,"svid":16,"az":196.0,"ss":46.0,"used":true},{"PRN":79,"gnssid":2,"svid":9,"az":206.0,"ss":41.0,"used":true},{"PRN":11,"gnssid":0,"svid":11,"az":66.0,"ss":47.0,"used":true},{"PRN":7,"gnssid":0,"svid":7,"az":126.0,"ss":47.0,"used":true},{"PRN":18,"gnssid":0,"svid":18,"az":56.0,"ss":34.0,"used":true},{"PRN":75,"gnssid":2,"svid":5,"az":254.0,"ss":43.0,"used":true},{"PRN":13,"gnssid":0,"svid":13,"az":262.0,"ss":47.0,"used":true},{"PRN":19,"gnssid":0,"svid":19,"az":196.0,"ss":46.0,"used":true},{"PRN":15,"gnssid":0,"svid":15,"az":298.0,"ss":44.0,"used":true},{"PRN":30,"gnssid":0,"svid":30,"az":122.0,"ss":48.0,"used":true},{"PRN":1,"gnssid":0,"svid":1,"az":80.0,"ss":43.0,"used":true},{"PRN":28,"gnssid":0,"svid":28,"az":38.0,"ss":46.0,"used":true},{"PRN":138,"gnssid":1,"svid":19,"az":160.0,"ss":46.0,"used":true},{"PRN":133,"gnssid":1,"svid":14,"az":192.0,"ss":45.0,"used":false},{"PRN":94,"gnssid":2,"svid":24,"az":326.0,"ss":44.0,"used":true},{"PRN":17,"gnssid":0,"svid":17,"az":186.0,"ss":47.0,"used":true},{"PRN":82,"gnssid":2,"svid":12,"az":140.0,"ss":47.0,"used":true}]}
{"class":"SKY","hdop":0.70,"pdop":1.38,"tdop":0.80,"vdop":1.19}
$GPZDA,,00,01,1900,00,00*41
$GPGGA,,4404.1285,N,12118.8458,W,1,17,0.70,1125.77,M,-22.155,M,,*4A
$GPRMC,,A,4404.1285,N,12118.8458,W,0.0106,347.818,,14.4,E*63
$GPGSA,A,3,131,135,79,11,7,18,75,13,19,15,30,1,1.4,0.7,1.2*39
{"class":"TPV","mode":3,"lat":44.068809051,"lon":-121.314096675,"altHAE":1103.6130,"altMSL":1125.7675,"alt":1125.7675,"epv":1.269,"track":347.8175,"magtrack":2.2360,"magvar":14.4,"speed":0.005,"climb":-0.002,"eps":0.01,"ecefx":-2386053.90,"ecefy":-3922195.06,"ecefz":4414355.77,"ecefvx":0.00,"ecefvy":0.00,"ecefvz":0.00,"ecefpAcc":1.43,"ecefvAcc":0.02,"velN":0.005,"velE":-0.001,"velD":0.002,"geoidSep":-22.155,"eph":0.653,"sep":26.183}
{"class":"SKY","hdop":0.70,"pdop":1.38,"tdop":0.80,"vdop":1.19}
$GPZDA,,00,01,1900,00,00*41
$GPGGA,,4404.1285,N,12118.8458,W,1,17,0.70,1125.77,M,-22.155,M,,*4A
$GPRMC,,A,4404.1285,N,12118.8458,W,0.0168,0.026,,14.4,E*6E
$GPGSA,A,3,131,135,79,11,7,18,75,13,19,15,30,1,1.4,0.7,1.2*39
{"class":"TPV","mode":3,"lat":44.068809062,"lon":-121.314096655,"altHAE":1103.6147,"altMSL":1125.7693,"alt":1125.7693,"epv":1.266,"track":0.0257,"magtrack":14.4442,"magvar":14.4,"speed":0.009,"climb":-0.012,"eps":0.01,"ecefx":-2386053.90,"ecefy":-3922195.06,"ecefz":4414355.78,"ecefvx":0.01,"ecefvy":0.01,"ecefvz":0.00,"ecefpAcc":1.42,"ecefvAcc":0.02,"velN":0.009,"velE":0.000,"velD":0.012,"geoidSep":-22.155,"eph":0.651,"sep":26.182}
{"class":"SKY","hdop":0.70,"pdop":1.38,"tdop":0.80,"vdop":1.19,"nSat":18,"uSat":17,"satellites":[{"PRN":131,"gnssid":1,"svid":12,"az":174.0,"ss":45.0,"used":true},{"PRN":135,"gnssid":1,"svid":16,"az":196.0,"ss":46.0,"used":true},{"PRN":79,"gnssid":2,"svid":9,"az":206.0,"ss":41.0,"used":true},{"PRN":11,"gnssid":0,"svid":11,"az":66.0,"ss":47.0,"used":true},{"PRN":7,"gnssid":0,"svid":7,"az":126.0,"ss":47.0,"used":true},{"PRN":18,"gnssid":0,"svid":18,"az":56.0,"ss":34.0,"used":true},{"PRN":75,"gnssid":2,"svid":5,"az":254.0,"ss":42.0,"used":true},{"PRN":13,"gnssid":0,"svid":13,"az":262.0,"ss":47.0,"used":true},{"PRN":19,"gnssid":0,"svid":19,"az":196.0,"ss":46.0,"used":true},{"PRN":15,"gnssid":0,"svid":15,"az":298.0,"ss":44.0,"used":true},{"PRN":30,"gnssid":0,"svid":30,"az":122.0,"ss":48.0,"used":true},{"PRN":1,"gnssid":0,"svid":1,"az":80.0,"ss":43.0,"used":true},{"PRN":28,"gnssid":0,"svid":28,"az":38.0,"ss":46.0,"used":true},{"PRN":138,"gnssid":1,"svid":19,"az":160.0,"ss":46.0,"used":true},{"PRN":133,"gnssid":1,"svid":14,"az":192.0,"ss":45.0,"used":false},{"PRN":94,"gnssid":2,"svid":24,"az":326.0,"ss":44.0,"used":true},{"PRN":17,"gnssid":0,"svid":17,"az":186.0,"ss":47.0,"used":true},{"PRN":82,"gnssid":2,"svid":12,"az":140.0,"ss":47.0,"used":true}]}
{"class":"SKY","hdop":0.70,"pdop":1.38,"tdop":0.80,"vdop":1.19}
$GPZDA,,00,01,1900,00,00*41
$GPGGA,,4404.1285,N,12118.8458,W,1,17,0.70,1125.77,M,-22.155,M,,*4A
$GPRMC,,A,4404.1285,N,12118.8458,W,0.0196,20.883,,14.4,E*5A
$GPGSA,A,3,131,135,79,11,7,18,75,13,19,15,30,1,1.4,0.7,1.2*39
{"class":"TPV","mode":3,"lat":44.068809083,"lon":-121.314096645,"altHAE":1103.6125,"altMSL":1125.7670,"alt":1125.7670,"epv":1.262,"track":20.8831,"magtrack":35.3015,"magvar":14.4,"speed":0.010,"climb":-0.001,"eps":0.01,"ecefx":-2386053.89,"ecefy":-3922195.06,"ecefz":4414355.78,"ecefvx":0.01,"ecefvy":0.00,"ecefvz":0.01,"ecefpAcc":1.42,"ecefvAcc":0.03,"velN":0.009,"velE":0.004,"velD":0.001,"geoidSep":-22.155,"eph":0.649,"sep":26.182}
{"class":"SKY","hdop":0.70,"pdop":1.38,"tdop":0.80,"vdop":1.19}
$GPZDA,,00,01,1900,00,00*41
$GPGGA,,4404.1285,N,12118.8458,W,1,17,0.70,1125.77,M,-22.155,M,,*4A
$GPRMC,,A,4404.1285,N,12118.8458,W,0.0297,44.516,,14.4,E*5B
$GPGSA,A,3,131,135,79,11,7,18,75,13,19,15,30,1,1.4,0.7,1.2*39
{"class":"TPV","mode":3,"lat":44.068809096,"lon":-121.314096615,"altHAE":1103.6187,"altMSL":1125.7732,"alt":1125.7732,"epv":1.259,"track":44.5163,"magtrack":58.9347,"magvar":14.4,"speed":0.015,"climb":0.002,"eps":0.01,"ecefx":-2386053.89,"ecefy":-3922195.06,"ecefz":4414355.78,"ecefvx":0.01,"ecefvy":0.00,"ecefvz":0.01,"ecefpAcc":1.42,"ecefvAcc":0.03,"velN":0.011,"velE":0.011,"velD":-0.002,"geoidSep":-22.155,"eph":0.648,"sep":26.181}
{"class":"SKY","hdop":0.70,"pdop":1.38,"tdop":0.80,"vdop":1.19,"nSat":18,"uSat":17,"satellites":[{"PRN":131,"gnssid":1,"svid":12,"az":174.0,"ss":45.0,"used":true},{"PRN":135,"gnssid":1,"svid":16,"az":196.0,"ss":46.0,"used":true},{"PRN":79,"gnssid":2,"svid":9,"az":206.0,"ss":41.0,"used":true},{"PRN":11,"gnssid":0,"svid":11,"az":66.0,"ss":47.0,"used":true},{"PRN":7,"gnssid":0,"svid":7,"az":126.0,"ss":47.0,"used":true},{"PRN":18,"gnssid":0,"svid":18,"az":56.0,"ss":34.0,"used":true},{"PRN":75,"gnssid":2,"svid":5,"az":254.0,"ss":43.0,"used":true},{"PRN":13,"gnssid":0,"svid":13,"az":262.0,"ss":47.0,"used":true},{"PRN":19,"gnssid":0,"svid":19,"az":196.0,"ss":47.0,"used":true},{"PRN":15,"gnssid":0,"svid":15,"az":298.0,"ss":44.0,"used":true},{"PRN":30,"gnssid":0,"svid":30,"az":122.0,"ss":48.0,"used":true},{"PRN":1,"gnssid":0,"svid":1,"az":80.0,"ss":43.0,"used":true},{"PRN":28,"gnssid":0,"svid":28,"az":38.0,"ss":46.0,"used":true},{"PRN":138,"gnssid":1,"svid":19,"az":160.0,"ss":46.0,"used":true},{"PRN":133,"gnssid":1,"svid":14,"az":192.0,"ss":45.0,"used":false},{"PRN":94,"gnssid":2,"svid":24,"az":326.0,"ss":44.0,"used":true},{"PRN":17,"gnssid":0,"svid":17,"az":186.0,"ss":47.0,"used":true},{"PRN":82,"gnssid":2,"svid":12,"az":140.0,"ss":47.0,"used":true}]}
{"class":"SKY","hdop":0.70,"pdop":1.38,"tdop":0.80,"vdop":1.19}
$GPZDA,,00,01,1900,00,00*41
$GPGGA,,4404.1285,N,12118.8458,W,1,17,0.70,1125.78,M,-22.155,M,,*45
$GPRMC,,A,4404.1285,N,12118.8458,W,0.0067,347.825,,14.4,E*6B
$GPGSA,A,3,131,135,79,11,7,18,75,13,19,15,30,1,1.4,0.7,1.2*39
{"class":"TPV","mode":3,"lat":44.068809124,"lon":-121.314096630,"altHAE":1103.6210,"altMSL":1125.7755,"alt":1125.7755,"epv":1.256,"track":347.8254,"magtrack":2.2438,"magvar":14.4,"speed":0.003,"climb":0.006,"eps":0.01,"ecefx":-2386053.90,"ecefy":-3922195.06,"ecefz":4414355.79,"ecefvx":0.00,"ecefvy":0.00,"ecefvz":0.01,"ecefpAcc":1.41,"ecefvAcc":0.02,"velN":0.003,"velE":-0.001,"velD":-0.006,"geoidSep":-22.155,"eph":0.646,"sep":26.181}
{"class":"SKY","hdop":0.70,"pdop":1.38,"tdop":0.80,"vdop":1.19}
$GPZDA,,00,01,1900,00,00*41
$GPGGA,,4404.1285,N,12118.8458,W,1,17,0.70,1125.78,M,-22.155,M,,*45
$GPRMC,,A,4404.1285,N,12118.8458,W,0.0124,10.522,,14.4,E*56
$GPGSA,A,3,131,135,79,11,7,18,75,13,19,15,30,1,1.4,0.7,1.2*39
{"class":"TPV","mode":3,"lat":44.068809142,"lon":-121.314096624,"altHAE":1103.6230,"altMSL":1125.7775,"alt":1125.7775,"epv":1.251,"track":10.5222,"magtrack":24.9406,"magvar":14.4,"speed":0.006,"climb":0.000,"eps":0.01,"ecefx":-2386053.89,"ecefy":-3922195.06,"ecefz":4414355.79,"ecefvx":0.00,"ecefvy":0.00,"ecefvz":0.00,"ecefpAcc":1.41,"ecefvAcc":0.02,"velN":0.006,"velE":0.001,"velD":0.000,"geoidSep":-22.155,"eph":0.644,"sep":26.180}
{"class":"SKY","hdop":0.70,"pdop":1.38,"tdop":0.80,"vdop":1.19,"nSat":18,"uSat":17,"satellites":[{"PRN":131,"gnssid":1,"svid":12,"az":174.0,"ss":45.0,"used":true},{"PRN":135,"gnssid":1,"svid":16,"az":196.0,"ss":46.0,"used":true},{"PRN":79,"gnssid":2,"svid":9,"az":206.0,"ss":41.0,"used":true},{"PRN":11,"gnssid":0,"svid":11,"az":66.0,"ss":47.0,"used":true},{"PRN":7,"gnssid":0,"svid":7,"az":126.0,"ss":47.0,"used":true},{"PRN":18,"gnssid":0,"svid":18,"az":56.0,"ss":34.0,"used":true},{"PRN":75,"gnssid":2,"svid":5,"az":254.0,"ss":42.0,"used":true},{"PRN":13,"gnssid":0,"svid":13,"az":262.0,"ss":47.0,"used":true},{"PRN":19,"gnssid":0,"svid":19,"az":196.0,"ss":47.0,"used":true},{"PRN":15,"gnssid":0,"svid":15,"az":298.0,"ss":44.0,"used":true},{"PRN":30,"gnssid":0,"svid":30,"az":122.0,"ss":48.0,"used":true},{"PRN":1,"gnssid":0,"svid":1,"az":80.0,"ss":43.0,"used":true},{"PRN":28,"gnssid":0,"svid":28,"az":38.0,"ss":46.0,"used":true},{"PRN":138,"gnssid":1,"svid":19,"az":160.0,"ss":46.0,"used":true},{"PRN":133,"gnssid":1,"svid":14,"az":192.0,"ss":45.0,"used":false},{"PRN":94,"gnssid":2,"svid":24,"az":326.0,"ss":44.0,"used":true},{"PRN":17,"gnssid":0,"svid":17,"az":186.0,"ss":47.0,"used":true},{"PRN":82,"gnssid":2,"svid":12,"az":140.0,"ss":47.0,"used":true}]}
{"class":"SKY","hdop":0.70,"pdop":1.38,"tdop":0.80,"vdop":1.19}
$GPZDA,,00,01,1900,00,00*41
$GPGGA,,4404.1285,N,12118.8458,W,1,17,0.70,1125.78,M,-22.155,M,,*45
$GPRMC,,A,4404.1285,N,12118.8458,W,0.0316,5.763,,14.4,E*66
$GPGSA,A,3,131,135,79,11,7,18,75,13,19,15,30,1,1.4,0.7,1.2*39
{"class":"TPV","mode":3,"lat":44.068809166,"lon":-121.314096609,"altHAE":1103.6244,"altMSL":1125.7789,"alt":1125.7789,"epv":1.247,"track":5.7631,"magtrack":20.1816,"magvar":14.4,"speed":0.016,"climb":-0.007,"eps":0.01,"ecefx":-2386053.89,"ecefy":-3922195.06,"ecefz":4414355.79,"ecefvx":0.01,"ecefvy":0.01,"ecefvz":0.01,"ecefpAcc":1.40,"ecefvAcc":0.02,"velN":0.016,"velE":0.002,"velD":0.007,"geoidSep":-22.155,"eph":0.642,"sep":26.180}
{"class":"SKY","hdop":0.70,"pdop":1.38,"tdop":0.80,"vdop":1.19}
$GPZDA,,00,01,1900,00,00*41
$GPGGA,,4404.1286,N,12118.8458,W,1,17,0.70,1125.78,M,-22.155,M,,*46
$GPRMC,,A,4404.1286,N,12118.8458,W,0.0057,357.262,,14.4,E*63
$GPGSA,A,3,131,135,79,11,7,18,75,13,19,15,30,1,1.4,0.7,1.2*39
{"class":"TPV","mode":3,"lat":44.068809187,"lon":-121.314096622,"altHAE":1103.6233,"altMSL":1125.7778,"alt":1125.7778,"epv":1.245,"track":357.2622,"magtrack":11.6806,"magvar":14.4,"speed":0.003,"climb":-0.003,"eps":0.01,"ecefx":-2386053.89,"ecefy":-3922195.06,"ecefz":4414355.79,"ecefvx":0.00,"ecefvy":0.00,"ecefvz":0.00,"ecefpAcc":1.40,"ecefvAcc":0.02,"velN":0.003,"velE":0.000,"velD":0.003,"geoidSep":-22.155,"eph":0.640,"sep":26.179}
{"class":"SKY","hdop":0.70,"pdop":1.38,"tdop":0.80,"vdop":1.19,"nSat":18,"uSat":17,"satellites":[{"PRN":131,"gnssid":1,"svid":12,"az":174.0,"ss":45.0,"used":true},{"PRN":135,"gnssid":1,"svid":16,"az":196.0,"ss":46.0,"used":true},{"PRN":79,"gnssid":2,"svid":9,"az":206.0,"ss":41.0,"used":true},{"PRN":11,"gnssid":0,"svid":11,"az":66.0,"ss":47.0,"used":true},{"PRN":7,"gnssid":0,"svid":7,"az":126.0,"ss":47.0,"used":true},{"PRN":18,"gnssid":0,"svid":18,"az":56.0,"ss":34.0,"used":true},{"PRN":75,"gnssid":2,"svid":5,"az":254.0,"ss":42.0,"used":true},{"PRN":13,"gnssid":0,"svid":13,"az":262.0,"ss":47.0,"used":true},{"PRN":19,"gnssid":0,"svid":19,"az":196.0,"ss":46.0,"used":true},{"PRN":15,"gnssid":0,"svid":15,"az":298.0,"ss":44.0,"used":true},{"PRN":30,"gnssid":0,"svid":30,"az":122.0,"ss":48.0,"used":true},{"PRN":1,"gnssid":0,"svid":1,"az":80.0,"ss":43.0,"used":true},{"PRN":28,"gnssid":0,"svid":28,"az":38.0,"ss":46.0,"used":true},{"PRN":138,"gnssid":1,"svid":19,"az":160.0,"ss":46.0,"used":true},{"PRN":133,"gnssid":1,"svid":14,"az":192.0,"ss":45.0,"used":false},{"PRN":94,"gnssid":2,"svid":24,"az":326.0,"ss":44.0,"used":true},{"PRN":17,"gnssid":0,"svid":17,"az":186.0,"ss":47.0,"used":true},{"PRN":82,"gnssid":2,"svid":12,"az":140.0,"ss":47.0,"used":true}]}
{"class":"SKY","hdop":0.70,"pdop":1.38,"tdop":0.80,"vdop":1.19}
$GPZDA,,00,01,1900,00,00*41
$GPGGA,,4404.1286,N,12118.8458,W,1,17,0.70,1125.77,M,-22.155,M,,*49
$GPRMC,,A,4404.1286,N,12118.8458,W,0.0176,24.554,,14.4,E*54
$GPGSA,A,3,,,,,,,,,,,,,1.4,0.7,1.2*33
{"class":"TPV","mode":3,"lat":44.068809203,"lon":-121.314096629,"altHAE":1103.6182,"altMSL":1125.7727,"alt":1125.7727,"epv":1.240,"track":24.5535,"magtrack":38.9719,"magvar":14.4,"speed":0.009,"climb":-0.004,"eps":0.01,"ecefx":-2386053.89,"ecefy":-3922195.06,"ecefz":4414355.79,"ecefvx":0.01,"ecefvy":0.01,"ecefvz":0.00,"ecefpAcc":1.40,"ecefvAcc":0.02,"velN":0.008,"velE":0.004,"velD":0.004,"geoidSep":-22.155,"eph":0.638,"sep":26.179}
{"class":"SKY","hdop":0.70,"pdop":1.38,"tdop":0.80,"vdop":1.19,"nSat":18,"uSat":0,"satellites":[{"PRN":131,"gnssid":1,"svid":12,"az":174.0,"ss":45.0,"used":false},{"PRN":135,"gnssid":1,"svid":16,"az":196.0,"ss":46.0,"used":false},{"PRN":79,"gnssid":2,"svid":9,"az":206.0,"ss":41.0,"used":false},{"PRN":11,"gnssid":0,"svid":11,"az":66.0,"ss":47.0,"used":false},{"PRN":7,"gnssid":0,"svid":7,"az":126.0,"ss":47.0,"used":false},{"PRN":18,"gnssid":0,"svid":18,"az":56.0,"ss":35.0,"used":false},{"PRN":75,"gnssid":2,"svid":5,"az":254.0,"ss":42.0,"used":false},{"PRN":13,"gnssid":0,"svid":13,"az":262.0,"ss":47.0,"used":false},{"PRN":19,"gnssid":0,"svid":19,"az":196.0,"ss":46.0,"used":false},{"PRN":15,"gnssid":0,"svid":15,"az":298.0,"ss":44.0,"used":false},{"PRN":30,"gnssid":0,"svid":30,"az":122.0,"ss":48.0,"used":false},{"PRN":1,"gnssid":0,"svid":1,"az":80.0,"ss":43.0,"used":false},{"PRN":28,"gnssid":0,"svid":28,"az":38.0,"ss":46.0,"used":false},{"PRN":138,"gnssid":1,"svid":19,"az":160.0,"ss":46.0,"used":false},{"PRN":133,"gnssid":1,"svid":14,"az":192.0,"ss":45.0,"used":false},{"PRN":94,"gnssid":2,"svid":24,"az":326.0,"ss":44.0,"used":false},{"PRN":17,"gnssid":0,"svid":17,"az":186.0,"ss":47.0,"used":false},{"PRN":82,"gnssid":2,"svid":12,"az":140.0,"ss":47.0,"used":false}]}
{"class":"SKY","hdop":0.70,"pdop":1.38,"tdop":0.80,"vdop":1.19}
$GPZDA,,00,01,1900,00,00*41
$GPGGA,,4404.1286,N,12118.8458,W,1,17,0.70,1125.77,M,-22.155,M,,*49
$GPRMC,,A,4404.1286,N,12118.8458,W,0.0046,329.351,,14.4,E*6B
$GPGSA,A,3,131,135,79,11,7,18,75,13,19,15,30,1,1.4,0.7,1.2*39
{"class":"TPV","mode":3,"lat":44.068809201,"lon":-121.314096636,"altHAE":1103.6201,"altMSL":1125.7746,"alt":1125.7746,"epv":1.239,"track":329.3512,"magtrack":343.7696,"magvar":14.4,"speed":0.002,"climb":0.001,"eps":0.01,"ecefx":-2386053.89,"ecefy":-3922195.06,"ecefz":4414355.79,"ecefvx":0.00,"ecefvy":0.00,"ecefvz":0.00,"ecefpAcc":1.39,"ecefvAcc":0.01,"velN":0.002,"velE":-0.001,"velD":-0.001,"geoidSep":-22.155,"eph":0.638,"sep":26.179}
{"class":"SKY","hdop":0.70,"pdop":1.38,"tdop":0.80,"vdop":1.19,"nSat":18,"uSat":17,"satellites":[{"PRN":131,"gnssid":1,"svid":12,"az":174.0,"ss":45.0,"used":true},{"PRN":135,"gnssid":1,"svid":16,"az":196.0,"ss":46.0,"used":true},{"PRN":79,"gnssid":2,"svid":9,"az":206.0,"ss":41.0,"used":true},{"PRN":11,"gnssid":0,"svid":11,"az":66.0,"ss":47.0,"used":true},{"PRN":7,"gnssid":0,"svid":7,"az":126.0,"ss":47.0,"used":true},{"PRN":18,"gnssid":0,"svid":18,"az":56.0,"ss":34.0,"used":true},{"PRN":75,"gnssid":2,"svid":5,"az":254.0,"ss":43.0,"used":true},{"PRN":13,"gnssid":0,"svid":13,"az":262.0,"ss":47.0,"used":true},{"PRN":19,"gnssid":0,"svid":19,"az":196.0,"ss":47.0,"used":true},{"PRN":15,"gnssid":0,"svid":15,"az":298.0,"ss":44.0,"used":true},{"PRN":30,"gnssid":0,"svid":30,"az":122.0,"ss":48.0,"used":true},{"PRN":1,"gnssid":0,"svid":1,"az":80.0,"ss":43.0,"used":true},{"PRN":28,"gnssid":0,"svid":28,"az":38.0,"ss":46.0,"used":true},{"PRN":138,"gnssid":1,"svid":19,"az":160.0,"ss":46.0,"used":true},{"PRN":133,"gnssid":1,"svid":14,"az":192.0,"ss":45.0,"used":false},{"PRN":94,"gnssid":2,"svid":24,"az":326.0,"ss":44.0,"used":true},{"PRN":17,"gnssid":0,"svid":17,"az":186.0,"ss":47.0,"used":true},{"PRN":82,"gnssid":2,"svid":12,"az":140.0,"ss":47.0,"used":true}]}
{"class":"SKY","hdop":0.70,"pdop":1.38,"tdop":0.80,"vdop":1.19}
$GPZDA,,00,01,1900,00,00*41
$GPGGA,,4404.1286,N,12118.8458,W,1,17,0.70,1125.77,M,-22.155,M,,*49
$GPRMC,,A,4404.1286,N,12118.8458,W,0.0005,345.328,,14.4,E*68
$GPGSA,A,3,131,135,79,11,7,18,75,13,19,15,30,1,1.4,0.7,1.2*39
{"class":"TPV","mode":3,"lat":44.068809216,"lon":-121.314096648,"altHAE":1103.6199,"altMSL":1125.7744,"alt":1125.7744,"epv":1.236,"track":345.3285,"magtrack":359.7469,"magvar":14.4,"speed":0.000,"climb":-0.004,"eps":0.01,"ecefx":-2386053.89,"ecefy":-3922195.05,"ecefz":4414355.79,"ecefvx":0.00,"ecefvy":0.00,"ecefvz":0.00,"ecefpAcc":1.39,"ecefvAcc":0.01,"velN":0.000,"velE":0.000,"velD":0.004,"geoidSep":-22.155,"eph":0.636,"sep":26.178}
{"class":"SKY","hdop":0.70,"pdop":1.38,"tdop":0.80,"vdop":1.19,"nSat":18,"uSat":17,"satellites":[{"PRN":131,"gnssid":1,"svid":12,"az":174.0,"ss":45.0,"used":true},{"PRN":135,"gnssid":1,"svid":16,"az":196.0,"ss":46.0,"used":true},{"PRN":79,"gnssid":2,"svid":9,"az":206.0,"ss":41.0,"used":true},{"PRN":11,"gnssid":0,"svid":11,"az":66.0,"ss":47.0,"used":true},{"PRN":7,"gnssid":0,"svid":7,"az":126.0,"ss":47.0,"used":true},{"PRN":18,"gnssid":0,"svid":18,"az":56.0,"ss":35.0,"used":true},{"PRN":75,"gnssid":2,"svid":5,"az":254.0,"ss":42.0,"used":true},{"PRN":13,"gnssid":0,"svid":13,"az":262.0,"ss":47.0,"used":true},{"PRN":19,"gnssid":0,"svid":19,"az":196.0,"ss":46.0,"used":true},{"PRN":15,"gnssid":0,"svid":15,"az":298.0,"ss":44.0,"used":true},{"PRN":30,"gnssid":0,"svid":30,"az":122.0,"ss":48.0,"used":true},{"PRN":1,"gnssid":0,"svid":1,"az":80.0,"ss":43.0,"used":true},{"PRN":28,"gnssid":0,"svid":28,"az":38.0,"ss":46.0,"used":true},{"PRN":138,"gnssid":1,"svid":19,"az":160.0,"ss":46.0,"used":true},{"PRN":133,"gnssid":1,"svid":14,"az":192.0,"ss":45.0,"used":false},{"PRN":94,"gnssid":2,"svid":24,"az":326.0,"ss":44.0,"used":true},{"PRN":17,"gnssid":0,"svid":17,"az":186.0,"ss":47.0,"used":true},{"PRN":82,"gnssid":2,"svid":12,"az":140.0,"ss":47.0,"used":true}]}
{"class":"SKY","hdop":0.70,"pdop":1.38,"tdop":0.80,"vdop":1.19}
$GPZDA,,00,01,1900,00,00*41
$GPGGA,,4404.1286,N,12118.8458,W,1,17,0.70,1125.78,M,-22.155,M,,*46
$GPRMC,,A,4404.1286,N,12118.8458,W,0.0163,20.076,,14.4,E*51
$GPGSA,A,3,131,135,79,11,7,18,75,13,19,15,30,1,1.4,0.7,1.2*39
{"class":"TPV","mode":3,"lat":44.068809237,"lon":-121.314096662,"altHAE":1103.6227,"altMSL":1125.7772,"alt":1125.7772,"epv":1.231,"track":20.0759,"magtrack":34.4943,"magvar":14.4,"speed":0.008,"climb":0.012,"eps":0.01,"ecefx":-2386053.89,"ecefy":-3922195.05,"ecefz":4414355.80,"ecefvx":0.00,"ecefvy":0.00,"ecefvz":0.01,"ecefpAcc":1.38,"ecefvAcc":0.02,"velN":0.008,"velE":0.003,"velD":-0.012,"geoidSep":-22.155,"eph":0.633,"sep":26.177}
{"class":"SKY","hdop":0.70,"pdop":1.38,"tdop":0.80,"vdop":1.19,"nSat":18,"uSat":17,"satellites":[{"PRN":131,"gnssid":1,"svid":12,"az":174.0,"ss":45.0,"used":true},{"PRN":135,"gnssid":1,"svid":16,"az":196.0,"ss":46.0,"used":true},{"PRN":79,"gnssid":2,"svid":9,"az":206.0,"ss":41.0,"used":true},{"PRN":11,"gnssid":0,"svid":11,"az":66.0,"ss":47.0,"used":true},{"PRN":7,"gnssid":0,"svid":7,"az":126.0,"ss":47.0,"used":true},{"PRN":18,"gnssid":0,"svid":18,"az":56.0,"ss":35.0,"used":true},{"PRN":75,"gnssid":2,"svid":5,"az":254.0,"ss":42.0,"used":true},{"PRN":13,"gnssid":0,"svid":13,"az":262.0,"ss":47.0,"used":true},{"PRN":19,"gnssid":0,"svid":19,"az":196.0,"ss":47.0,"used":true},{"PRN":15,"gnssid":0,"svid":15,"az":298.0,"ss":44.0,"used":true},{"PRN":30,"gnssid":0,"svid":30,"az":122.0,"ss":48.0,"used":true},{"PRN":1,"gnssid":0,"svid":1,"az":80.0,"ss":42.0,"used":true},{"PRN":28,"gnssid":0,"svid":28,"az":38.0,"ss":46.0,"used":true},{"PRN":138,"gnssid":1,"svid":19,"az":160.0,"ss":46.0,"used":true},{"PRN":133,"gnssid":1,"svid":14,"az":192.0,"ss":45.0,"used":false},{"PRN":94,"gnssid":2,"svid":24,"az":326.0,"ss":44.0,"used":true},{"PRN":17,"gnssid":0,"svid":17,"az":186.0,"ss":47.0,"used":true},{"PRN":82,"gnssid":2,"svid":12,"az":140.0,"ss":47.0,"used":true}]}
{"class":"SKY","hdop":0.70,"pdop":1.38,"tdop":0.80,"vdop":1.19}
$GPZDA,,00,01,1900,00,00*41
$GPGGA,,4404.1286,N,12118.8458,W,1,17,0.70,1125.77,M,-22.155,M,,*49
$GPRMC,,A,4404.1286,N,12118.8458,W,0.0248,320.017,,14.4,E*6F
$GPGSA,A,3,131,135,79,11,7,18,75,13,19,15,30,1,1.4,0.7,1.2*39
{"class":"TPV","mode":3,"lat":44.068809256,"lon":-121.314096701,"altHAE":1103.6153,"altMSL":1125.7699,"alt":1125.7699,"epv":1.226,"track":320.0172,"magtrack":334.4356,"magvar":14.4,"speed":0.013,"climb":0.007,"eps":0.01,"ecefx":-2386053.89,"ecefy":-3922195.05,"ecefz":4414355.79,"ecefvx":-0.01,"ecefvy":0.01,"ecefvz":0.01,"ecefpAcc":1.38,"ecefvAcc":0.03,"velN":0.010,"velE":-0.008,"velD":-0.007,"geoidSep":-22.155,"eph":0.631,"sep":26.176}
{"class":"SKY","hdop":0.70,"pdop":1.38,"tdop":0.80,"vdop":1.19,"nSat":18,"uSat":17,"satellites":[{"PRN":131,"gnssid":1,"svid":12,"az":174.0,"ss":45.0,"used":true},{"PRN":135,"gnssid":1,"svid":16,"az":196.0,"ss":46.0,"used":true},{"PRN":79,"gnssid":2,"svid":9,"az":206.0,"ss":41.0,"used":true},{"PRN":11,"gnssid":0,"svid":11,"az":66.0,"ss":47.0,"used":true},{"PRN":7,"gnssid":0,"svid":7,"az":126.0,"ss":47.0,"used":true},{"PRN":18,"gnssid":0,"svid":18,"az":56.0,"ss":35.0,"used":true},{"PRN":75,"gnssid":2,"svid":5,"az":254.0,"ss":42.0,"used":true},{"PRN":13,"gnssid":0,"svid":13,"az":262.0,"ss":47.0,"used":true},{"PRN":19,"gnssid":0,"svid":19,"az":196.0,"ss":47.0,"used":true},{"PRN":15,"gnssid":0,"svid":15,"az":298.0,"ss":44.0,"used":true},{"PRN":30,"gnssid":0,"svid":30,"az":122.0,"ss":48.0,"used":true},{"PRN":1,"gnssid":0,"svid":1,"az":80.0,"ss":43.0,"used":true},{"PRN":28,"gnssid":0,"svid":28,"az":38.0,"ss":46.0,"used":true},{"PRN":138,"gnssid":1,"svid":19,"az":160.0,"ss":46.0,"used":true},{"PRN":133,"gnssid":1,"svid":14,"az":192.0,"ss":45.0,"used":false},{"PRN":94,"gnssid":2,"svid":24,"az":326.0,"ss":44.0,"used":true},{"PRN":17,"gnssid":0,"svid":17,"az":186.0,"ss":47.0,"used":true},{"PRN":82,"gnssid":2,"svid":12,"az":140.0,"ss":47.0,"used":true}]}
{"class":"SKY","hdop":0.70,"pdop":1.38,"tdop":0.80,"vdop":1.19}
$GPZDA,,00,01,1900,00,00*41
$GPGGA,,4404.1286,N,12118.8458,W,1,17,0.70,1125.77,M,-22.155,M,,*49
$GPRMC,,A,4404.1286,N,12118.8458,W,0.0317,303.715,,14.4,E*60
$GPGSA,A,3,131,135,79,11,7,18,75,13,19,15,30,1,1.4,0.7,1.2*39
{"class":"TPV","mode":3,"lat":44.068809265,"lon":-121.314096739,"altHAE":1103.6108,"altMSL":1125.7653,"alt":1125.7653,"epv":1.224,"track":303.7154,"magtrack":318.1339,"magvar":14.4,"speed":0.016,"climb":-0.005,"eps":0.01,"ecefx":-2386053.89,"ecefy":-3922195.04,"ecefz":4414355.79,"ecefvx":-0.01,"ecefvy":0.02,"ecefvz":0.00,"ecefpAcc":1.38,"ecefvAcc":0.02,"velN":0.009,"velE":-0.014,"velD":0.005,"geoidSep":-22.155,"eph":0.630,"sep":26.176}
{"class":"SKY","hdop":0.70,"pdop":1.38,"tdop":0.80,"vdop":1.19,"nSat":18,"uSat":17,"satellites":[{"PRN":131,"gnssid":1,"svid":12,"az":174.0,"ss":45.0,"used":true},{"PRN":135,"gnssid":1,"svid":16,"az":196.0,"ss":46.0,"used":true},{"PRN":79,"gnssid":2,"svid":9,"az":206.0,"ss":41.0,"used":true},{"PRN":11,"gnssid":0,"svid":11,"az":66.0,"ss":47.0,"used":true},{"PRN":7,"gnssid":0,"svid":7,"az":126.0,"ss":47.0,"used":true},{"PRN":18,"gnssid":0,"svid":18,"az":56.0,"ss":35.0,"used":true},{"PRN":75,"gnssid":2,"svid":5,"az":254.0,"ss":42.0,"used":true},{"PRN":13,"gnssid":0,"svid":13,"az":262.0,"ss":47.0,"used":true},{"PRN":19,"gnssid":0,"svid":19,"az":196.0,"ss":47.0,"used":true},{"PRN":15,"gnssid":0,"svid":15,"az":298.0,"ss":44.0,"used":true},{"PRN":30,"gnssid":0,"svid":30,"az":122.0,"ss":48.0,"used":true},{"PRN":1,"gnssid":0,"svid":1,"az":80.0,"ss":43.0,"used":true},{"PRN":28,"gnssid":0,"svid":28,"az":38.0,"ss":46.0,"used":true},{"PRN":138,"gnssid":1,"svid":19,"az":160.0,"ss":46.0,"used":true},{"PRN":133,"gnssid":1,"svid":14,"az":192.0,"ss":45.0,"used":false},{"PRN":94,"gnssid":2,"svid":24,"az":326.0,"ss":44.0,"used":true},{"PRN":17,"gnssid":0,"svid":17,"az":186.0,"ss":47.0,"used":true},{"PRN":82,"gnssid":2,"svid":12,"az":140.0,"ss":47.0,"used":true}]}
{"class":"SKY","hdop":0.70,"pdop":1.38,"tdop":0.80,"vdop":1.19}
$GPZDA,,00,01,1900,00,00*41
$GPGGA,,4404.1286,N,12118.8458,W,1,17,0.70,1125.76,M,-22.155,M,,*48
$GPRMC,,A,4404.1286,N,12118.8458,W,0.0203,231.644,,14.4,E*61
$GPGSA,A,3,131,135,79,11,7,18,75,13,19,15,30,1,1.4,0.7,1.2*39
{"class":"TPV","mode":3,"lat":44.068809263,"lon":-121.314096756,"altHAE":1103.6088,"altMSL":1125.7633,"alt":1125.7633,"epv":1.222,"track":231.6439,"magtrack":246.0623,"magvar":14.4,"speed":0.010,"climb":-0.022,"eps":0.01,"ecefx":-2386053.89,"ecefy":-3922195.04,"ecefz":4414355.79,"ecefvx":0.00,"ecefvy":0.01,"ecefvz":-0.02,"ecefpAcc":1.37,"ecefvAcc":0.03,"velN":-0.006,"velE":-0.008,"velD":0.022,"geoidSep":-22.155,"eph":0.629,"sep":26.175}
{"class":"SKY","hdop":0.70,"pdop":1.38,"tdop":0.80,"vdop":1.19,"nSat":18,"uSat":17,"satellites":[{"PRN":131,"gnssid":1,"svid":12,"az":174.0,"ss":45.0,"used":true},{"PRN":135,"gnssid":1,"svid":16,"az":196.0,"ss":46.0,"used":true},{"PRN":79,"gnssid":2,"svid":9,"az":206.0,"ss":40.0,"used":true},{"PRN":11,"gnssid":0,"svid":11,"az":66.0,"ss":47.0,"used":true},{"PRN":7,"gnssid":0,"svid":7,"az":126.0,"ss":47.0,"used":true},{"PRN":18,"gnssid":0,"svid":18,"az":56.0,"ss":35.0,"used":true},{"PRN":75,"gnssid":2,"svid":5,"az":254.0,"ss":42.0,"used":true},{"PRN":13,"gnssid":0,"svid":13,"az":262.0,"ss":47.0,"used":true},{"PRN":19,"gnssid":0,"svid":19,"az":196.0,"ss":47.0,"used":true},{"PRN":15,"gnssid":0,"svid":15,"az":298.0,"ss":44.0,"used":true},{"PRN":30,"gnssid":0,"svid":30,"az":122.0,"ss":48.0,"used":true},{"PRN":1,"gnssid":0,"svid":1,"az":80.0,"ss":43.0,"used":true},{"PRN":28,"gnssid":0,"svid":28,"az":38.0,"ss":46.0,"used":true},{"PRN":138,"gnssid":1,"svid":19,"az":160.0,"ss":46.0,"used":true},{"PRN":133,"gnssid":1,"svid":14,"az":192.0,"ss":45.0,"used":false},{"PRN":94,"gnssid":2,"svid":24,"az":326.0,"ss":44.0,"used":true},{"PRN":17,"gnssid":0,"svid":17,"az":186.0,"ss":47.0,"used":true},{"PRN":82,"gnssid":2,"svid":12,"az":140.0,"ss":47.0,"used":true}]}
{"class":"SKY","hdop":0.70,"pdop":1.38,"tdop":0.80,"vdop":1.19}
$GPZDA,,00,01,1900,00,00*41
$GPGGA,,4404.1286,N,12118.8458,W,1,17,0.70,1125.76,M,-22.155,M,,*48
$GPRMC,,A,4404.1286,N,12118.8458,W,0.0207,222.009,,14.4,E*68
$GPGSA,A,3,131,135,79,11,7,18,75,13,19,15,30,1,1.4,0.7,1.2*39
{"class":"TPV","mode":3,"lat":44.068809261,"lon":-121.314096823,"altHAE":1103.6054,"altMSL":1125.7599,"alt":1125.7599,"epv":1.224,"track":222.0091,"magtrack":236.4275,"magvar":14.4,"speed":0.011,"climb":0.012,"eps":0.01,"ecefx":-2386053.90,"ecefy":-3922195.04,"ecefz":4414355.79,"ecefvx":-0.01,"ecefvy":-0.01,"ecefvz":0.00,"ecefpAcc":1.38,"ecefvAcc":0.02,"velN":-0.008,"velE":-0.007,"velD":-0.012,"geoidSep":-22.155,"eph":0.630,"sep":26.174}
{"class":"SKY","hdop":0.70,"pdop":1.38,"tdop":0.80,"vdop":1.19,"nSat":18,"uSat":17,"satellites":[{"PRN":131,"gnssid":1,"svid":12,"az":174.0,"ss":45.0,"used":true},{"PRN":135,"gnssid":1,"svid":16,"az":196.0,"ss":46.0,"used":true},{"PRN":79,"gnssid":2,"svid":9,"az":206.0,"ss":41.0,"used":true},{"PRN":11,"gnssid":0,"svid":11,"az":66.0,"ss":47.0,"used":true},{"PRN":7,"gnssid":0,"svid":7,"az":126.0,"ss":47.0,"used":true},{"PRN":18,"gnssid":0,"svid":18,"az":56.0,"ss":35.0,"used":true},{"PRN":75,"gnssid":2,"svid":5,"az":254.0,"ss":42.0,"used":true},{"PRN":13,"gnssid":0,"svid":13,"az":262.0,"ss":47.0,"used":true},{"PRN":19,"gnssid":0,"svid":19,"az":196.0,"ss":47.0,"used":true},{"PRN":15,"gnssid":0,"svid":15,"az":298.0,"ss":44.0,"used":true},{"PRN":30,"gnssid":0,"svid":30,"az":122.0,"ss":48.0,"used":true},{"PRN":1,"gnssid":0,"svid":1,"az":80.0,"ss":43.0,"used":true},{"PRN":28,"gnssid":0,"svid":28,"az":38.0,"ss":46.0,"used":true},{"PRN":138,"gnssid":1,"svid":19,"az":160.0,"ss":46.0,"used":true},{"PRN":133,"gnssid":1,"svid":14,"az":192.0,"ss":45.0,"used":false},{"PRN":94,"gnssid":2,"svid":24,"az":326.0,"ss":44.0,"used":true},{"PRN":17,"gnssid":0,"svid":17,"az":186.0,"ss":47.0,"used":true},{"PRN":82,"gnssid":2,"svid":12,"az":140.0,"ss":47.0,"used":true}]}
{"class":"SKY","hdop":0.70,"pdop":1.38,"tdop":0.80,"vdop":1.19}
$GPZDA,,00,01,1900,00,00*41
$GPGGA,,4404.1286,N,12118.8458,W,1,17,0.70,1125.75,M,-22.155,M,,*4B
$GPRMC,,A,4404.1286,N,12118.8458,W,0.0177,232.021,,14.4,E*67
$GPGSA,A,3,131,135,79,11,7,18,75,13,19,15,30,1,1.4,0.7,1.2*39
{"class":"TPV","mode":3,"lat":44.068809268,"lon":-121.314096874,"altHAE":1103.6004,"altMSL":1125.7549,"alt":1125.7549,"epv":1.225,"track":232.0213,"magtrack":246.4398,"magvar":14.4,"speed":0.009,"climb":0.011,"eps":0.02,"ecefx":-2386053.90,"ecefy":-3922195.03,"ecefz":4414355.78,"ecefvx":-0.01,"ecefvy":-0.01,"ecefvz":0.00,"ecefpAcc":1.38,"ecefvAcc":0.04,"velN":-0.006,"velE":-0.007,"velD":-0.011,"geoidSep":-22.155,"eph":0.631,"sep":26.173}
{"class":"SKY","hdop":0.70,"pdop":1.38,"tdop":0.80,"vdop":1.19,"nSat":18,"uSat":17,"satellites":[{"PRN":131,"gnssid":1,"svid":12,"az":174.0,"ss":45.0,"used":true},{"PRN":135,"gnssid":1,"svid":16,"az":196.0,"ss":46.0,"used":true},{"PRN":79,"gnssid":2,"svid":9,"az":206.0,"ss":40.0,"used":true},{"PRN":11,"gnssid":0,"svid":11,"az":66.0,"ss":47.0,"used":true},{"PRN":7,"gnssid":0,"svid":7,"az":126.0,"ss":47.0,"used":true},{"PRN":18,"gnssid":0,"svid":18,"az":56.0,"ss":35.0,"used":true},{"PRN":75,"gnssid":2,"svid":5,"az":254.0,"ss":42.0,"used":true},{"PRN":13,"gnssid":0,"svid":13,"az":262.0,"ss":47.0,"used":true},{"PRN":19,"gnssid":0,"svid":19,"az":196.0,"ss":47.0,"used":true},{"PRN":15,"gnssid":0,"svid":15,"az":298.0,"ss":44.0,"used":true},{"PRN":30,"gnssid":0,"svid":30,"az":122.0,"ss":48.0,"used":true},{"PRN":1,"gnssid":0,"svid":1,"az":80.0,"ss":43.0,"used":true},{"PRN":28,"gnssid":0,"svid":28,"az":38.0,"ss":46.0,"used":true},{"PRN":138,"gnssid":1,"svid":19,"az":160.0,"ss":46.0,"used":true},{"PRN":133,"gnssid":1,"svid":14,"az":192.0,"ss":45.0,"used":false},{"PRN":94,"gnssid":2,"svid":24,"az":326.0,"ss":44.0,"used":true},{"PRN":17,"gnssid":0,"svid":17,"az":186.0,"ss":47.0,"used":true},{"PRN":82,"gnssid":2,"svid":12,"az":140.0,"ss":47.0,"used":true}]}
{"class":"SKY","hdop":0.70,"pdop":1.38,"tdop":0.80,"vdop":1.19}
$GPZDA,,00,01,1900,00,00*41
$GPGGA,,4404.1286,N,12118.8458,W,1,17,0.70,1125.75,M,-22.155,M,,*4B
$GPRMC,,A,4404.1286,N,12118.8458,W,0.0100,183.414,,14.4,E*6C
$GPGSA,A,3,131,135,79,11,7,18,75,13,19,15,30,1,1.4,0.7,1.2*39
{"class":"TPV","mode":3,"lat":44.068809229,"lon":-121.314096936,"altHAE":1103.5960,"altMSL":1125.7505,"alt":1125.7505,"epv":1.224,"track":183.4138,"magtrack":197.8322,"magvar":14.4,"speed":0.005,"climb":-0.010,"eps":0.01,"ecefx":-2386053.90,"ecefy":-3922195.03,"ecefz":4414355.78,"ecefvx":0.00,"ecefvy":0.00,"ecefvz":-0.01,"ecefpAcc":1.38,"ecefvAcc":0.03,"velN":-0.005,"velE":0.000,"velD":0.010,"geoidSep":-22.155,"eph":0.630,"sep":26.173}
{"class":"SKY","hdop":0.70,"pdop":1.38,"tdop":0.80,"vdop":1.19,"nSat":18,"uSat":17,"satellites":[{"PRN":131,"gnssid":1,"svid":12,"az":174.0,"ss":45.0,"used":true},{"PRN":135,"gnssid":1,"svid":16,"az":196.0,"ss":46.0,"used":true},{"PRN":79,"gnssid":2,"svid":9,"az":206.0,"ss":40.0,"used":true},{"PRN":11,"gnssid":0,"svid":11,"az":66.0,"ss":47.0,"used":true},{"PRN":7,"gnssid":0,"svid":7,"az":126.0,"ss":47.0,"used":true},{"PRN":18,"gnssid":0,"svid":18,"az":56.0,"ss":35.0,"used":true},{"PRN":75,"gnssid":2,"svid":5,"az":254.0,"ss":42.0,"used":true},{"PRN":13,"gnssid":0,"svid":13,"az":262.0,"ss":47.0,"used":true},{"PRN":19,"gnssid":0,"svid":19,"az":196.0,"ss":47.0,"used":true},{"PRN":15,"gnssid":0,"svid":15,"az":298.0,"ss":44.0,"used":true},{"PRN":30,"gnssid":0,"svid":30,"az":122.0,"ss":48.0,"used":true},{"PRN":1,"gnssid":0,"svid":1,"az":80.0,"ss":43.0,"used":true},{"PRN":28,"gnssid":0,"svid":28,"az":38.0,"ss":46.0,"used":true},{"PRN":138,"gnssid":1,"svid":19,"az":160.0,"ss":46.0,"used":true},{"PRN":133,"gnssid":1,"svid":14,"az":192.0,"ss":45.0,"used":false},{"PRN":94,"gnssid":2,"svid":24,"az":326.0,"ss":44.0,"used":true},{"PRN":17,"gnssid":0,"svid":17,"az":186.0,"ss":47.0,"used":true},{"PRN":82,"gnssid":2,"svid":12,"az":140.0,"ss":48.0,"used":true}]}
{"class":"SKY","hdop":0.70,"pdop":1.38,"tdop":0.80,"vdop":1.19}
{"class":"SKY","hdop":0.70,"pdop":1.38,"tdop":0.80,"vdop":1.19}
$GPZDA,,00,01,1900,00,00*41
$GPGGA,,4404.1286,N,12118.8458,W,1,17,0.70,1125.75,M,-22.155,M,,*4B
$GPRMC,,A,4404.1286,N,12118.8458,W,0.0110,217.975,,14.4,E*69
$GPGSA,A,3,131,135,79,11,7,18,75,13,19,15,30,1,1.4,0.7,1.2*39
{"class":"TPV","mode":3,"lat":44.068809223,"lon":-121.314096970,"altHAE":1103.5909,"altMSL":1125.7454,"alt":1125.7454,"epv":1.225,"track":217.9745,"magtrack":232.3929,"magvar":14.4,"speed":0.006,"climb":-0.001,"eps":0.01,"ecefx":-2386053.90,"ecefy":-3922195.02,"ecefz":4414355.77,"ecefvx":0.00,"ecefvy":0.00,"ecefvz":0.00,"ecefpAcc":1.38,"ecefvAcc":0.02,"velN":-0.004,"velE":-0.003,"velD":0.001,"geoidSep":-22.155,"eph":0.630,"sep":26.172}
{"class":"SKY","hdop":0.70,"pdop":1.38,"tdop":0.80,"vdop":1.19,"nSat":18,"uSat":17,"satellites":[{"PRN":131,"gnssid":1,"svid":12,"az":174.0,"ss":45.0,"used":true},{"PRN":135,"gnssid":1,"svid":16,"az":196.0,"ss":46.0,"used":true},{"PRN":79,"gnssid":2,"svid":9,"az":206.0,"ss":41.0,"used":true},{"PRN":11,"gnssid":0,"svid":11,"az":66.0,"ss":47.0,"used":true},{"PRN":7,"gnssid":0,"svid":7,"az":126.0,"ss":47.0,"used":true},{"PRN":18,"gnssid":0,"svid":18,"az":56.0,"ss":35.0,"used":true},{"PRN":75,"gnssid":2,"svid":5,"az":254.0,"ss":42.0,"used":true},{"PRN":13,"gnssid":0,"svid":13,"az":262.0,"ss":47.0,"used":true},{"PRN":19,"gnssid":0,"svid":19,"az":196.0,"ss":47.0,"used":true},{"PRN":15,"gnssid":0,"svid":15,"az":298.0,"ss":44.0,"used":true},{"PRN":30,"gnssid":0,"svid":30,"az":122.0,"ss":48.0,"used":true},{"PRN":1,"gnssid":0,"svid":1,"az":80.0,"ss":43.0,"used":true},{"PRN":28,"gnssid":0,"svid":28,"az":38.0,"ss":46.0,"used":true},{"PRN":138,"gnssid":1,"svid":19,"az":160.0,"ss":46.0,"used":true},{"PRN":133,"gnssid":1,"svid":14,"az":192.0,"ss":45.0,"used":false},{"PRN":94,"gnssid":2,"svid":24,"az":326.0,"ss":44.0,"used":true},{"PRN":17,"gnssid":0,"svid":17,"az":186.0,"ss":47.0,"used":true},{"PRN":82,"gnssid":2,"svid":12,"az":140.0,"ss":47.0,"used":true}]}
{"class":"SKY","hdop":0.70,"pdop":1.38,"tdop":0.80,"vdop":1.19}
$GPZDA,,00,01,1900,00,00*41
$GPGGA,,,S,,W,1,17,0.70,,M,,M,,*7C
$GPRMC,,A,,S,,W,,,,,*22
$GPGSA,A,3,131,135,79,11,7,18,75,13,19,15,30,1,1.4,0.7,1.2*39
{"class":"TPV","mode":3,"epv":1.225,"eps":0.01,"ecefvx":-0.02,"ecefvy":-0.02,"ecefvz":0.01,"ecefpAcc":1.38,"ecefvAcc":0.01,"eph":0.630,"sep":26.171}
{"class":"SKY","hdop":0.70,"pdop":1.38,"tdop":0.80,"vdop":1.19,"nSat":18,"uSat":17,"satellites":[{"PRN":131,"gnssid":1,"svid":12,"az":174.0,"ss":45.0,"used":true},{"PRN":135,"gnssid":1,"svid":16,"az":196.0,"ss":46.0,"used":true},{"PRN":79,"gnssid":2,"svid":9,"az":206.0,"ss":40.0,"used":true},{"PRN":11,"gnssid":0,"svid":11,"az":66.0,"ss":47.0,"used":true},{"PRN":7,"gnssid":0,"svid":7,"az":126.0,"ss":47.0,"used":true},{"PRN":18,"gnssid":0,"svid":18,"az":56.0,"ss":35.0,"used":true},{"PRN":75,"gnssid":2,"svid":5,"az":254.0,"ss":42.0,"used":true},{"PRN":13,"gnssid":0,"svid":13,"az":262.0,"ss":47.0,"used":true},{"PRN":19,"gnssid":0,"svid":19,"az":196.0,"ss":47.0,"used":true},{"PRN":15,"gnssid":0,"svid":15,"az":298.0,"ss":44.0,"used":true},{"PRN":30,"gnssid":0,"svid":30,"az":122.0,"ss":48.0,"used":true},{"PRN":1,"gnssid":0,"svid":1,"az":80.0,"ss":43.0,"used":true},{"PRN":28,"gnssid":0,"svid":28,"az":38.0,"ss":46.0,"used":true},{"PRN":138,"gnssid":1,"svid":19,"az":160.0,"ss":46.0,"used":true},{"PRN":133,"gnssid":1,"svid":14,"az":192.0,"ss":45.0,"used":false},{"PRN":94,"gnssid":2,"svid":24,"az":326.0,"ss":44.0,"used":true},{"PRN":17,"gnssid":0,"svid":17,"az":186.0,"ss":47.0,"used":true},{"PRN":82,"gnssid":2,"svid":12,"az":140.0,"ss":47.0,"used":true}]}
{"class":"SKY","hdop":0.70,"pdop":1.38,"tdop":0.80,"vdop":1.19}
$GPZDA,,00,01,1900,00,00*41
$GPGGA,,4404.1286,N,12118.8458,W,1,17,0.70,1125.74,M,-22.155,M,,*4A
$GPRMC,,A,4404.1286,N,12118.8458,W,0.0232,255.072,,14.4,E*62
$GPGSA,A,3,131,135,79,11,7,18,75,13,19,15,30,1,1.4,0.7,1.2*39
{"class":"TPV","mode":3,"lat":44.068809186,"lon":-121.314097004,"altHAE":1103.5875,"altMSL":1125.7420,"alt":1125.7420,"epv":1.227,"track":255.0720,"magtrack":269.4904,"magvar":14.4,"speed":0.012,"climb":0.009,"eps":0.01,"ecefx":-2386053.91,"ecefy":-3922195.02,"ecefz":4414355.77,"ecefvx":-0.01,"ecefvy":0.00,"ecefvz":0.00,"ecefpAcc":1.38,"ecefvAcc":0.01,"velN":-0.003,"velE":-0.012,"velD":-0.009,"geoidSep":-22.155,"eph":0.631,"sep":26.171}
{"class":"SKY","hdop":0.70,"pdop":1.38,"tdop":0.80,"vdop":1.19,"nSat":18,"uSat":17,"satellites":[{"PRN":131,"gnssid":1,"svid":12,"az":174.0,"ss":45.0,"used":true},{"PRN":135,"gnssid":1,"svid":16,"az":196.0,"ss":46.0,"used":true},{"PRN":79,"gnssid":2,"svid":9,"az":206.0,"ss":40.0,"used":true},{"PRN":11,"gnssid":0,"svid":11,"az":66.0,"ss":47.0,"used":true},{"PRN":7,"gnssid":0,"svid":7,"az":126.0,"ss":47.0,"used":true},{"PRN":18,"gnssid":0,"svid":18,"az":56.0,"ss":35.0,"used":true},{"PRN":75,"gnssid":2,"svid":5,"az":254.0,"ss":42.0,"used":true},{"PRN":13,"gnssid":0,"svid":13,"az":262.0,"ss":47.0,"used":true},{"PRN":19,"gnssid":0,"svid":19,"az":196.0,"ss":47.0,"used":true},{"PRN":15,"gnssid":0,"svid":15,"az":298.0,"ss":44.0,"used":true},{"PRN":30,"gnssid":0,"svid":30,"az":122.0,"ss":48.0,"used":true},{"PRN":1,"gnssid":0,"svid":1,"az":80.0,"ss":43.0,"used":true},{"PRN":28,"gnssid":0,"svid":28,"az":38.0,"ss":46.0,"used":true},{"PRN":138,"gnssid":1,"svid":19,"az":160.0,"ss":46.0,"used":true},{"PRN":133,"gnssid":1,"svid":14,"az":192.0,"ss":45.0,"used":false},{"PRN":94,"gnssid":2,"svid":24,"az":326.0,"ss":44.0,"used":true},{"PRN":17,"gnssid":0,"svid":17,"az":186.0,"ss":47.0,"used":true},{"PRN":82,"gnssid":2,"svid":12,"az":140.0,"ss":48.0,"used":true}]}
{"class":"SKY","hdop":0.70,"pdop":1.38,"tdop":0.80,"vdop":1.19}
$GPZDA,,00,01,1900,00,00*41
$GPGGA,,,S,,W,1,17,0.70,,M,,M,,*7C
$GPRMC,,A,,S,,W,,,,,*22
$GPGSA,A,3,131,135,79,11,7,18,75,13,19,15,30,1,1.4,0.7,1.2*39
{"class":"TPV","mode":3,"epv":1.227,"eps":0.00,"ecefvx":0.00,"ecefvy":-0.01,"ecefvz":0.00,"ecefpAcc":1.38,"ecefvAcc":0.01,"eph":0.631,"sep":26.170}
{"class":"SKY","hdop":0.70,"pdop":1.38,"tdop":0.80,"vdop":1.19,"nSat":18,"uSat":17,"satellites":[{"PRN":131,"gnssid":1,"svid":12,"az":174.0,"ss":45.0,"used":true},{"PRN":135,"gnssid":1,"svid":16,"az":196.0,"ss":46.0,"used":true},{"PRN":79,"gnssid":2,"svid":9,"az":206.0,"ss":40.0,"used":true},{"PRN":11,"gnssid":0,"svid":11,"az":66.0,"ss":47.0,"used":true},{"PRN":7,"gnssid":0,"svid":7,"az":126.0,"ss":47.0,"used":true},{"PRN":18,"gnssid":0,"svid":18,"az":56.0,"ss":35.0,"used":true},{"PRN":75,"gnssid":2,"svid":5,"az":254.0,"ss":42.0,"used":true},{"PRN":13,"gnssid":0,"svid":13,"az":262.0,"ss":47.0,"used":true},{"PRN":19,"gnssid":0,"svid":19,"az":196.0,"ss":47.0,"used":true},{"PRN":15,"gnssid":0,"svid":15,"az":298.0,"ss":44.0,"used":true},{"PRN":30,"gnssid":0,"svid":30,"az":122.0,"ss":48.0,"used":true},{"PRN":1,"gnssid":0,"svid":1,"az":80.0,"ss":43.0,"used":true},{"PRN":28,"gnssid":0,"svid":28,"az":38.0,"ss":46.0,"used":true},{"PRN":138,"gnssid":1,"svid":19,"az":160.0,"ss":46.0,"used":true},{"PRN":133,"gnssid":1,"svid":14,"az":192.0,"ss":45.0,"used":false},{"PRN":94,"gnssid":2,"svid":24,"az":326.0,"ss":44.0,"used":true},{"PRN":17,"gnssid":0,"svid":17,"az":186.0,"ss":47.0,"used":true},{"PRN":82,"gnssid":2,"svid":12,"az":140.0,"ss":48.0,"used":true}]}
{"class":"SKY","hdop":0.70,"pdop":1.38,"tdop":0.80,"vdop":1.19}
$GPZDA,,00,01,1900,00,00*41
$GPGGA,,4404.1285,N,12118.8458,W,1,17,0.70,1125.74,M,-22.155,M,,*49
$GPRMC,,A,4404.1285,N,12118.8458,W,0.0294,195.542,,14.4,E*64
$GPGSA,A,3,131,135,79,11,7,18,75,13,19,15,30,1,1.4,0.7,1.2*39
{"class":"TPV","mode":3,"lat":44.068809144,"lon":-121.314097010,"altHAE":1103.5840,"altMSL":1125.7386,"alt":1125.7386,"epv":1.230,"track":195.5423,"magtrack":209.9607,"magvar":14.4,"speed":0.015,"climb":0.009,"eps":0.01,"ecefx":-2386053.91,"ecefy":-3922195.02,"ecefz":4414355.76,"ecefvx":-0.01,"ecefvy":-0.01,"ecefvz":0.00,"ecefpAcc":1.38,"ecefvAcc":0.02,"velN":-0.015,"velE":-0.004,"velD":-0.009,"geoidSep":-22.155,"eph":0.632,"sep":26.170}
{"class":"SKY","hdop":0.70,"pdop":1.38,"tdop":0.80,"vdop":1.19,"nSat":18,"uSat":17,"satellites":[{"PRN":131,"gnssid":1,"svid":12,"az":174.0,"ss":45.0,"used":true},{"PRN":135,"gnssid":1,"svid":16,"az":196.0,"ss":46.0,"used":true},{"PRN":79,"gnssid":2,"svid":9,"az":206.0,"ss":41.0,"used":true},{"PRN":11,"gnssid":0,"svid":11,"az":66.0,"ss":47.0,"used":true},{"PRN":7,"gnssid":0,"svid":7,"az":126.0,"ss":47.0,"used":true},{"PRN":18,"gnssid":0,"svid":18,"az":56.0,"ss":36.0,"used":true},{"PRN":75,"gnssid":2,"svid":5,"az":254.0,"ss":42.0,"used":true},{"PRN":13,"gnssid":0,"svid":13,"az":262.0,"ss":47.0,"used":true},{"PRN":19,"gnssid":0,"svid":19,"az":196.0,"ss":47.0,"used":true},{"PRN":15,"gnssid":0,"svid":15,"az":298.0,"ss":44.0,"used":true},{"PRN":30,"gnssid":0,"svid":30,"az":122.0,"ss":48.0,"used":true},{"PRN":1,"gnssid":0,"svid":1,"az":80.0,"ss":43.0,"used":true},{"PRN":28,"gnssid":0,"svid":28,"az":38.0,"ss":46.0,"used":true},{"PRN":138,"gnssid":1,"svid":19,"az":160.0,"ss":46.0,"used":true},{"PRN":133,"gnssid":1,"svid":14,"az":192.0,"ss":45.0,"used":false},{"PRN":94,"gnssid":2,"svid":24,"az":326.0,"ss":44.0,"used":true},{"PRN":17,"gnssid":0,"svid":17,"az":186.0,"ss":47.0,"used":true},{"PRN":82,"gnssid":2,"svid":12,"az":140.0,"ss":48.0,"used":true}]}
{"class":"SKY","hdop":0.70,"pdop":1.38,"tdop":0.80,"vdop":1.19}
$GPZDA,,00,01,1900,00,00*41
$GPGGA,,,S,,W,1,17,0.70,,M,,M,,*7C
