$GPZDA,221257.14,06,07,2009,00,00*68
$GPGGA,221257.14,5333.7947,N,11326.3773,W,1,05,,660.17,M,-18.954,M,,*47
$GPRMC,221257.14,A,5333.7947,N,11326.3773,W,0.0000,0.000,060709,13.9,E*41
$GPGSA,A,3,,,,,,,,,,,,,,,*1C
{"class":"TPV","mode":3,"time":"2009-07-06T22:12:57.144Z","ept":0.005,"lat":53.563244878,"lon":-113.439622385,"altHAE":641.2173,"altMSL":660.1717,"alt":660.1717,"track":0.0000,"magtrack":13.9113,"magvar":13.9,"speed":0.000,"climb":0.000,"eps":0.45,"ecefx":-1510306.00,"ecefy":-3483499.97,"ecefz":5108537.11,"ecefvx":0.00,"ecefvy":0.00,"ecefvz":0.00,"velN":0.000,"velE":0.000,"velD":0.000,"geoidSep":-18.954}
$GPGSV,3,1,09,03,35,061,32,06,26,049,34,07,76,101,23,08,60,183,38*71
$GPGSV,3,2,09,10,23,180,00,13,33,166,16,19,43,094,47,25,54,109,44*73
$GPGSV,3,3,09,28,30,125,00*4F
{"class":"SKY","time":"2009-07-06T22:12:57.322Z","gdop":18.94,"hdop":6.70,"pdop":16.13,"tdop":9.92,"xdop":2.46,"ydop":6.23,"vdop":14.67,"nSat":9,"uSat":5,"satellites":[{"PRN":3,"az":61.0,"el":35.0,"ss":32.0,"used":true},{"PRN":6,"az":49.0,"el":26.0,"ss":34.0,"used":true},{"PRN":7,"az":101.0,"el":76.0,"ss":23.0,"used":false},{"PRN":8,"az":183.0,"el":60.0,"ss":38.0,"used":true},{"PRN":10,"az":180.0,"el":23.0,"ss":0.0,"used":false},{"PRN":13,"az":166.0,"el":33.0,"ss":16.0,"used":false},{"PRN":19,"az":94.0,"el":43.0,"ss":47.0,"used":true},{"PRN":25,"az":109.0,"el":54.0,"ss":44.0,"used":true},{"PRN":28,"az":125.0,"el":30.0,"ss":0.0,"used":false}]}
$GPZDA,221258.15,06,07,2009,00,00*66
$GPGGA,221258.15,5333.7947,N,11326.3773,W,1,05,,660.17,M,-18.954,M,,*49
$GPRMC,221258.15,A,5333.7947,N,11326.3773,W,0.0000,0.000,060709,13.9,E*4F
$GPGSA,A,3,10,19,8,13,25,,,,,,,,,,*28
{"class":"TPV","mode":3,"time":"2009-07-06T22:12:58.145Z","ept":0.005,"lat":53.563244878,"lon":-113.439622385,"altHAE":641.2173,"altMSL":660.1717,"alt":660.1717,"track":0.0000,"magtrack":13.9113,"magvar":13.9,"speed":0.000,"climb":0.000,"eps":0.45,"ecefx":-1510306.00,"ecefy":-3483499.97,"ecefz":5108537.11,"ecefvx":0.00,"ecefvy":0.00,"ecefvz":0.00,"velN":0.000,"velE":0.000,"velD":0.000,"geoidSep":-18.954}
$GPGSV,3,1,09,03,35,061,31,06,26,049,34,07,76,101,00,08,60,183,38*73
$GPGSV,3,2,09,10,23,180,05,13,33,166,12,19,43,094,47,25,54,109,44*72
$GPGSV,3,3,09,28,30,125,00*4F
{"class":"SKY","time":"2009-07-06T22:12:58.326Z","gdop":18.94,"hdop":6.70,"pdop":16.13,"tdop":9.92,"xdop":2.46,"ydop":6.23,"vdop":14.67,"nSat":9,"uSat":5,"satellites":[{"PRN":3,"az":61.0,"el":35.0,"ss":31.0,"used":true},{"PRN":6,"az":49.0,"el":26.0,"ss":34.0,"used":true},{"PRN":7,"az":101.0,"el":76.0,"ss":0.0,"used":false},{"PRN":8,"az":183.0,"el":60.0,"ss":38.0,"used":true},{"PRN":10,"az":180.0,"el":23.0,"ss":5.0,"used":false},{"PRN":13,"az":166.0,"el":33.0,"ss":12.0,"used":false},{"PRN":19,"az":94.0,"el":43.0,"ss":47.0,"used":true},{"PRN":25,"az":109.0,"el":54.0,"ss":44.0,"used":true},{"PRN":28,"az":125.0,"el":30.0,"ss":0.0,"used":false}]}
$GPZDA,221259.15,06,07,2009,00,00*67
$GPGGA,221259.15,5333.7947,N,11326.3773,W,1,05,,660.18,M,-18.954,M,,*47
$GPRMC,221259.15,A,5333.7947,N,11326.3773,W,0.0000,0.000,060709,13.9,E*4E
$GPGSA,A,3,10,28,25,6,25,,,,,,,,,,*21
{"class":"TPV","mode":3,"time":"2009-07-06T22:12:59.146Z","ept":0.005,"lat":53.563244812,"lon":-113.439622325,"altHAE":641.2228,"altMSL":660.1771,"alt":660.1771,"track":0.0000,"magtrack":13.9113,"magvar":13.9,"speed":0.000,"climb":0.000,"eps":0.45,"ecefx":-1510306.00,"ecefy":-3483499.98,"ecefz":5108537.11,"ecefvx":0.00,"ecefvy":0.00,"ecefvz":0.00,"velN":0.000,"velE":0.000,"velD":0.000,"geoidSep":-18.954}
$GPGSV,3,1,09,03,35,061,31,06,26,049,34,07,76,101,00,08,60,183,38*73
$GPGSV,3,2,09,10,23,180,22,13,33,166,00,19,43,094,47,25,54,109,44*74
$GPGSV,3,3,09,28,30,125,09*46
{"class":"SKY","time":"2009-07-06T22:12:59.334Z","gdop":18.94,"hdop":6.70,"pdop":16.13,"tdop":9.92,"xdop":2.46,"ydop":6.23,"vdop":14.67,"nSat":9,"uSat":5,"satellites":[{"PRN":3,"az":61.0,"el":35.0,"ss":31.0,"used":true},{"PRN":6,"az":49.0,"el":26.0,"ss":34.0,"used":true},{"PRN":7,"az":101.0,"el":76.0,"ss":0.0,"used":false},{"PRN":8,"az":183.0,"el":60.0,"ss":38.0,"used":true},{"PRN":10,"az":180.0,"el":23.0,"ss":22.0,"used":false},{"PRN":13,"az":166.0,"el":33.0,"ss":0.0,"used":false},{"PRN":19,"az":94.0,"el":43.0,"ss":47.0,"used":true},{"PRN":25,"az":109.0,"el":54.0,"ss":44.0,"used":true},{"PRN":28,"az":125.0,"el":30.0,"ss":9.0,"used":false}]}
