$GNRMC,012238.00,A,3454.4922,S,13835.7617,E,0.0,0.0,120821,,,D*5A
{"class":"TPV","status":2,"mode":2,"time":"2021-08-12T01:22:38.000Z","ept":0.005,"lat":-34.908203333,"lon":138.596028333,"track":0.0000,"magtrack":7.9179,"magvar":7.9,"speed":0.000}
$GNGGA,012238.00,3454.4922,S,13835.7617,E,2,12,99.0,53.3,M,-3.5,M,,*7B
{"class":"TPV","status":2,"mode":3,"time":"2021-08-12T01:22:38.000Z","ept":0.005,"lat":-34.908203333,"lon":138.596028333,"altHAE":49.8000,"altMSL":53.3000,"alt":53.3000,"track":0.0000,"magtrack":7.9179,"magvar":7.9,"speed":0.000,"geoidSep":-3.500}
$PJLTS,-0.39,-2.74,157848,6,2.5829535,86.0984,-1.0E-12,0,17,0x0*40
$GNGSA,A,3,27,9,20,5,4,30,8,7,14,,,,0.00,0.00,0.00*2A
{"class":"TPV","status":2,"mode":3,"time":"2021-08-12T01:22:38.000Z","ept":0.005,"lat":-34.908203333,"lon":138.596028333,"altHAE":49.8000,"altMSL":53.3000,"alt":53.3000,"epv":0.000,"track":0.0000,"magtrack":7.9179,"magvar":7.9,"speed":0.000,"geoidSep":-3.500,"eph":0.000,"sep":0.000}
$GNGSA,A,3,307,301,319,327,321,,,,,,,,0.00,0.00,0.00*27
{"class":"TPV","status":2,"mode":3,"time":"2021-08-12T01:22:38.000Z","ept":0.005,"lat":-34.908203333,"lon":138.596028333,"altHAE":49.8000,"altMSL":53.3000,"alt":53.3000,"epv":0.000,"track":0.0000,"magtrack":7.9179,"magvar":7.9,"speed":0.000,"geoidSep":-3.500,"eph":0.000,"sep":0.000}
{"class":"SKY","hdop":0.00,"pdop":0.00,"vdop":0.00,"uSat":12}
$GPGSV,4,1,13,04,23,58,39,05,10,220,40,07,63,164,44,08,27,95,41*79
$GPGSV,4,2,13,09,60,64,44,14,33,329,42,16,1,142,0,20,30,250,43*4B
$GPGSV,4,3,13,27,16,125,34,28,0,0,36,30,52,245,46,41,19,291,38*49
$GPGSV,4,4,13,50,48,340,41*40
{"class":"SKY","gdop":1.91,"hdop":0.00,"pdop":0.00,"tdop":0.87,"xdop":0.53,"ydop":0.76,"vdop":0.00,"nSat":13,"uSat":9,"satellites":[{"PRN":4,"gnssid":0,"svid":4,"az":58.0,"el":23.0,"ss":39.0,"used":true},{"PRN":5,"gnssid":0,"svid":5,"az":220.0,"el":10.0,"ss":40.0,"used":true},{"PRN":7,"gnssid":0,"svid":7,"az":164.0,"el":63.0,"ss":44.0,"used":true},{"PRN":8,"gnssid":0,"svid":8,"az":95.0,"el":27.0,"ss":41.0,"used":true},{"PRN":9,"gnssid":0,"svid":9,"az":64.0,"el":60.0,"ss":44.0,"used":true},{"PRN":14,"gnssid":0,"svid":14,"az":329.0,"el":33.0,"ss":42.0,"used":true},{"PRN":16,"gnssid":0,"svid":16,"az":142.0,"el":1.0,"ss":0.0,"used":false},{"PRN":20,"gnssid":0,"svid":20,"az":250.0,"el":30.0,"ss":43.0,"used":true},{"PRN":27,"gnssid":0,"svid":27,"az":125.0,"el":16.0,"ss":34.0,"used":true},{"PRN":28,"gnssid":0,"svid":28,"az":0.0,"el":0.0,"ss":36.0,"used":false},{"PRN":30,"gnssid":0,"svid":30,"az":245.0,"el":52.0,"ss":46.0,"used":true},{"PRN":41,"gnssid":1,"svid":128,"az":291.0,"el":19.0,"ss":38.0,"used":false},{"PRN":50,"gnssid":1,"svid":137,"az":340.0,"el":48.0,"ss":41.0,"used":false}]}
$GNRMC,012239.00,A,3454.4922,S,13835.7617,E,0.0,0.0,120821,,,D*5B
$GNGGA,012239.00,3454.4922,S,13835.7617,E,2,12,99.0,53.3,M,-3.5,M,,*7A
{"class":"TPV","status":2,"mode":3,"time":"2021-08-12T01:22:39.000Z","ept":0.005,"lat":-34.908203333,"lon":138.596028333,"altHAE":49.8000,"altMSL":53.3000,"alt":53.3000,"track":0.0000,"magtrack":7.9179,"magvar":7.9,"speed":0.000,"climb":0.000,"geoidSep":-3.500}
$GNGSA,A,3,27,9,20,5,4,30,8,7,14,,,,0.00,0.00,0.00*2A
{"class":"TPV","status":2,"mode":3,"time":"2021-08-12T01:22:39.000Z","ept":0.005,"lat":-34.908203333,"lon":138.596028333,"altHAE":49.8000,"altMSL":53.3000,"alt":53.3000,"epv":0.000,"track":0.0000,"magtrack":7.9179,"magvar":7.9,"speed":0.000,"climb":0.000,"epc":0.00,"geoidSep":-3.500,"eph":0.000,"sep":0.000}
$GNGSA,A,3,307,301,319,327,321,,,,,,,,0.00,0.00,0.00*27
{"class":"TPV","status":2,"mode":3,"time":"2021-08-12T01:22:39.000Z","ept":0.005,"lat":-34.908203333,"lon":138.596028333,"altHAE":49.8000,"altMSL":53.3000,"alt":53.3000,"epv":0.000,"track":0.0000,"magtrack":7.9179,"magvar":7.9,"speed":0.000,"climb":0.000,"epc":0.00,"geoidSep":-3.500,"eph":0.000,"sep":0.000}
{"class":"SKY","hdop":0.00,"pdop":0.00,"vdop":0.00,"uSat":12}
$GNRMC,012240.00,A,3454.4922,S,13835.7617,E,0.0,0.0,120821,,,D*55
$GNGGA,012240.00,3454.4922,S,13835.7617,E,2,12,99.0,53.3,M,-3.5,M,,*74
{"class":"TPV","status":2,"mode":3,"time":"2021-08-12T01:22:40.000Z","ept":0.005,"lat":-34.908203333,"lon":138.596028333,"altHAE":49.8000,"altMSL":53.3000,"alt":53.3000,"track":0.0000,"magtrack":7.9179,"magvar":7.9,"speed":0.000,"climb":0.000,"geoidSep":-3.500}
$GNGSA,A,3,27,9,20,5,4,30,8,7,14,,,,0.00,0.00,0.00*2A
{"class":"TPV","status":2,"mode":3,"time":"2021-08-12T01:22:40.000Z","ept":0.005,"lat":-34.908203333,"lon":138.596028333,"altHAE":49.8000,"altMSL":53.3000,"alt":53.3000,"epv":0.000,"track":0.0000,"magtrack":7.9179,"magvar":7.9,"speed":0.000,"climb":0.000,"epc":0.00,"geoidSep":-3.500,"eph":0.000,"sep":0.000}
$GNGSA,A,3,307,301,319,327,321,,,,,,,,0.00,0.00,0.00*27
{"class":"TPV","status":2,"mode":3,"time":"2021-08-12T01:22:40.000Z","ept":0.005,"lat":-34.908203333,"lon":138.596028333,"altHAE":49.8000,"altMSL":53.3000,"alt":53.3000,"epv":0.000,"track":0.0000,"magtrack":7.9179,"magvar":7.9,"speed":0.000,"climb":0.000,"epc":0.00,"geoidSep":-3.500,"eph":0.000,"sep":0.000}
{"class":"SKY","hdop":0.00,"pdop":0.00,"vdop":0.00,"uSat":12}
$GAGSV,2,1,08,301,26,315,40,304,9,225,37,307,12,45,33,318,23,75,41*53
$GAGSV,2,2,08,319,66,223,39,320,0,0,35,321,78,312,43,327,46,137,40*58
{"class":"TPV","status":2,"mode":3,"time":"2021-08-12T01:22:40.000Z","ept":0.005,"lat":-34.908203333,"lon":138.596028333,"altHAE":49.8000,"altMSL":53.3000,"alt":53.3000,"epx":4.492,"epy":6.203,"epv":0.000,"track":0.0000,"magtrack":7.9179,"magvar":7.9,"speed":0.000,"climb":0.000,"epc":0.00,"geoidSep":-3.500,"eph":0.000,"sep":0.000}
{"class":"SKY","gdop":4.18,"hdop":0.00,"pdop":0.00,"tdop":2.16,"xdop":1.20,"ydop":1.65,"vdop":0.00,"nSat":8,"uSat":5,"satellites":[{"PRN":301,"gnssid":2,"svid":1,"az":315.0,"el":26.0,"ss":40.0,"used":true},{"PRN":304,"gnssid":2,"svid":4,"az":225.0,"el":9.0,"ss":37.0,"used":false},{"PRN":307,"gnssid":2,"svid":7,"az":45.0,"el":12.0,"ss":33.0,"used":true},{"PRN":318,"gnssid":2,"svid":18,"az":75.0,"el":23.0,"ss":41.0,"used":false},{"PRN":319,"gnssid":2,"svid":19,"az":223.0,"el":66.0,"ss":39.0,"used":true},{"PRN":320,"gnssid":2,"svid":20,"az":0.0,"el":0.0,"ss":35.0,"used":false},{"PRN":321,"gnssid":2,"svid":21,"az":312.0,"el":78.0,"ss":43.0,"used":true},{"PRN":327,"gnssid":2,"svid":27,"az":137.0,"el":46.0,"ss":40.0,"used":true}]}
$GNRMC,012241.00,A,3454.4922,S,13835.7617,E,0.0,0.0,120821,,,D*54
$GNGGA,012241.00,3454.4922,S,13835.7617,E,2,12,99.0,53.3,M,-3.5,M,,*75
{"class":"TPV","status":2,"mode":3,"time":"2021-08-12T01:22:41.000Z","ept":0.005,"lat":-34.908203333,"lon":138.596028333,"altHAE":49.8000,"altMSL":53.3000,"alt":53.3000,"track":0.0000,"magtrack":7.9179,"magvar":7.9,"speed":0.000,"climb":0.000,"geoidSep":-3.500}
$GNGSA,A,3,27,9,20,5,4,30,8,7,14,,,,0.00,0.00,0.00*2A
{"class":"TPV","status":2,"mode":3,"time":"2021-08-12T01:22:41.000Z","ept":0.005,"lat":-34.908203333,"lon":138.596028333,"altHAE":49.8000,"altMSL":53.3000,"alt":53.3000,"epv":0.000,"track":0.0000,"magtrack":7.9179,"magvar":7.9,"speed":0.000,"climb":0.000,"epc":0.00,"geoidSep":-3.500,"eph":0.000,"sep":0.000}
$GNGSA,A,3,307,301,319,327,321,,,,,,,,0.00,0.00,0.00*27
{"class":"TPV","status":2,"mode":3,"time":"2021-08-12T01:22:41.000Z","ept":0.005,"lat":-34.908203333,"lon":138.596028333,"altHAE":49.8000,"altMSL":53.3000,"alt":53.3000,"epv":0.000,"track":0.0000,"magtrack":7.9179,"magvar":7.9,"speed":0.000,"climb":0.000,"epc":0.00,"geoidSep":-3.500,"eph":0.000,"sep":0.000}
{"class":"SKY","hdop":0.00,"pdop":0.00,"vdop":0.00,"uSat":12}
$GNRMC,012242.00,A,3454.4922,S,13835.7617,E,0.0,0.0,120821,,,D*57
$GNGGA,012242.00,3454.4922,S,13835.7617,E,2,12,99.0,53.3,M,-3.5,M,,*76
{"class":"TPV","status":2,"mode":3,"time":"2021-08-12T01:22:42.000Z","ept":0.005,"lat":-34.908203333,"lon":138.596028333,"altHAE":49.8000,"altMSL":53.3000,"alt":53.3000,"track":0.0000,"magtrack":7.9179,"magvar":7.9,"speed":0.000,"climb":0.000,"geoidSep":-3.500}
$GNGSA,A,3,27,9,20,5,4,30,8,7,14,,,,0.00,0.00,0.00*2A
{"class":"TPV","status":2,"mode":3,"time":"2021-08-12T01:22:42.000Z","ept":0.005,"lat":-34.908203333,"lon":138.596028333,"altHAE":49.8000,"altMSL":53.3000,"alt":53.3000,"epv":0.000,"track":0.0000,"magtrack":7.9179,"magvar":7.9,"speed":0.000,"climb":0.000,"epc":0.00,"geoidSep":-3.500,"eph":0.000,"sep":0.000}
$GNGSA,A,3,307,301,319,327,321,,,,,,,,0.00,0.00,0.00*27
{"class":"TPV","status":2,"mode":3,"time":"2021-08-12T01:22:42.000Z","ept":0.005,"lat":-34.908203333,"lon":138.596028333,"altHAE":49.8000,"altMSL":53.3000,"alt":53.3000,"epv":0.000,"track":0.0000,"magtrack":7.9179,"magvar":7.9,"speed":0.000,"climb":0.000,"epc":0.00,"geoidSep":-3.500,"eph":0.000,"sep":0.000}
{"class":"SKY","hdop":0.00,"pdop":0.00,"vdop":0.00,"uSat":12}
$GNRMC,012243.00,A,3454.4922,S,13835.7617,E,0.0,0.0,120821,,,D*56
$GNGGA,012243.00,3454.4922,S,13835.7617,E,2,12,99.0,53.3,M,-3.5,M,,*77
{"class":"TPV","status":2,"mode":3,"time":"2021-08-12T01:22:43.000Z","ept":0.005,"lat":-34.908203333,"lon":138.596028333,"altHAE":49.8000,"altMSL":53.3000,"alt":53.3000,"track":0.0000,"magtrack":7.9179,"magvar":7.9,"speed":0.000,"climb":0.000,"geoidSep":-3.500}
$GNGSA,A,3,27,9,20,5,4,30,8,7,14,,,,0.00,0.00,0.00*2A
{"class":"TPV","status":2,"mode":3,"time":"2021-08-12T01:22:43.000Z","ept":0.005,"lat":-34.908203333,"lon":138.596028333,"altHAE":49.8000,"altMSL":53.3000,"alt":53.3000,"epv":0.000,"track":0.0000,"magtrack":7.9179,"magvar":7.9,"speed":0.000,"climb":0.000,"epc":0.00,"geoidSep":-3.500,"eph":0.000,"sep":0.000}
$GNGSA,A,3,307,301,319,327,321,,,,,,,,0.00,0.00,0.00*27
{"class":"TPV","status":2,"mode":3,"time":"2021-08-12T01:22:43.000Z","ept":0.005,"lat":-34.908203333,"lon":138.596028333,"altHAE":49.8000,"altMSL":53.3000,"alt":53.3000,"epv":0.000,"track":0.0000,"magtrack":7.9179,"magvar":7.9,"speed":0.000,"climb":0.000,"epc":0.00,"geoidSep":-3.500,"eph":0.000,"sep":0.000}
{"class":"SKY","hdop":0.00,"pdop":0.00,"vdop":0.00,"uSat":12}
$GPGSV,4,1,13,04,23,58,39,05,10,220,40,07,63,164,45,08,27,95,41*78
$GPGSV,4,2,13,09,60,64,44,14,33,329,42,16,1,142,0,20,30,250,43*4B
$GPGSV,4,3,13,27,16,125,34,28,0,0,35,30,52,245,46,41,19,291,38*4A
$GPGSV,4,4,13,50,48,340,40*41
$GNRMC,012244.00,A,3454.4922,S,13835.7617,E,0.0,0.0,120821,,,D*51
$GNGGA,012244.00,3454.4922,S,13835.7617,E,2,12,99.0,53.3,M,-3.5,M,,*70
{"class":"TPV","status":2,"mode":3,"time":"2021-08-12T01:22:44.000Z","ept":0.005,"lat":-34.908203333,"lon":138.596028333,"altHAE":49.8000,"altMSL":53.3000,"alt":53.3000,"track":0.0000,"magtrack":7.9179,"magvar":7.9,"speed":0.000,"climb":0.000,"geoidSep":-3.500}
$GNGSA,A,3,27,9,20,5,4,30,8,7,14,,,,0.00,0.00,0.00*2A
{"class":"TPV","status":2,"mode":3,"time":"2021-08-12T01:22:44.000Z","ept":0.005,"lat":-34.908203333,"lon":138.596028333,"altHAE":49.8000,"altMSL":53.3000,"alt":53.3000,"epv":0.000,"track":0.0000,"magtrack":7.9179,"magvar":7.9,"speed":0.000,"climb":0.000,"epc":0.00,"geoidSep":-3.500,"eph":0.000,"sep":0.000}
$GNGSA,A,3,307,301,319,327,321,,,,,,,,0.00,0.00,0.00*27
{"class":"TPV","status":2,"mode":3,"time":"2021-08-12T01:22:44.000Z","ept":0.005,"lat":-34.908203333,"lon":138.596028333,"altHAE":49.8000,"altMSL":53.3000,"alt":53.3000,"epv":0.000,"track":0.0000,"magtrack":7.9179,"magvar":7.9,"speed":0.000,"climb":0.000,"epc":0.00,"geoidSep":-3.500,"eph":0.000,"sep":0.000}
{"class":"SKY","hdop":0.00,"pdop":0.00,"vdop":0.00,"uSat":12}
$GNRMC,012245.00,A,3454.4922,S,13835.7617,E,0.0,0.0,120821,,,D*50
$GNGGA,012245.00,3454.4922,S,13835.7617,E,2,12,99.0,53.3,M,-3.5,M,,*71
{"class":"TPV","status":2,"mode":3,"time":"2021-08-12T01:22:45.000Z","ept":0.005,"lat":-34.908203333,"lon":138.596028333,"altHAE":49.8000,"altMSL":53.3000,"alt":53.3000,"track":0.0000,"magtrack":7.9179,"magvar":7.9,"speed":0.000,"climb":0.000,"geoidSep":-3.500}
$GNGSA,A,3,27,9,20,5,4,30,8,7,14,,,,0.00,0.00,0.00*2A
{"class":"TPV","status":2,"mode":3,"time":"2021-08-12T01:22:45.000Z","ept":0.005,"lat":-34.908203333,"lon":138.596028333,"altHAE":49.8000,"altMSL":53.3000,"alt":53.3000,"epv":0.000,"track":0.0000,"magtrack":7.9179,"magvar":7.9,"speed":0.000,"climb":0.000,"epc":0.00,"geoidSep":-3.500,"eph":0.000,"sep":0.000}
$GNGSA,A,3,307,301,319,327,321,,,,,,,,0.00,0.00,0.00*27
{"class":"TPV","status":2,"mode":3,"time":"2021-08-12T01:22:45.000Z","ept":0.005,"lat":-34.908203333,"lon":138.596028333,"altHAE":49.8000,"altMSL":53.3000,"alt":53.3000,"epv":0.000,"track":0.0000,"magtrack":7.9179,"magvar":7.9,"speed":0.000,"climb":0.000,"epc":0.00,"geoidSep":-3.500,"eph":0.000,"sep":0.000}
{"class":"SKY","hdop":0.00,"pdop":0.00,"vdop":0.00,"uSat":12}
$GAGSV,2,1,08,301,26,315,40,304,9,225,37,307,12,45,33,318,23,75,41*53
$GAGSV,2,2,08,319,66,223,39,320,0,0,35,321,78,312,43,327,46,137,40*58
{"class":"TPV","status":2,"mode":3,"time":"2021-08-12T01:22:45.000Z","ept":0.005,"lat":-34.908203333,"lon":138.596028333,"altHAE":49.8000,"altMSL":53.3000,"alt":53.3000,"epx":4.492,"epy":6.203,"epv":0.000,"track":0.0000,"magtrack":7.9179,"magvar":7.9,"speed":0.000,"climb":0.000,"epc":0.00,"geoidSep":-3.500,"eph":0.000,"sep":0.000}
{"class":"SKY","gdop":4.18,"hdop":0.00,"pdop":0.00,"tdop":2.16,"xdop":1.20,"ydop":1.65,"vdop":0.00,"nSat":8,"uSat":5,"satellites":[{"PRN":301,"gnssid":2,"svid":1,"az":315.0,"el":26.0,"ss":40.0,"used":true},{"PRN":304,"gnssid":2,"svid":4,"az":225.0,"el":9.0,"ss":37.0,"used":false},{"PRN":307,"gnssid":2,"svid":7,"az":45.0,"el":12.0,"ss":33.0,"used":true},{"PRN":318,"gnssid":2,"svid":18,"az":75.0,"el":23.0,"ss":41.0,"used":false},{"PRN":319,"gnssid":2,"svid":19,"az":223.0,"el":66.0,"ss":39.0,"used":true},{"PRN":320,"gnssid":2,"svid":20,"az":0.0,"el":0.0,"ss":35.0,"used":false},{"PRN":321,"gnssid":2,"svid":21,"az":312.0,"el":78.0,"ss":43.0,"used":true},{"PRN":327,"gnssid":2,"svid":27,"az":137.0,"el":46.0,"ss":40.0,"used":true}]}
