$GPGLL,3908.8199,N,00023.0832,W,120824.758,A*22
{"class":"TPV","mode":2,"lat":39.146998333,"lon":-0.384720000,"magvar":0.4}
$GPGGA,120824.76,3908.8199,N,00023.0832,W,1,06,2.1,00176,M,,,,*39
{"class":"TPV","mode":3,"lat":39.146998333,"lon":-0.384720000,"altHAE":226.6600,"altMSL":176.0000,"alt":176.0000,"magvar":0.4,"geoidSep":50.660,"eph":39.900}
{"class":"SKY","hdop":2.10}
$GPRMC,120824.76,A,3908.8199,N,00023.0832,W,00.0,000.0,130305,01.,W*62
{"class":"TPV","mode":3,"time":"2024-10-27T12:08:24.760Z","ept":0.005,"lat":39.146998333,"lon":-0.384720000,"altHAE":226.6600,"altMSL":176.0000,"alt":176.0000,"track":0.0000,"magtrack":359.0000,"magvar":-1.0,"speed":0.000,"geoidSep":50.660,"eph":39.900}
$GPGSA,A,3,19,15,03,18,22,11,,,,,,,3.5,2.1,2.7*34
{"class":"TPV","mode":3,"time":"2024-10-27T12:08:24.760Z","ept":0.005,"lat":39.146998333,"lon":-0.384720000,"altHAE":226.6600,"altMSL":176.0000,"alt":176.0000,"epv":62.100,"track":0.0000,"magtrack":359.0000,"magvar":-1.0,"speed":0.000,"geoidSep":50.660,"eph":39.900,"sep":66.500}
{"class":"SKY","hdop":2.10,"pdop":3.50,"vdop":2.70}
$GPGSV,3,1,12,19,77,349,45,03,68,117,41,22,39,052,52,11,35,274,56*7E
$GPGSV,3,2,12,15,22,062,52,14,21,106,,16,10,171,,18,10,040,47*73
$GPGSV,3,3,12,01,08,146,,20,04,211,,08,02,294,,28,02,328,*70
{"class":"SKY","gdop":4.01,"hdop":2.10,"pdop":3.50,"tdop":1.99,"xdop":0.90,"ydop":2.45,"vdop":2.70,"nSat":12,"uSat":6,"satellites":[{"PRN":19,"gnssid":0,"svid":19,"az":349.0,"el":77.0,"ss":45.0,"used":true},{"PRN":3,"gnssid":0,"svid":3,"az":117.0,"el":68.0,"ss":41.0,"used":true},{"PRN":22,"gnssid":0,"svid":22,"az":52.0,"el":39.0,"ss":52.0,"used":true},{"PRN":11,"gnssid":0,"svid":11,"az":274.0,"el":35.0,"ss":56.0,"used":true},{"PRN":15,"gnssid":0,"svid":15,"az":62.0,"el":22.0,"ss":52.0,"used":true},{"PRN":14,"gnssid":0,"svid":14,"az":106.0,"el":21.0,"ss":0.0,"used":false},{"PRN":16,"gnssid":0,"svid":16,"az":171.0,"el":10.0,"ss":0.0,"used":false},{"PRN":18,"gnssid":0,"svid":18,"az":40.0,"el":10.0,"ss":47.0,"used":true},{"PRN":1,"gnssid":0,"svid":1,"az":146.0,"el":8.0,"ss":0.0,"used":false},{"PRN":20,"gnssid":0,"svid":20,"az":211.0,"el":4.0,"ss":0.0,"used":false},{"PRN":8,"gnssid":0,"svid":8,"az":294.0,"el":2.0,"ss":0.0,"used":false},{"PRN":28,"gnssid":0,"svid":28,"az":328.0,"el":2.0,"ss":0.0,"used":false}]}
$GPGLL,3908.8200,N,00023.0832,W,120827.523,A*2C
{"class":"TPV","mode":3,"time":"2024-10-27T12:08:27.523Z","ept":0.005,"lat":39.147000000,"lon":-0.384720000,"magvar":0.4,"speed":0.067,"geoidSep":50.660}
$GPGGA,120827.52,3908.8200,N,00023.0832,W,1,06,2.1,00176,M,,,,*3F
{"class":"TPV","mode":3,"time":"2024-10-27T12:08:27.520Z","ept":0.005,"lat":39.147000000,"lon":-0.384720000,"altHAE":226.6600,"altMSL":176.0000,"alt":176.0000,"magvar":0.4,"speed":0.067,"climb":0.000,"geoidSep":50.660,"eph":39.900}
{"class":"SKY","hdop":2.10}
$GPRMC,120827.52,A,3908.8200,N,00023.0832,W,00.0,000.0,130305,01.,W*64
{"class":"TPV","mode":3,"time":"2024-10-27T12:08:27.520Z","ept":0.005,"lat":39.147000000,"lon":-0.384720000,"altHAE":226.6600,"altMSL":176.0000,"alt":176.0000,"track":0.0000,"magtrack":359.0000,"magvar":-1.0,"speed":0.000,"climb":0.000,"geoidSep":50.660,"eph":39.900}
$GPGSA,A,3,19,15,03,18,22,11,,,,,,,3.5,2.1,2.7*34
{"class":"TPV","mode":3,"time":"2024-10-27T12:08:27.520Z","ept":0.005,"lat":39.147000000,"lon":-0.384720000,"altHAE":226.6600,"altMSL":176.0000,"alt":176.0000,"epv":62.100,"track":0.0000,"magtrack":359.0000,"magvar":-1.0,"speed":0.000,"climb":0.000,"epc":45.00,"geoidSep":50.660,"eph":39.900,"sep":66.500}
{"class":"SKY","hdop":2.10,"pdop":3.50,"vdop":2.70}
$GPGSV,3,1,12,19,77,349,46,03,68,117,42,22,39,052,50,11,35,274,55*7F
$GPGSV,3,2,12,15,22,062,52,14,21,106,,16,10,171,,18,10,040,49*7D
$GPGSV,3,3,12,01,08,146,,20,04,211,,08,02,294,,28,02,328,*70
{"class":"SKY","gdop":4.01,"hdop":2.10,"pdop":3.50,"tdop":1.99,"xdop":0.90,"ydop":2.45,"vdop":2.70,"nSat":12,"uSat":6,"satellites":[{"PRN":19,"gnssid":0,"svid":19,"az":349.0,"el":77.0,"ss":46.0,"used":true},{"PRN":3,"gnssid":0,"svid":3,"az":117.0,"el":68.0,"ss":42.0,"used":true},{"PRN":22,"gnssid":0,"svid":22,"az":52.0,"el":39.0,"ss":50.0,"used":true},{"PRN":11,"gnssid":0,"svid":11,"az":274.0,"el":35.0,"ss":55.0,"used":true},{"PRN":15,"gnssid":0,"svid":15,"az":62.0,"el":22.0,"ss":52.0,"used":true},{"PRN":14,"gnssid":0,"svid":14,"az":106.0,"el":21.0,"ss":0.0,"used":false},{"PRN":16,"gnssid":0,"svid":16,"az":171.0,"el":10.0,"ss":0.0,"used":false},{"PRN":18,"gnssid":0,"svid":18,"az":40.0,"el":10.0,"ss":49.0,"used":true},{"PRN":1,"gnssid":0,"svid":1,"az":146.0,"el":8.0,"ss":0.0,"used":false},{"PRN":20,"gnssid":0,"svid":20,"az":211.0,"el":4.0,"ss":0.0,"used":false},{"PRN":8,"gnssid":0,"svid":8,"az":294.0,"el":2.0,"ss":0.0,"used":false},{"PRN":28,"gnssid":0,"svid":28,"az":328.0,"el":2.0,"ss":0.0,"used":false}]}
$GPGLL,3908.8201,N,00023.0832,W,120829.500,A*22
{"class":"TPV","mode":3,"time":"2024-10-27T12:08:29.500Z","ept":0.005,"lat":39.147001667,"lon":-0.384720000,"magvar":0.4,"speed":0.093,"geoidSep":50.660}
$GPGGA,120829.50,3908.8201,N,00023.0832,W,1,06,2.1,00176,M,,,,*32
{"class":"TPV","mode":3,"time":"2024-10-27T12:08:29.500Z","ept":0.005,"lat":39.147001667,"lon":-0.384720000,"altHAE":226.6600,"altMSL":176.0000,"alt":176.0000,"magvar":0.4,"speed":0.093,"climb":0.000,"geoidSep":50.660,"eph":39.900}
{"class":"SKY","hdop":2.10}
$GPRMC,120829.50,A,3908.8201,N,00023.0832,W,00.0,000.0,130305,01.,W*69
{"class":"TPV","mode":3,"time":"2024-10-27T12:08:29.500Z","ept":0.005,"lat":39.147001667,"lon":-0.384720000,"altHAE":226.6600,"altMSL":176.0000,"alt":176.0000,"track":0.0000,"magtrack":359.0000,"magvar":-1.0,"speed":0.000,"climb":0.000,"geoidSep":50.660,"eph":39.900}
$GPGSA,A,3,19,15,03,18,22,11,,,,,,,3.5,2.1,2.7*34
{"class":"TPV","mode":3,"time":"2024-10-27T12:08:29.500Z","ept":0.005,"lat":39.147001667,"lon":-0.384720000,"altHAE":226.6600,"altMSL":176.0000,"alt":176.0000,"epv":62.100,"track":0.0000,"magtrack":359.0000,"magvar":-1.0,"speed":0.000,"climb":0.000,"epc":62.73,"geoidSep":50.660,"eph":39.900,"sep":66.500}
{"class":"SKY","hdop":2.10,"pdop":3.50,"vdop":2.70}
$GPGSV,3,1,12,19,77,349,44,03,68,117,42,22,39,052,52,11,35,274,56*7C
$GPGSV,3,2,12,15,22,062,52,14,21,106,,16,10,171,,18,10,040,47*73
$GPGSV,3,3,12,01,08,146,,20,04,211,,08,02,294,,28,02,328,*70
{"class":"SKY","gdop":4.01,"hdop":2.10,"pdop":3.50,"tdop":1.99,"xdop":0.90,"ydop":2.45,"vdop":2.70,"nSat":12,"uSat":6,"satellites":[{"PRN":19,"gnssid":0,"svid":19,"az":349.0,"el":77.0,"ss":44.0,"used":true},{"PRN":3,"gnssid":0,"svid":3,"az":117.0,"el":68.0,"ss":42.0,"used":true},{"PRN":22,"gnssid":0,"svid":22,"az":52.0,"el":39.0,"ss":52.0,"used":true},{"PRN":11,"gnssid":0,"svid":11,"az":274.0,"el":35.0,"ss":56.0,"used":true},{"PRN":15,"gnssid":0,"svid":15,"az":62.0,"el":22.0,"ss":52.0,"used":true},{"PRN":14,"gnssid":0,"svid":14,"az":106.0,"el":21.0,"ss":0.0,"used":false},{"PRN":16,"gnssid":0,"svid":16,"az":171.0,"el":10.0,"ss":0.0,"used":false},{"PRN":18,"gnssid":0,"svid":18,"az":40.0,"el":10.0,"ss":47.0,"used":true},{"PRN":1,"gnssid":0,"svid":1,"az":146.0,"el":8.0,"ss":0.0,"used":false},{"PRN":20,"gnssid":0,"svid":20,"az":211.0,"el":4.0,"ss":0.0,"used":false},{"PRN":8,"gnssid":0,"svid":8,"az":294.0,"el":2.0,"ss":0.0,"used":false},{"PRN":28,"gnssid":0,"svid":28,"az":328.0,"el":2.0,"ss":0.0,"used":false}]}
