$GPGSA,A,1,29,2,30,,,,,,,,,,3.819,3.727,0.832*01
{"class":"TPV","mode":1}
{"class":"SKY","hdop":3.73,"pdop":3.82,"vdop":0.83}
$GPGSV,5,1,19,1,5,,23,2,28,73,24,4,19,40,24,9,3,137,29*40
$GPGSV,5,2,19,12,44,85,,13,5,,,14,32,226,,15,5,,*4C
$GPGSV,5,3,19,16,5,,,17,5,,,18,5,,,19,5,,*77
$GPGSV,5,4,19,20,6,332,,21,5,,,24,4,147,,26,17,202,*72
$GPGSV,5,5,19,29,47,187,35,30,80,98,33,31,38,300,*71
{"class":"SKY","hdop":3.73,"pdop":3.82,"vdop":0.83,"nSat":19,"uSat":3,"satellites":[{"PRN":1,"gnssid":0,"svid":1,"az":0.0,"el":5.0,"ss":23.0,"used":false},{"PRN":2,"gnssid":0,"svid":2,"az":73.0,"el":28.0,"ss":24.0,"used":true},{"PRN":4,"gnssid":0,"svid":4,"az":40.0,"el":19.0,"ss":24.0,"used":false},{"PRN":9,"gnssid":0,"svid":9,"az":137.0,"el":3.0,"ss":29.0,"used":false},{"PRN":12,"gnssid":0,"svid":12,"az":85.0,"el":44.0,"ss":0.0,"used":false},{"PRN":13,"gnssid":0,"svid":13,"az":0.0,"el":5.0,"ss":0.0,"used":false},{"PRN":14,"gnssid":0,"svid":14,"az":226.0,"el":32.0,"ss":0.0,"used":false},{"PRN":15,"gnssid":0,"svid":15,"az":0.0,"el":5.0,"ss":0.0,"used":false},{"PRN":16,"gnssid":0,"svid":16,"az":0.0,"el":5.0,"ss":0.0,"used":false},{"PRN":17,"gnssid":0,"svid":17,"az":0.0,"el":5.0,"ss":0.0,"used":false},{"PRN":18,"gnssid":0,"svid":18,"az":0.0,"el":5.0,"ss":0.0,"used":false},{"PRN":19,"gnssid":0,"svid":19,"az":0.0,"el":5.0,"ss":0.0,"used":false},{"PRN":20,"gnssid":0,"svid":20,"az":332.0,"el":6.0,"ss":0.0,"used":false},{"PRN":21,"gnssid":0,"svid":21,"az":0.0,"el":5.0,"ss":0.0,"used":false},{"PRN":24,"gnssid":0,"svid":24,"az":147.0,"el":4.0,"ss":0.0,"used":false},{"PRN":26,"gnssid":0,"svid":26,"az":202.0,"el":17.0,"ss":0.0,"used":false},{"PRN":29,"gnssid":0,"svid":29,"az":187.0,"el":47.0,"ss":35.0,"used":true},{"PRN":30,"gnssid":0,"svid":30,"az":98.0,"el":80.0,"ss":33.0,"used":true},{"PRN":31,"gnssid":0,"svid":31,"az":300.0,"el":38.0,"ss":0.0,"used":false}]}
$GPGGA,105025.80,5612.9999,N,00306.7096,W,,2,60.000,160.002,M,,M,,*56
{"class":"TPV","mode":1}
{"class":"SKY","hdop":60.00,"pdop":3.82,"vdop":0.83}
$GPRMC,105025.80,V,5612.9999,N,00306.7096,W,,,081009,,W,N*05
{"class":"TPV","mode":1}
$GPGSA,A,1,29,30,,,,,,,,,,,60.000,60.000,60.000*0E
{"class":"TPV","mode":1}
{"class":"SKY","hdop":60.00,"pdop":60.00,"vdop":60.00}
$GPGSV,5,1,19,1,5,,23,2,28,73,23,4,19,40,24,9,3,137,28*46
$GPGSV,5,2,19,12,44,85,,13,5,,,14,32,226,,15,5,,*4C
$GPGSV,5,3,19,16,5,,,17,5,,,18,5,,,19,5,,*77
$GPGSV,5,4,19,20,6,332,,21,5,,,24,4,147,,26,17,202,*72
$GPGSV,5,5,19,29,47,187,35,30,80,98,33,31,38,300,*71
{"class":"SKY","hdop":60.00,"pdop":60.00,"vdop":60.00,"nSat":19,"uSat":2,"satellites":[{"PRN":1,"gnssid":0,"svid":1,"az":0.0,"el":5.0,"ss":23.0,"used":false},{"PRN":2,"gnssid":0,"svid":2,"az":73.0,"el":28.0,"ss":23.0,"used":false},{"PRN":4,"gnssid":0,"svid":4,"az":40.0,"el":19.0,"ss":24.0,"used":false},{"PRN":9,"gnssid":0,"svid":9,"az":137.0,"el":3.0,"ss":28.0,"used":false},{"PRN":12,"gnssid":0,"svid":12,"az":85.0,"el":44.0,"ss":0.0,"used":false},{"PRN":13,"gnssid":0,"svid":13,"az":0.0,"el":5.0,"ss":0.0,"used":false},{"PRN":14,"gnssid":0,"svid":14,"az":226.0,"el":32.0,"ss":0.0,"used":false},{"PRN":15,"gnssid":0,"svid":15,"az":0.0,"el":5.0,"ss":0.0,"used":false},{"PRN":16,"gnssid":0,"svid":16,"az":0.0,"el":5.0,"ss":0.0,"used":false},{"PRN":17,"gnssid":0,"svid":17,"az":0.0,"el":5.0,"ss":0.0,"used":false},{"PRN":18,"gnssid":0,"svid":18,"az":0.0,"el":5.0,"ss":0.0,"used":false},{"PRN":19,"gnssid":0,"svid":19,"az":0.0,"el":5.0,"ss":0.0,"used":false},{"PRN":20,"gnssid":0,"svid":20,"az":332.0,"el":6.0,"ss":0.0,"used":false},{"PRN":21,"gnssid":0,"svid":21,"az":0.0,"el":5.0,"ss":0.0,"used":false},{"PRN":24,"gnssid":0,"svid":24,"az":147.0,"el":4.0,"ss":0.0,"used":false},{"PRN":26,"gnssid":0,"svid":26,"az":202.0,"el":17.0,"ss":0.0,"used":false},{"PRN":29,"gnssid":0,"svid":29,"az":187.0,"el":47.0,"ss":35.0,"used":true},{"PRN":30,"gnssid":0,"svid":30,"az":98.0,"el":80.0,"ss":33.0,"used":true},{"PRN":31,"gnssid":0,"svid":31,"az":300.0,"el":38.0,"ss":0.0,"used":false}]}
$GPGGA,105026.80,5612.9999,N,00306.7096,W,,2,60.000,160.002,M,,M,,*55
{"class":"TPV","mode":1}
{"class":"SKY","hdop":60.00,"pdop":60.00,"vdop":60.00}
$GPRMC,105026.80,V,5612.9999,N,00306.7096,W,,,081009,,W,N*06
{"class":"TPV","mode":1}
$GPGSA,A,1,29,30,,,,,,,,,,,60.000,60.000,60.000*0E
{"class":"TPV","mode":1}
{"class":"SKY","hdop":60.00,"pdop":60.00,"vdop":60.00}
$GPGSV,5,1,19,1,5,,23,2,28,73,23,4,19,40,24,9,3,137,28*46
$GPGSV,5,2,19,12,44,85,,13,5,,,14,32,226,,15,5,,*4C
$GPGSV,5,3,19,16,5,,,17,5,,,18,5,,,19,5,,*77
$GPGSV,5,4,19,20,6,332,,21,5,,,24,4,147,,26,17,202,*72
$GPGSV,5,5,19,29,47,187,36,30,80,98,33,31,38,300,*72
{"class":"TPV","mode":1}
{"class":"SKY","hdop":60.00,"pdop":60.00,"vdop":60.00,"nSat":19,"uSat":2,"satellites":[{"PRN":1,"gnssid":0,"svid":1,"az":0.0,"el":5.0,"ss":23.0,"used":false},{"PRN":2,"gnssid":0,"svid":2,"az":73.0,"el":28.0,"ss":23.0,"used":false},{"PRN":4,"gnssid":0,"svid":4,"az":40.0,"el":19.0,"ss":24.0,"used":false},{"PRN":9,"gnssid":0,"svid":9,"az":137.0,"el":3.0,"ss":28.0,"used":false},{"PRN":12,"gnssid":0,"svid":12,"az":85.0,"el":44.0,"ss":0.0,"used":false},{"PRN":13,"gnssid":0,"svid":13,"az":0.0,"el":5.0,"ss":0.0,"used":false},{"PRN":14,"gnssid":0,"svid":14,"az":226.0,"el":32.0,"ss":0.0,"used":false},{"PRN":15,"gnssid":0,"svid":15,"az":0.0,"el":5.0,"ss":0.0,"used":false},{"PRN":16,"gnssid":0,"svid":16,"az":0.0,"el":5.0,"ss":0.0,"used":false},{"PRN":17,"gnssid":0,"svid":17,"az":0.0,"el":5.0,"ss":0.0,"used":false},{"PRN":18,"gnssid":0,"svid":18,"az":0.0,"el":5.0,"ss":0.0,"used":false},{"PRN":19,"gnssid":0,"svid":19,"az":0.0,"el":5.0,"ss":0.0,"used":false},{"PRN":20,"gnssid":0,"svid":20,"az":332.0,"el":6.0,"ss":0.0,"used":false},{"PRN":21,"gnssid":0,"svid":21,"az":0.0,"el":5.0,"ss":0.0,"used":false},{"PRN":24,"gnssid":0,"svid":24,"az":147.0,"el":4.0,"ss":0.0,"used":false},{"PRN":26,"gnssid":0,"svid":26,"az":202.0,"el":17.0,"ss":0.0,"used":false},{"PRN":29,"gnssid":0,"svid":29,"az":187.0,"el":47.0,"ss":36.0,"used":true},{"PRN":30,"gnssid":0,"svid":30,"az":98.0,"el":80.0,"ss":33.0,"used":true},{"PRN":31,"gnssid":0,"svid":31,"az":300.0,"el":38.0,"ss":0.0,"used":false}]}
$GPGGA,105027.80,5612.9956,N,00306.6983,W,,3,2.506,160.002,M,,M,,*6D
{"class":"TPV","mode":2,"lat":56.216593333,"lon":-3.111638333,"altHAE":212.1899,"altMSL":160.0020,"alt":160.0020,"magvar":-1.9,"eph":47.614,"sep":1140.000}
{"class":"SKY","hdop":2.51,"pdop":60.00,"vdop":60.00}
$GPRMC,105027.80,V,5612.9956,N,00306.6983,W,,,081009,,W,N*08
{"class":"TPV","mode":1}
$GPGSA,A,1,29,30,9,,,,,,,,,,2.597,2.506,0.681*06
{"class":"TPV","mode":1}
{"class":"SKY","hdop":2.51,"pdop":2.60,"vdop":0.68}
$GPGSV,5,1,19,1,5,,23,2,28,73,22,4,19,40,24,9,3,137,28*47
$GPGSV,5,2,19,12,44,85,,13,5,,,14,32,226,,15,5,,*4C
$GPGSV,5,3,19,16,5,,,17,5,,,18,5,,,19,5,,*77
$GPGSV,5,4,19,20,6,332,,21,5,,,24,4,147,,26,17,202,*72
$GPGSV,5,5,19,29,47,187,36,30,80,98,33,31,38,300,*72
{"class":"TPV","mode":1}
{"class":"SKY","hdop":2.51,"pdop":2.60,"vdop":0.68,"nSat":19,"uSat":3,"satellites":[{"PRN":1,"gnssid":0,"svid":1,"az":0.0,"el":5.0,"ss":23.0,"used":false},{"PRN":2,"gnssid":0,"svid":2,"az":73.0,"el":28.0,"ss":22.0,"used":false},{"PRN":4,"gnssid":0,"svid":4,"az":40.0,"el":19.0,"ss":24.0,"used":false},{"PRN":9,"gnssid":0,"svid":9,"az":137.0,"el":3.0,"ss":28.0,"used":true},{"PRN":12,"gnssid":0,"svid":12,"az":85.0,"el":44.0,"ss":0.0,"used":false},{"PRN":13,"gnssid":0,"svid":13,"az":0.0,"el":5.0,"ss":0.0,"used":false},{"PRN":14,"gnssid":0,"svid":14,"az":226.0,"el":32.0,"ss":0.0,"used":false},{"PRN":15,"gnssid":0,"svid":15,"az":0.0,"el":5.0,"ss":0.0,"used":false},{"PRN":16,"gnssid":0,"svid":16,"az":0.0,"el":5.0,"ss":0.0,"used":false},{"PRN":17,"gnssid":0,"svid":17,"az":0.0,"el":5.0,"ss":0.0,"used":false},{"PRN":18,"gnssid":0,"svid":18,"az":0.0,"el":5.0,"ss":0.0,"used":false},{"PRN":19,"gnssid":0,"svid":19,"az":0.0,"el":5.0,"ss":0.0,"used":false},{"PRN":20,"gnssid":0,"svid":20,"az":332.0,"el":6.0,"ss":0.0,"used":false},{"PRN":21,"gnssid":0,"svid":21,"az":0.0,"el":5.0,"ss":0.0,"used":false},{"PRN":24,"gnssid":0,"svid":24,"az":147.0,"el":4.0,"ss":0.0,"used":false},{"PRN":26,"gnssid":0,"svid":26,"az":202.0,"el":17.0,"ss":0.0,"used":false},{"PRN":29,"gnssid":0,"svid":29,"az":187.0,"el":47.0,"ss":36.0,"used":true},{"PRN":30,"gnssid":0,"svid":30,"az":98.0,"el":80.0,"ss":33.0,"used":true},{"PRN":31,"gnssid":0,"svid":31,"az":300.0,"el":38.0,"ss":0.0,"used":false}]}
$GPGGA,105028.80,5612.9948,N,00306.7136,W,,3,2.506,160.002,M,,M,,*6A
{"class":"TPV","mode":2,"lat":56.216580000,"lon":-3.111893333,"altHAE":212.1903,"altMSL":160.0020,"alt":160.0020,"magvar":-1.9,"eph":47.614,"sep":49.343}
{"class":"SKY","hdop":2.51,"pdop":2.60,"vdop":0.68}
$GPRMC,105028.80,V,5612.9948,N,00306.7136,W,,,081009,,W,N*0F
{"class":"TPV","mode":1}
$GPGSA,A,1,29,30,9,,,,,,,,,,2.597,2.506,0.681*06
{"class":"TPV","mode":1}
{"class":"SKY","hdop":2.51,"pdop":2.60,"vdop":0.68}
$GPGSV,5,1,19,1,5,,22,2,28,73,24,4,19,40,25,9,3,137,28*41
$GPGSV,5,2,19,12,44,85,,13,5,,,14,32,226,,15,5,,*4C
$GPGSV,5,3,19,16,5,,,17,5,,,18,5,,,19,5,,*77
$GPGSV,5,4,19,20,6,332,,21,5,,,24,4,147,,26,17,202,*72
$GPGSV,5,5,19,29,47,187,36,30,80,98,33,31,38,300,*72
{"class":"TPV","mode":1}
{"class":"SKY","hdop":2.51,"pdop":2.60,"vdop":0.68,"nSat":19,"uSat":3,"satellites":[{"PRN":1,"gnssid":0,"svid":1,"az":0.0,"el":5.0,"ss":22.0,"used":false},{"PRN":2,"gnssid":0,"svid":2,"az":73.0,"el":28.0,"ss":24.0,"used":false},{"PRN":4,"gnssid":0,"svid":4,"az":40.0,"el":19.0,"ss":25.0,"used":false},{"PRN":9,"gnssid":0,"svid":9,"az":137.0,"el":3.0,"ss":28.0,"used":true},{"PRN":12,"gnssid":0,"svid":12,"az":85.0,"el":44.0,"ss":0.0,"used":false},{"PRN":13,"gnssid":0,"svid":13,"az":0.0,"el":5.0,"ss":0.0,"used":false},{"PRN":14,"gnssid":0,"svid":14,"az":226.0,"el":32.0,"ss":0.0,"used":false},{"PRN":15,"gnssid":0,"svid":15,"az":0.0,"el":5.0,"ss":0.0,"used":false},{"PRN":16,"gnssid":0,"svid":16,"az":0.0,"el":5.0,"ss":0.0,"used":false},{"PRN":17,"gnssid":0,"svid":17,"az":0.0,"el":5.0,"ss":0.0,"used":false},{"PRN":18,"gnssid":0,"svid":18,"az":0.0,"el":5.0,"ss":0.0,"used":false},{"PRN":19,"gnssid":0,"svid":19,"az":0.0,"el":5.0,"ss":0.0,"used":false},{"PRN":20,"gnssid":0,"svid":20,"az":332.0,"el":6.0,"ss":0.0,"used":false},{"PRN":21,"gnssid":0,"svid":21,"az":0.0,"el":5.0,"ss":0.0,"used":false},{"PRN":24,"gnssid":0,"svid":24,"az":147.0,"el":4.0,"ss":0.0,"used":false},{"PRN":26,"gnssid":0,"svid":26,"az":202.0,"el":17.0,"ss":0.0,"used":false},{"PRN":29,"gnssid":0,"svid":29,"az":187.0,"el":47.0,"ss":36.0,"used":true},{"PRN":30,"gnssid":0,"svid":30,"az":98.0,"el":80.0,"ss":33.0,"used":true},{"PRN":31,"gnssid":0,"svid":31,"az":300.0,"el":38.0,"ss":0.0,"used":false}]}
$GPGGA,105029.80,5612.9978,N,00306.7359,W,1,4,17.516,159.072,M,,M,,*6D
{"class":"TPV","mode":3,"lat":56.216630000,"lon":-3.112265000,"altHAE":211.2609,"altMSL":159.0720,"alt":159.0720,"epv":15.663,"magvar":-1.9,"geoidSep":52.189,"eph":332.804,"sep":49.343}
{"class":"SKY","hdop":17.52,"pdop":2.60,"vdop":0.68}
$GPRMC,105029.80,A,5612.9978,N,00306.7359,W,0.174,318.057,081009,,W,A*14
$GPGSA,A,3,29,2,30,9,,,,,,,,,23.570,17.516,15.771*03
{"class":"SKY","hdop":17.52,"pdop":23.57,"vdop":15.77}
$GPGSV,5,1,19,1,5,,23,2,28,73,25,3,5,,,4,19,40,24*73
$GPGSV,5,2,19,5,5,,,9,3,137,27,12,44,85,,14,32,226,*70
$GPGSV,5,3,19,20,6,332,,22,5,,,23,5,,,24,4,147,*70
$GPGSV,5,4,19,25,5,,,26,17,202,,27,5,,,28,5,,*7F
$GPGSV,5,5,19,29,47,187,35,30,80,98,33,31,38,300,*71
{"class":"SKY","gdop":27.74,"hdop":17.52,"pdop":23.57,"tdop":16.55,"xdop":13.71,"ydop":9.36,"vdop":15.77,"nSat":19,"uSat":4,"satellites":[{"PRN":1,"gnssid":0,"svid":1,"az":0.0,"el":5.0,"ss":23.0,"used":false},{"PRN":2,"gnssid":0,"svid":2,"az":73.0,"el":28.0,"ss":25.0,"used":true},{"PRN":3,"gnssid":0,"svid":3,"az":0.0,"el":5.0,"ss":0.0,"used":false},{"PRN":4,"gnssid":0,"svid":4,"az":40.0,"el":19.0,"ss":24.0,"used":false},{"PRN":5,"gnssid":0,"svid":5,"az":0.0,"el":5.0,"ss":0.0,"used":false},{"PRN":9,"gnssid":0,"svid":9,"az":137.0,"el":3.0,"ss":27.0,"used":true},{"PRN":12,"gnssid":0,"svid":12,"az":85.0,"el":44.0,"ss":0.0,"used":false},{"PRN":14,"gnssid":0,"svid":14,"az":226.0,"el":32.0,"ss":0.0,"used":false},{"PRN":20,"gnssid":0,"svid":20,"az":332.0,"el":6.0,"ss":0.0,"used":false},{"PRN":22,"gnssid":0,"svid":22,"az":0.0,"el":5.0,"ss":0.0,"used":false},{"PRN":23,"gnssid":0,"svid":23,"az":0.0,"el":5.0,"ss":0.0,"used":false},{"PRN":24,"gnssid":0,"svid":24,"az":147.0,"el":4.0,"ss":0.0,"used":false},{"PRN":25,"gnssid":0,"svid":25,"az":0.0,"el":5.0,"ss":0.0,"used":false},{"PRN":26,"gnssid":0,"svid":26,"az":202.0,"el":17.0,"ss":0.0,"used":false},{"PRN":27,"gnssid":0,"svid":27,"az":0.0,"el":5.0,"ss":0.0,"used":false},{"PRN":28,"gnssid":0,"svid":28,"az":0.0,"el":5.0,"ss":0.0,"used":false},{"PRN":29,"gnssid":0,"svid":29,"az":187.0,"el":47.0,"ss":35.0,"used":true},{"PRN":30,"gnssid":0,"svid":30,"az":98.0,"el":80.0,"ss":33.0,"used":true},{"PRN":31,"gnssid":0,"svid":31,"az":300.0,"el":38.0,"ss":0.0,"used":false}]}
$GPGGA,105030.80,5612.9978,N,00306.7310,W,1,4,17.510,159.050,M,,M,,*6E
{"class":"TPV","mode":3,"time":"2029-05-24T10:50:30.800Z","ept":0.005,"lat":56.216630000,"lon":-3.112183333,"altHAE":211.2388,"altMSL":159.0500,"alt":159.0500,"epx":205.670,"epy":140.422,"epv":362.733,"magvar":-1.9,"speed":5.067,"climb":-0.022,"eps":411.34,"epc":378.40,"geoidSep":52.189,"eph":332.690,"sep":447.830}
{"class":"SKY","gdop":27.74,"hdop":17.51,"pdop":23.57,"tdop":16.55,"xdop":13.71,"ydop":9.36,"vdop":15.77}
$GPRMC,105030.80,A,5612.9978,N,00306.7310,W,0.265,127.668,081009,,W,A*16
{"class":"TPV","mode":3,"time":"2029-05-24T10:50:30.800Z","ept":0.005,"lat":56.216630000,"lon":-3.112183333,"altHAE":211.2388,"altMSL":159.0500,"alt":159.0500,"epx":205.670,"epy":140.422,"epv":362.733,"track":127.6680,"magtrack":125.7562,"magvar":-1.9,"speed":0.136,"climb":-0.022,"eps":411.34,"epc":378.40,"geoidSep":52.189,"eph":332.690,"sep":447.830}
$GPGSA,A,3,29,2,30,9,,,,,,,,,23.559,17.510,15.762*0C
{"class":"TPV","mode":3,"time":"2029-05-24T10:50:30.800Z","ept":0.005,"lat":56.216630000,"lon":-3.112183333,"altHAE":211.2388,"altMSL":159.0500,"alt":159.0500,"epx":205.670,"epy":140.422,"epv":362.733,"track":127.6680,"magtrack":125.7562,"magvar":-1.9,"speed":0.136,"climb":-0.022,"eps":411.34,"epc":378.40,"geoidSep":52.189,"eph":332.690,"sep":447.830}
{"class":"SKY","gdop":27.74,"hdop":17.51,"pdop":23.56,"tdop":16.55,"xdop":13.71,"ydop":9.36,"vdop":15.76}
$GPGSV,5,1,19,1,5,,23,2,28,73,25,3,5,,,4,19,40,24*73
$GPGSV,5,2,19,5,5,,,9,3,137,27,12,44,85,,14,32,226,*70
$GPGSV,5,3,19,20,6,332,,22,5,,,23,5,,,24,4,147,*70
$GPGSV,5,4,19,25,5,,,26,17,202,,27,5,,,28,5,,*7F
$GPGSV,5,5,19,29,47,187,35,30,80,98,34,31,38,300,*76
{"class":"TPV","mode":3,"time":"2029-05-24T10:50:30.800Z","ept":0.005,"lat":56.216630000,"lon":-3.112183333,"altHAE":211.2388,"altMSL":159.0500,"alt":159.0500,"epx":205.670,"epy":140.422,"epv":362.733,"track":127.6680,"magtrack":125.7562,"magvar":-1.9,"speed":0.136,"climb":-0.022,"eps":411.34,"epc":378.40,"geoidSep":52.189,"eph":332.690,"sep":447.830}
{"class":"SKY","gdop":27.74,"hdop":17.51,"pdop":23.56,"tdop":16.55,"xdop":13.71,"ydop":9.36,"vdop":15.76,"nSat":19,"uSat":4,"satellites":[{"PRN":1,"gnssid":0,"svid":1,"az":0.0,"el":5.0,"ss":23.0,"used":false},{"PRN":2,"gnssid":0,"svid":2,"az":73.0,"el":28.0,"ss":25.0,"used":true},{"PRN":3,"gnssid":0,"svid":3,"az":0.0,"el":5.0,"ss":0.0,"used":false},{"PRN":4,"gnssid":0,"svid":4,"az":40.0,"el":19.0,"ss":24.0,"used":false},{"PRN":5,"gnssid":0,"svid":5,"az":0.0,"el":5.0,"ss":0.0,"used":false},{"PRN":9,"gnssid":0,"svid":9,"az":137.0,"el":3.0,"ss":27.0,"used":true},{"PRN":12,"gnssid":0,"svid":12,"az":85.0,"el":44.0,"ss":0.0,"used":false},{"PRN":14,"gnssid":0,"svid":14,"az":226.0,"el":32.0,"ss":0.0,"used":false},{"PRN":20,"gnssid":0,"svid":20,"az":332.0,"el":6.0,"ss":0.0,"used":false},{"PRN":22,"gnssid":0,"svid":22,"az":0.0,"el":5.0,"ss":0.0,"used":false},{"PRN":23,"gnssid":0,"svid":23,"az":0.0,"el":5.0,"ss":0.0,"used":false},{"PRN":24,"gnssid":0,"svid":24,"az":147.0,"el":4.0,"ss":0.0,"used":false},{"PRN":25,"gnssid":0,"svid":25,"az":0.0,"el":5.0,"ss":0.0,"used":false},{"PRN":26,"gnssid":0,"svid":26,"az":202.0,"el":17.0,"ss":0.0,"used":false},{"PRN":27,"gnssid":0,"svid":27,"az":0.0,"el":5.0,"ss":0.0,"used":false},{"PRN":28,"gnssid":0,"svid":28,"az":0.0,"el":5.0,"ss":0.0,"used":false},{"PRN":29,"gnssid":0,"svid":29,"az":187.0,"el":47.0,"ss":35.0,"used":true},{"PRN":30,"gnssid":0,"svid":30,"az":98.0,"el":80.0,"ss":34.0,"used":true},{"PRN":31,"gnssid":0,"svid":31,"az":300.0,"el":38.0,"ss":0.0,"used":false}]}
$GPGGA,105031.80,5612.9969,N,00306.7273,W,1,4,17.504,159.024,M,,M,,*6D
{"class":"TPV","mode":3,"time":"2029-05-24T10:50:31.800Z","ept":0.005,"lat":56.216615000,"lon":-3.112121667,"altHAE":211.2127,"altMSL":159.0240,"alt":159.0240,"epx":205.670,"epy":140.422,"epv":362.526,"magvar":-1.9,"speed":4.175,"climb":-0.026,"eps":411.34,"epc":725.26,"geoidSep":52.189,"eph":332.576,"sep":447.621}
{"class":"SKY","gdop":27.74,"hdop":17.50,"pdop":23.56,"tdop":16.55,"xdop":13.71,"ydop":9.36,"vdop":15.76}
$GPRMC,105031.80,A,5612.9969,N,00306.7273,W,0.374,132.018,081009,,W,A*17
{"class":"TPV","mode":3,"time":"2029-05-24T10:50:31.800Z","ept":0.005,"lat":56.216615000,"lon":-3.112121667,"altHAE":211.2127,"altMSL":159.0240,"alt":159.0240,"epx":205.670,"epy":140.422,"epv":362.526,"track":132.0180,"magtrack":130.1063,"magvar":-1.9,"speed":0.192,"climb":-0.026,"eps":411.34,"epc":725.26,"geoidSep":52.189,"eph":332.576,"sep":447.621}
$GPGSA,A,3,29,2,30,9,,,,,,,,,23.548,17.504,15.752*0A
{"class":"TPV","mode":3,"time":"2029-05-24T10:50:31.800Z","ept":0.005,"lat":56.216615000,"lon":-3.112121667,"altHAE":211.2127,"altMSL":159.0240,"alt":159.0240,"epx":205.670,"epy":140.422,"epv":362.526,"track":132.0180,"magtrack":130.1063,"magvar":-1.9,"speed":0.192,"climb":-0.026,"eps":411.34,"epc":725.26,"geoidSep":52.189,"eph":332.576,"sep":447.621}
{"class":"SKY","gdop":27.74,"hdop":17.50,"pdop":23.55,"tdop":16.55,"xdop":13.71,"ydop":9.36,"vdop":15.75}
$GPGSV,5,1,19,1,5,,25,2,28,73,24,3,5,,,4,19,40,23*73
$GPGSV,5,2,19,5,5,,,9,3,137,27,12,44,85,,14,32,226,*70
$GPGSV,5,3,19,20,6,332,,22,5,,,23,5,,,24,4,147,*70
$GPGSV,5,4,19,25,5,,,26,17,202,,27,5,,,28,5,,*7F
$GPGSV,5,5,19,29,47,187,35,30,80,98,34,31,38,300,*76
{"class":"TPV","mode":3,"time":"2029-05-24T10:50:31.800Z","ept":0.005,"lat":56.216615000,"lon":-3.112121667,"altHAE":211.2127,"altMSL":159.0240,"alt":159.0240,"epx":205.670,"epy":140.422,"epv":362.526,"track":132.0180,"magtrack":130.1063,"magvar":-1.9,"speed":0.192,"climb":-0.026,"eps":411.34,"epc":725.26,"geoidSep":52.189,"eph":332.576,"sep":447.621}
{"class":"SKY","gdop":27.74,"hdop":17.50,"pdop":23.55,"tdop":16.55,"xdop":13.71,"ydop":9.36,"vdop":15.75,"nSat":19,"uSat":4,"satellites":[{"PRN":1,"gnssid":0,"svid":1,"az":0.0,"el":5.0,"ss":25.0,"used":false},{"PRN":2,"gnssid":0,"svid":2,"az":73.0,"el":28.0,"ss":24.0,"used":true},{"PRN":3,"gnssid":0,"svid":3,"az":0.0,"el":5.0,"ss":0.0,"used":false},{"PRN":4,"gnssid":0,"svid":4,"az":40.0,"el":19.0,"ss":23.0,"used":false},{"PRN":5,"gnssid":0,"svid":5,"az":0.0,"el":5.0,"ss":0.0,"used":false},{"PRN":9,"gnssid":0,"svid":9,"az":137.0,"el":3.0,"ss":27.0,"used":true},{"PRN":12,"gnssid":0,"svid":12,"az":85.0,"el":44.0,"ss":0.0,"used":false},{"PRN":14,"gnssid":0,"svid":14,"az":226.0,"el":32.0,"ss":0.0,"used":false},{"PRN":20,"gnssid":0,"svid":20,"az":332.0,"el":6.0,"ss":0.0,"used":false},{"PRN":22,"gnssid":0,"svid":22,"az":0.0,"el":5.0,"ss":0.0,"used":false},{"PRN":23,"gnssid":0,"svid":23,"az":0.0,"el":5.0,"ss":0.0,"used":false},{"PRN":24,"gnssid":0,"svid":24,"az":147.0,"el":4.0,"ss":0.0,"used":false},{"PRN":25,"gnssid":0,"svid":25,"az":0.0,"el":5.0,"ss":0.0,"used":false},{"PRN":26,"gnssid":0,"svid":26,"az":202.0,"el":17.0,"ss":0.0,"used":false},{"PRN":27,"gnssid":0,"svid":27,"az":0.0,"el":5.0,"ss":0.0,"used":false},{"PRN":28,"gnssid":0,"svid":28,"az":0.0,"el":5.0,"ss":0.0,"used":false},{"PRN":29,"gnssid":0,"svid":29,"az":187.0,"el":47.0,"ss":35.0,"used":true},{"PRN":30,"gnssid":0,"svid":30,"az":98.0,"el":80.0,"ss":34.0,"used":true},{"PRN":31,"gnssid":0,"svid":31,"az":300.0,"el":38.0,"ss":0.0,"used":false}]}
$GPGGA,105032.80,5612.9977,N,00306.7212,W,1,4,17.498,158.985,M,,M,,*61
{"class":"TPV","mode":3,"time":"2029-05-24T10:50:32.800Z","ept":0.005,"lat":56.216628333,"lon":-3.112020000,"altHAE":211.1735,"altMSL":158.9850,"alt":158.9850,"epx":205.670,"epy":140.422,"epv":362.296,"magvar":-1.9,"speed":6.480,"climb":-0.039,"eps":411.34,"epc":724.82,"geoidSep":52.189,"eph":332.462,"sep":447.412}
{"class":"SKY","gdop":27.74,"hdop":17.50,"pdop":23.55,"tdop":16.55,"xdop":13.71,"ydop":9.36,"vdop":15.75}
$GPRMC,105032.80,A,5612.9977,N,00306.7212,W,0.501,133.315,081009,,W,A*17
{"class":"TPV","mode":3,"time":"2029-05-24T10:50:32.800Z","ept":0.005,"lat":56.216628333,"lon":-3.112020000,"altHAE":211.1735,"altMSL":158.9850,"alt":158.9850,"epx":205.670,"epy":140.422,"epv":362.296,"track":133.3150,"magtrack":131.4033,"magvar":-1.9,"speed":0.258,"climb":-0.039,"eps":411.34,"epc":724.82,"geoidSep":52.189,"eph":332.462,"sep":447.412}
$GPGSA,A,3,29,2,30,9,,,,,,,,,23.537,17.498,15.743*06
{"class":"TPV","mode":3,"time":"2029-05-24T10:50:32.800Z","ept":0.005,"lat":56.216628333,"lon":-3.112020000,"altHAE":211.1735,"altMSL":158.9850,"alt":158.9850,"epx":205.670,"epy":140.422,"epv":362.296,"track":133.3150,"magtrack":131.4033,"magvar":-1.9,"speed":0.258,"climb":-0.039,"eps":411.34,"epc":724.82,"geoidSep":52.189,"eph":332.462,"sep":447.412}
{"class":"SKY","gdop":27.74,"hdop":17.50,"pdop":23.54,"tdop":16.55,"xdop":13.71,"ydop":9.36,"vdop":15.74}
$GPGSV,5,1,19,1,5,,25,2,28,73,24,3,5,,,4,19,40,23*73
$GPGSV,5,2,19,5,5,,,9,3,137,26,12,44,85,,14,32,226,*71
$GPGSV,5,3,19,20,6,332,,22,5,,,23,5,,,24,4,147,*70
$GPGSV,5,4,19,25,5,,,26,17,202,,27,5,,,28,5,,*7F
$GPGSV,5,5,19,29,47,187,35,30,80,98,33,31,38,300,*71
{"class":"TPV","mode":3,"time":"2029-05-24T10:50:32.800Z","ept":0.005,"lat":56.216628333,"lon":-3.112020000,"altHAE":211.1735,"altMSL":158.9850,"alt":158.9850,"epx":205.670,"epy":140.422,"epv":362.296,"track":133.3150,"magtrack":131.4033,"magvar":-1.9,"speed":0.258,"climb":-0.039,"eps":411.34,"epc":724.82,"geoidSep":52.189,"eph":332.462,"sep":447.412}
{"class":"SKY","gdop":27.74,"hdop":17.50,"pdop":23.54,"tdop":16.55,"xdop":13.71,"ydop":9.36,"vdop":15.74,"nSat":19,"uSat":4,"satellites":[{"PRN":1,"gnssid":0,"svid":1,"az":0.0,"el":5.0,"ss":25.0,"used":false},{"PRN":2,"gnssid":0,"svid":2,"az":73.0,"el":28.0,"ss":24.0,"used":true},{"PRN":3,"gnssid":0,"svid":3,"az":0.0,"el":5.0,"ss":0.0,"used":false},{"PRN":4,"gnssid":0,"svid":4,"az":40.0,"el":19.0,"ss":23.0,"used":false},{"PRN":5,"gnssid":0,"svid":5,"az":0.0,"el":5.0,"ss":0.0,"used":false},{"PRN":9,"gnssid":0,"svid":9,"az":137.0,"el":3.0,"ss":26.0,"used":true},{"PRN":12,"gnssid":0,"svid":12,"az":85.0,"el":44.0,"ss":0.0,"used":false},{"PRN":14,"gnssid":0,"svid":14,"az":226.0,"el":32.0,"ss":0.0,"used":false},{"PRN":20,"gnssid":0,"svid":20,"az":332.0,"el":6.0,"ss":0.0,"used":false},{"PRN":22,"gnssid":0,"svid":22,"az":0.0,"el":5.0,"ss":0.0,"used":false},{"PRN":23,"gnssid":0,"svid":23,"az":0.0,"el":5.0,"ss":0.0,"used":false},{"PRN":24,"gnssid":0,"svid":24,"az":147.0,"el":4.0,"ss":0.0,"used":false},{"PRN":25,"gnssid":0,"svid":25,"az":0.0,"el":5.0,"ss":0.0,"used":false},{"PRN":26,"gnssid":0,"svid":26,"az":202.0,"el":17.0,"ss":0.0,"used":false},{"PRN":27,"gnssid":0,"svid":27,"az":0.0,"el":5.0,"ss":0.0,"used":false},{"PRN":28,"gnssid":0,"svid":28,"az":0.0,"el":5.0,"ss":0.0,"used":false},{"PRN":29,"gnssid":0,"svid":29,"az":187.0,"el":47.0,"ss":35.0,"used":true},{"PRN":30,"gnssid":0,"svid":30,"az":98.0,"el":80.0,"ss":33.0,"used":true},{"PRN":31,"gnssid":0,"svid":31,"az":300.0,"el":38.0,"ss":0.0,"used":false}]}
$GPGGA,105033.80,5612.9975,N,00306.7206,W,1,4,17.491,158.982,M,,M,,*69
{"class":"TPV","mode":3,"time":"2029-05-24T10:50:33.800Z","ept":0.005,"lat":56.216625000,"lon":-3.112010000,"altHAE":211.1705,"altMSL":158.9820,"alt":158.9820,"epx":205.670,"epy":140.422,"epv":362.089,"magvar":-1.9,"speed":0.723,"climb":-0.003,"eps":411.34,"epc":724.38,"geoidSep":52.189,"eph":332.329,"sep":447.203}
{"class":"SKY","gdop":27.74,"hdop":17.49,"pdop":23.54,"tdop":16.55,"xdop":13.71,"ydop":9.36,"vdop":15.74}
$GPRMC,105033.80,A,5612.9975,N,00306.7206,W,0.695,131.210,081009,,W,A*19
{"class":"TPV","mode":3,"time":"2029-05-24T10:50:33.800Z","ept":0.005,"lat":56.216625000,"lon":-3.112010000,"altHAE":211.1705,"altMSL":158.9820,"alt":158.9820,"epx":205.670,"epy":140.422,"epv":362.089,"track":131.2100,"magtrack":129.2983,"magvar":-1.9,"speed":0.358,"climb":-0.003,"eps":411.34,"epc":724.38,"geoidSep":52.189,"eph":332.329,"sep":447.203}
$GPGSA,A,3,29,2,30,9,,,,,,,,,23.527,17.491,15.734*0E
{"class":"TPV","mode":3,"time":"2029-05-24T10:50:33.800Z","ept":0.005,"lat":56.216625000,"lon":-3.112010000,"altHAE":211.1705,"altMSL":158.9820,"alt":158.9820,"epx":205.670,"epy":140.422,"epv":362.089,"track":131.2100,"magtrack":129.2983,"magvar":-1.9,"speed":0.358,"climb":-0.003,"eps":411.34,"epc":724.38,"geoidSep":52.189,"eph":332.329,"sep":447.203}
{"class":"SKY","gdop":27.74,"hdop":17.49,"pdop":23.53,"tdop":16.55,"xdop":13.71,"ydop":9.36,"vdop":15.73}
$GPGSV,5,1,19,1,5,,25,2,28,73,24,3,5,,,4,19,40,24*74
$GPGSV,5,2,19,5,5,,,9,3,137,26,12,44,85,,14,32,226,*71
$GPGSV,5,3,19,20,6,332,,22,5,,,23,5,,,24,4,147,*70
$GPGSV,5,4,19,25,5,,,26,17,202,,27,5,,,28,5,,*7F
$GPGSV,5,5,19,29,47,187,35,30,80,98,33,31,38,300,*71
{"class":"TPV","mode":3,"time":"2029-05-24T10:50:33.800Z","ept":0.005,"lat":56.216625000,"lon":-3.112010000,"altHAE":211.1705,"altMSL":158.9820,"alt":158.9820,"epx":205.670,"epy":140.422,"epv":362.089,"track":131.2100,"magtrack":129.2983,"magvar":-1.9,"speed":0.358,"climb":-0.003,"eps":411.34,"epc":724.38,"geoidSep":52.189,"eph":332.329,"sep":447.203}
{"class":"SKY","gdop":27.74,"hdop":17.49,"pdop":23.53,"tdop":16.55,"xdop":13.71,"ydop":9.36,"vdop":15.73,"nSat":19,"uSat":4,"satellites":[{"PRN":1,"gnssid":0,"svid":1,"az":0.0,"el":5.0,"ss":25.0,"used":false},{"PRN":2,"gnssid":0,"svid":2,"az":73.0,"el":28.0,"ss":24.0,"used":true},{"PRN":3,"gnssid":0,"svid":3,"az":0.0,"el":5.0,"ss":0.0,"used":false},{"PRN":4,"gnssid":0,"svid":4,"az":40.0,"el":19.0,"ss":24.0,"used":false},{"PRN":5,"gnssid":0,"svid":5,"az":0.0,"el":5.0,"ss":0.0,"used":false},{"PRN":9,"gnssid":0,"svid":9,"az":137.0,"el":3.0,"ss":26.0,"used":true},{"PRN":12,"gnssid":0,"svid":12,"az":85.0,"el":44.0,"ss":0.0,"used":false},{"PRN":14,"gnssid":0,"svid":14,"az":226.0,"el":32.0,"ss":0.0,"used":false},{"PRN":20,"gnssid":0,"svid":20,"az":332.0,"el":6.0,"ss":0.0,"used":false},{"PRN":22,"gnssid":0,"svid":22,"az":0.0,"el":5.0,"ss":0.0,"used":false},{"PRN":23,"gnssid":0,"svid":23,"az":0.0,"el":5.0,"ss":0.0,"used":false},{"PRN":24,"gnssid":0,"svid":24,"az":147.0,"el":4.0,"ss":0.0,"used":false},{"PRN":25,"gnssid":0,"svid":25,"az":0.0,"el":5.0,"ss":0.0,"used":false},{"PRN":26,"gnssid":0,"svid":26,"az":202.0,"el":17.0,"ss":0.0,"used":false},{"PRN":27,"gnssid":0,"svid":27,"az":0.0,"el":5.0,"ss":0.0,"used":false},{"PRN":28,"gnssid":0,"svid":28,"az":0.0,"el":5.0,"ss":0.0,"used":false},{"PRN":29,"gnssid":0,"svid":29,"az":187.0,"el":47.0,"ss":35.0,"used":true},{"PRN":30,"gnssid":0,"svid":30,"az":98.0,"el":80.0,"ss":33.0,"used":true},{"PRN":31,"gnssid":0,"svid":31,"az":300.0,"el":38.0,"ss":0.0,"used":false}]}
$GPGGA,105034.80,5612.9972,N,00306.7198,W,1,4,17.485,159.022,M,,M,,*6A
{"class":"TPV","mode":3,"time":"2029-05-24T10:50:34.800Z","ept":0.005,"lat":56.216620000,"lon":-3.111996667,"altHAE":211.2105,"altMSL":159.0220,"alt":159.0220,"epx":205.670,"epy":140.422,"epv":361.882,"magvar":-1.9,"speed":0.997,"climb":0.040,"eps":411.34,"epc":723.97,"geoidSep":52.188,"eph":332.215,"sep":447.013}
{"class":"SKY","gdop":27.74,"hdop":17.48,"pdop":23.53,"tdop":16.55,"xdop":13.71,"ydop":9.36,"vdop":15.73}
$GPRMC,105034.80,A,5612.9972,N,00306.7198,W,1.157,241.127,081009,,W,A*16
{"class":"TPV","mode":3,"time":"2029-05-24T10:50:34.800Z","ept":0.005,"lat":56.216620000,"lon":-3.111996667,"altHAE":211.2105,"altMSL":159.0220,"alt":159.0220,"epx":205.670,"epy":140.422,"epv":361.882,"track":241.1270,"magtrack":239.2153,"magvar":-1.9,"speed":0.595,"climb":0.040,"eps":411.34,"epc":723.97,"geoidSep":52.188,"eph":332.215,"sep":447.013}
$GPGSA,A,3,29,2,30,9,,,,,,,,,23.516,17.485,15.725*09
{"class":"TPV","mode":3,"time":"2029-05-24T10:50:34.800Z","ept":0.005,"lat":56.216620000,"lon":-3.111996667,"altHAE":211.2105,"altMSL":159.0220,"alt":159.0220,"epx":205.670,"epy":140.422,"epv":361.882,"track":241.1270,"magtrack":239.2153,"magvar":-1.9,"speed":0.595,"climb":0.040,"eps":411.34,"epc":723.97,"geoidSep":52.188,"eph":332.215,"sep":447.013}
{"class":"SKY","gdop":27.74,"hdop":17.48,"pdop":23.52,"tdop":16.55,"xdop":13.71,"ydop":9.36,"vdop":15.72}
$GPGSV,5,1,19,1,5,,26,2,28,73,23,3,5,,,4,19,40,24*70
$GPGSV,5,2,19,5,5,,,9,3,137,25,12,44,85,,14,32,226,*72
$GPGSV,5,3,19,20,6,332,,22,5,,,23,5,,,24,4,147,*70
$GPGSV,5,4,19,25,5,,,26,17,202,,27,5,,,28,5,,*7F
$GPGSV,5,5,19,29,47,187,35,30,80,98,33,31,38,300,*71
{"class":"TPV","mode":3,"time":"2029-05-24T10:50:34.800Z","ept":0.005,"lat":56.216620000,"lon":-3.111996667,"altHAE":211.2105,"altMSL":159.0220,"alt":159.0220,"epx":205.670,"epy":140.422,"epv":361.882,"track":241.1270,"magtrack":239.2153,"magvar":-1.9,"speed":0.595,"climb":0.040,"eps":411.34,"epc":723.97,"geoidSep":52.188,"eph":332.215,"sep":447.013}
{"class":"SKY","gdop":27.74,"hdop":17.48,"pdop":23.52,"tdop":16.55,"xdop":13.71,"ydop":9.36,"vdop":15.72,"nSat":19,"uSat":4,"satellites":[{"PRN":1,"gnssid":0,"svid":1,"az":0.0,"el":5.0,"ss":26.0,"used":false},{"PRN":2,"gnssid":0,"svid":2,"az":73.0,"el":28.0,"ss":23.0,"used":true},{"PRN":3,"gnssid":0,"svid":3,"az":0.0,"el":5.0,"ss":0.0,"used":false},{"PRN":4,"gnssid":0,"svid":4,"az":40.0,"el":19.0,"ss":24.0,"used":false},{"PRN":5,"gnssid":0,"svid":5,"az":0.0,"el":5.0,"ss":0.0,"used":false},{"PRN":9,"gnssid":0,"svid":9,"az":137.0,"el":3.0,"ss":25.0,"used":true},{"PRN":12,"gnssid":0,"svid":12,"az":85.0,"el":44.0,"ss":0.0,"used":false},{"PRN":14,"gnssid":0,"svid":14,"az":226.0,"el":32.0,"ss":0.0,"used":false},{"PRN":20,"gnssid":0,"svid":20,"az":332.0,"el":6.0,"ss":0.0,"used":false},{"PRN":22,"gnssid":0,"svid":22,"az":0.0,"el":5.0,"ss":0.0,"used":false},{"PRN":23,"gnssid":0,"svid":23,"az":0.0,"el":5.0,"ss":0.0,"used":false},{"PRN":24,"gnssid":0,"svid":24,"az":147.0,"el":4.0,"ss":0.0,"used":false},{"PRN":25,"gnssid":0,"svid":25,"az":0.0,"el":5.0,"ss":0.0,"used":false},{"PRN":26,"gnssid":0,"svid":26,"az":202.0,"el":17.0,"ss":0.0,"used":false},{"PRN":27,"gnssid":0,"svid":27,"az":0.0,"el":5.0,"ss":0.0,"used":false},{"PRN":28,"gnssid":0,"svid":28,"az":0.0,"el":5.0,"ss":0.0,"used":false},{"PRN":29,"gnssid":0,"svid":29,"az":187.0,"el":47.0,"ss":35.0,"used":true},{"PRN":30,"gnssid":0,"svid":30,"az":98.0,"el":80.0,"ss":33.0,"used":true},{"PRN":31,"gnssid":0,"svid":31,"az":300.0,"el":38.0,"ss":0.0,"used":false}]}
$GPGGA,105035.80,5612.9962,N,00306.7171,W,1,4,17.479,159.038,M,,M,,*65
{"class":"TPV","mode":3,"time":"2029-05-24T10:50:35.800Z","ept":0.005,"lat":56.216603333,"lon":-3.111951667,"altHAE":211.2264,"altMSL":159.0380,"alt":159.0380,"epx":205.670,"epy":140.422,"epv":361.675,"magvar":-1.9,"speed":3.352,"climb":0.016,"eps":411.34,"epc":723.56,"geoidSep":52.188,"eph":332.101,"sep":446.804}
{"class":"SKY","gdop":27.74,"hdop":17.48,"pdop":23.52,"tdop":16.55,"xdop":13.71,"ydop":9.36,"vdop":15.72}
$GPRMC,105035.80,A,5612.9962,N,00306.7171,W,0.278,266.820,081009,,W,A*15
{"class":"TPV","mode":3,"time":"2029-05-24T10:50:35.800Z","ept":0.005,"lat":56.216603333,"lon":-3.111951667,"altHAE":211.2264,"altMSL":159.0380,"alt":159.0380,"epx":205.670,"epy":140.422,"epv":361.675,"track":266.8200,"magtrack":264.9083,"magvar":-1.9,"speed":0.143,"climb":0.016,"eps":411.34,"epc":723.56,"geoidSep":52.188,"eph":332.101,"sep":446.804}
$GPGSA,A,3,29,2,30,9,,,,,,,,,23.505,17.479,15.715*0B
{"class":"TPV","mode":3,"time":"2029-05-24T10:50:35.800Z","ept":0.005,"lat":56.216603333,"lon":-3.111951667,"altHAE":211.2264,"altMSL":159.0380,"alt":159.0380,"epx":205.670,"epy":140.422,"epv":361.675,"track":266.8200,"magtrack":264.9083,"magvar":-1.9,"speed":0.143,"climb":0.016,"eps":411.34,"epc":723.56,"geoidSep":52.188,"eph":332.101,"sep":446.804}
{"class":"SKY","gdop":27.74,"hdop":17.48,"pdop":23.50,"tdop":16.55,"xdop":13.71,"ydop":9.36,"vdop":15.71}
$GPGSV,3,1,11,2,28,73,25,4,19,40,24,9,3,137,25,12,44,85,*48
$GPGSV,3,2,11,14,32,226,,20,6,332,,24,4,147,,26,17,202,*7E
$GPGSV,3,3,11,29,47,187,35,30,80,98,33,31,38,300,*79
{"class":"TPV","mode":3,"time":"2029-05-24T10:50:35.800Z","ept":0.005,"lat":56.216603333,"lon":-3.111951667,"altHAE":211.2264,"altMSL":159.0380,"alt":159.0380,"epx":205.670,"epy":140.422,"epv":361.675,"track":266.8200,"magtrack":264.9083,"magvar":-1.9,"speed":0.143,"climb":0.016,"eps":411.34,"epc":723.56,"geoidSep":52.188,"eph":332.101,"sep":446.804}
{"class":"SKY","gdop":27.74,"hdop":17.48,"pdop":23.50,"tdop":16.55,"xdop":13.71,"ydop":9.36,"vdop":15.71,"nSat":11,"uSat":4,"satellites":[{"PRN":2,"gnssid":0,"svid":2,"az":73.0,"el":28.0,"ss":25.0,"used":true},{"PRN":4,"gnssid":0,"svid":4,"az":40.0,"el":19.0,"ss":24.0,"used":false},{"PRN":9,"gnssid":0,"svid":9,"az":137.0,"el":3.0,"ss":25.0,"used":true},{"PRN":12,"gnssid":0,"svid":12,"az":85.0,"el":44.0,"ss":0.0,"used":false},{"PRN":14,"gnssid":0,"svid":14,"az":226.0,"el":32.0,"ss":0.0,"used":false},{"PRN":20,"gnssid":0,"svid":20,"az":332.0,"el":6.0,"ss":0.0,"used":false},{"PRN":24,"gnssid":0,"svid":24,"az":147.0,"el":4.0,"ss":0.0,"used":false},{"PRN":26,"gnssid":0,"svid":26,"az":202.0,"el":17.0,"ss":0.0,"used":false},{"PRN":29,"gnssid":0,"svid":29,"az":187.0,"el":47.0,"ss":35.0,"used":true},{"PRN":30,"gnssid":0,"svid":30,"az":98.0,"el":80.0,"ss":33.0,"used":true},{"PRN":31,"gnssid":0,"svid":31,"az":300.0,"el":38.0,"ss":0.0,"used":false}]}
$GPGGA,105036.80,5612.9956,N,00306.7155,W,1,4,17.473,159.027,M,,M,,*63
{"class":"TPV","mode":3,"time":"2029-05-24T10:50:36.800Z","ept":0.005,"lat":56.216593333,"lon":-3.111925000,"altHAE":211.2154,"altMSL":159.0270,"alt":159.0270,"epx":205.670,"epy":140.422,"epv":361.445,"magvar":-1.9,"speed":1.994,"climb":-0.011,"eps":411.34,"epc":723.12,"geoidSep":52.188,"eph":331.987,"sep":446.595}
{"class":"SKY","gdop":27.74,"hdop":17.47,"pdop":23.50,"tdop":16.55,"xdop":13.71,"ydop":9.36,"vdop":15.71}
$GPRMC,105036.80,A,5612.9956,N,00306.7155,W,0.198,246.533,081009,,W,A*17
{"class":"TPV","mode":3,"time":"2029-05-24T10:50:36.800Z","ept":0.005,"lat":56.216593333,"lon":-3.111925000,"altHAE":211.2154,"altMSL":159.0270,"alt":159.0270,"epx":205.670,"epy":140.422,"epv":361.445,"track":246.5330,"magtrack":244.6214,"magvar":-1.9,"speed":0.102,"climb":-0.011,"eps":411.34,"epc":723.12,"geoidSep":52.188,"eph":331.987,"sep":446.595}
$GPGSA,A,3,29,2,30,9,,,,,,,,,23.494,17.473,15.706*0A
{"class":"TPV","mode":3,"time":"2029-05-24T10:50:36.800Z","ept":0.005,"lat":56.216593333,"lon":-3.111925000,"altHAE":211.2154,"altMSL":159.0270,"alt":159.0270,"epx":205.670,"epy":140.422,"epv":361.445,"track":246.5330,"magtrack":244.6214,"magvar":-1.9,"speed":0.102,"climb":-0.011,"eps":411.34,"epc":723.12,"geoidSep":52.188,"eph":331.987,"sep":446.595}
{"class":"SKY","gdop":27.74,"hdop":17.47,"pdop":23.49,"tdop":16.55,"xdop":13.71,"ydop":9.36,"vdop":15.71}
$GPGSV,3,1,11,2,28,73,27,4,19,40,24,9,3,137,25,12,44,85,*4A
$GPGSV,3,2,11,14,32,226,,20,6,332,,24,4,147,,26,17,202,*7E
$GPGSV,3,3,11,29,47,187,36,30,80,98,33,31,38,300,*7A
{"class":"TPV","mode":3,"time":"2029-05-24T10:50:36.800Z","ept":0.005,"lat":56.216593333,"lon":-3.111925000,"altHAE":211.2154,"altMSL":159.0270,"alt":159.0270,"epx":205.670,"epy":140.422,"epv":361.445,"track":246.5330,"magtrack":244.6214,"magvar":-1.9,"speed":0.102,"climb":-0.011,"eps":411.34,"epc":723.12,"geoidSep":52.188,"eph":331.987,"sep":446.595}
{"class":"SKY","gdop":27.74,"hdop":17.47,"pdop":23.49,"tdop":16.55,"xdop":13.71,"ydop":9.36,"vdop":15.71,"nSat":11,"uSat":4,"satellites":[{"PRN":2,"gnssid":0,"svid":2,"az":73.0,"el":28.0,"ss":27.0,"used":true},{"PRN":4,"gnssid":0,"svid":4,"az":40.0,"el":19.0,"ss":24.0,"used":false},{"PRN":9,"gnssid":0,"svid":9,"az":137.0,"el":3.0,"ss":25.0,"used":true},{"PRN":12,"gnssid":0,"svid":12,"az":85.0,"el":44.0,"ss":0.0,"used":false},{"PRN":14,"gnssid":0,"svid":14,"az":226.0,"el":32.0,"ss":0.0,"used":false},{"PRN":20,"gnssid":0,"svid":20,"az":332.0,"el":6.0,"ss":0.0,"used":false},{"PRN":24,"gnssid":0,"svid":24,"az":147.0,"el":4.0,"ss":0.0,"used":false},{"PRN":26,"gnssid":0,"svid":26,"az":202.0,"el":17.0,"ss":0.0,"used":false},{"PRN":29,"gnssid":0,"svid":29,"az":187.0,"el":47.0,"ss":36.0,"used":true},{"PRN":30,"gnssid":0,"svid":30,"az":98.0,"el":80.0,"ss":33.0,"used":true},{"PRN":31,"gnssid":0,"svid":31,"az":300.0,"el":38.0,"ss":0.0,"used":false}]}
$GPGGA,105037.80,5612.9964,N,00306.7154,W,1,4,17.466,159.026,M,,M,,*67
{"class":"TPV","mode":3,"time":"2029-05-24T10:50:37.800Z","ept":0.005,"lat":56.216606667,"lon":-3.111923333,"altHAE":211.2144,"altMSL":159.0260,"alt":159.0260,"epx":205.670,"epy":140.422,"epv":361.238,"magvar":-1.9,"speed":1.488,"climb":-0.001,"eps":411.34,"epc":722.68,"geoidSep":52.188,"eph":331.854,"sep":446.386}
{"class":"SKY","gdop":27.74,"hdop":17.47,"pdop":23.49,"tdop":16.55,"xdop":13.71,"ydop":9.36,"vdop":15.71}
$GPRMC,105037.80,A,5612.9964,N,00306.7154,W,0.195,197.090,081009,,W,A*18
{"class":"TPV","mode":3,"time":"2029-05-24T10:50:37.800Z","ept":0.005,"lat":56.216606667,"lon":-3.111923333,"altHAE":211.2144,"altMSL":159.0260,"alt":159.0260,"epx":205.670,"epy":140.422,"epv":361.238,"track":197.0900,"magtrack":195.1784,"magvar":-1.9,"speed":0.100,"climb":-0.001,"eps":411.34,"epc":722.68,"geoidSep":52.188,"eph":331.854,"sep":446.386}
