$GPZDA,102006.00,15,01,2007,00,00*63
$GPGGA,102006.00,3020.5009893,N,1213.7241465,E,2,00,1.00,627.59,M,29.291,M,,*5C
$GPRMC,102006.00,A,3020.5009893,N,1213.7241465,E,0.1944,90.000,150107,2.5,E*60
$GPGSA,A,3,,,,,,,,,,,,,2.0,1.0,1.8*38
{"class":"TPV","status":2,"mode":3,"time":"2007-01-15T10:20:06.000Z","ept":0.005,"lat":30.341683155,"lon":12.228735775,"altHAE":659.1189,"altMSL":627.5876,"alt":627.5876,"epv":10.350,"track":90.0000,"magtrack":92.4833,"magvar":2.5,"speed":0.100,"climb":0.600,"velN":0.000,"velE":0.100,"velD":-0.600,"geoidSep":29.291,"eph":4.750,"sep":9.500}
{"class":"SKY","gdop":2.40,"hdop":1.00,"pdop":2.00,"tdop":1.30,"vdop":1.80}
$GPGSV,3,1,10,21,78,040,46,31,39,230,44,06,36,062,43,25,36,245,43*7F
$GPGSV,3,2,10,30,26,132,38,16,40,321,42,18,31,140,39,03,10,284,34*7F
$GPGSV,3,3,10,07,43,056,43,22,13,173,34*7C
{"class":"SKY","time":"2007-01-14T00:01:45.624Z","gdop":2.40,"hdop":1.00,"pdop":2.00,"tdop":1.30,"xdop":0.55,"ydop":0.74,"vdop":1.80,"nSat":10,"uSat":9,"satellites":[{"PRN":21,"az":40.0,"el":78.0,"ss":46.5,"used":true},{"PRN":31,"az":230.0,"el":39.0,"ss":44.5,"used":true},{"PRN":6,"az":62.0,"el":36.0,"ss":43.0,"used":true},{"PRN":25,"az":245.0,"el":36.0,"ss":43.0,"used":true},{"PRN":30,"az":132.0,"el":26.0,"ss":38.0,"used":true},{"PRN":16,"az":321.0,"el":40.0,"ss":42.2,"used":true},{"PRN":18,"az":140.0,"el":31.0,"ss":39.0,"used":true},{"PRN":3,"az":284.0,"el":10.0,"ss":34.0,"used":true},{"PRN":7,"az":56.0,"el":43.0,"ss":43.0,"used":true},{"PRN":22,"az":173.0,"el":13.0,"ss":33.5,"used":false}]}
$GPZDA,102007.00,15,01,2007,00,00*62
$GPGGA,102007.00,3020.5009923,N,1213.7241491,E,2,09,1.00,627.58,M,29.291,M,,*54
$GPRMC,102007.00,A,3020.5009923,N,1213.7241491,E,0.0135,,150107,2.5,E*78
$GPGSA,A,3,21,31,6,25,30,16,18,3,7,,,,2.0,1.0,1.8*01
$GPGBS,102007.00,2.047,2.792,10.350,,,,*7D
{"class":"TPV","status":2,"mode":3,"time":"2007-01-15T10:20:07.000Z","ept":0.005,"lat":30.341683205,"lon":12.228735818,"altHAE":659.1082,"altMSL":627.5769,"alt":627.5769,"epx":2.047,"epy":2.792,"epv":10.350,"magvar":2.5,"speed":0.007,"climb":0.800,"eps":5.58,"epc":20.70,"geoidSep":29.291,"eph":4.750,"sep":9.500}
{"class":"SKY","time":"2007-01-14T00:01:45.624Z","gdop":2.40,"hdop":1.00,"pdop":2.00,"tdop":1.30,"xdop":0.55,"ydop":0.74,"vdop":1.80}
$GPGSV,3,1,10,21,78,040,46,31,39,230,44,06,36,062,43,25,36,245,43*7F
$GPGSV,3,2,10,30,26,132,38,16,40,321,42,18,31,140,39,03,10,284,34*7F
$GPGSV,3,3,10,07,43,056,43,22,13,173,32*7A
{"class":"SKY","time":"2007-01-14T00:01:45.625Z","gdop":2.40,"hdop":1.00,"pdop":2.00,"tdop":1.30,"xdop":0.55,"ydop":0.74,"vdop":1.80,"nSat":10,"uSat":9,"satellites":[{"PRN":21,"az":40.0,"el":78.0,"ss":46.5,"used":true},{"PRN":31,"az":230.0,"el":39.0,"ss":44.5,"used":true},{"PRN":6,"az":62.0,"el":36.0,"ss":43.0,"used":true},{"PRN":25,"az":245.0,"el":36.0,"ss":42.8,"used":true},{"PRN":30,"az":132.0,"el":26.0,"ss":38.0,"used":true},{"PRN":16,"az":321.0,"el":40.0,"ss":42.2,"used":true},{"PRN":18,"az":140.0,"el":31.0,"ss":39.0,"used":true},{"PRN":3,"az":284.0,"el":10.0,"ss":34.0,"used":true},{"PRN":7,"az":56.0,"el":43.0,"ss":43.0,"used":true},{"PRN":22,"az":173.0,"el":13.0,"ss":32.5,"used":false}]}
$GPZDA,102008.00,15,01,2007,00,00*6D
$GPGGA,102008.00,3020.5009857,N,1213.7241536,E,2,09,1.00,627.56,M,29.291,M,,*5B
$GPRMC,102008.00,A,3020.5009857,N,1213.7241536,E,0.1944,90.000,150107,2.5,E*61
$GPGSA,A,3,21,31,6,25,30,16,18,3,7,,,,2.0,1.0,1.8*01
$GPGBS,102008.00,2.047,2.792,10.350,,,,*72
{"class":"TPV","status":2,"mode":3,"time":"2007-01-15T10:20:08.000Z","ept":0.005,"lat":30.341683095,"lon":12.228735894,"altHAE":659.0896,"altMSL":627.5584,"alt":627.5584,"epx":2.047,"epy":2.792,"epv":10.350,"track":90.0000,"magtrack":92.4833,"magvar":2.5,"speed":0.100,"climb":-0.019,"eps":5.58,"epc":20.70,"velN":0.000,"velE":0.100,"geoidSep":29.291,"eph":4.750,"sep":9.500}
{"class":"SKY","time":"2007-01-14T00:01:45.625Z","gdop":2.40,"hdop":1.00,"pdop":2.00,"tdop":1.30,"xdop":0.55,"ydop":0.74,"vdop":1.80}
$GPGSV,3,1,10,21,78,040,46,31,39,230,44,06,36,062,43,25,36,245,43*7F
$GPGSV,3,2,10,30,26,132,38,16,40,321,42,18,31,140,39,03,10,284,34*7F
$GPGSV,3,3,10,07,43,056,43,22,13,173,44*7B
{"class":"SKY","time":"2007-01-14T00:01:45.626Z","gdop":2.40,"hdop":1.00,"pdop":2.00,"tdop":1.30,"xdop":0.55,"ydop":0.74,"vdop":1.80,"nSat":10,"uSat":9,"satellites":[{"PRN":21,"az":40.0,"el":78.0,"ss":46.5,"used":true},{"PRN":31,"az":230.0,"el":39.0,"ss":44.5,"used":true},{"PRN":6,"az":62.0,"el":36.0,"ss":43.0,"used":true},{"PRN":25,"az":245.0,"el":36.0,"ss":43.0,"used":true},{"PRN":30,"az":132.0,"el":26.0,"ss":37.8,"used":true},{"PRN":16,"az":321.0,"el":40.0,"ss":42.2,"used":true},{"PRN":18,"az":140.0,"el":31.0,"ss":39.0,"used":true},{"PRN":3,"az":284.0,"el":10.0,"ss":34.0,"used":true},{"PRN":7,"az":56.0,"el":43.0,"ss":43.0,"used":true},{"PRN":22,"az":173.0,"el":13.0,"ss":43.8,"used":false}]}
$GPZDA,102009.00,15,01,2007,00,00*6C
$GPGGA,102009.00,3020.5009888,N,1213.7241531,E,2,09,1.00,627.55,M,29.291,M,,*5C
$GPRMC,102009.00,A,3020.5009888,N,1213.7241531,E,0.1944,90.000,150107,2.5,E*65
$GPGSA,A,3,21,31,6,25,30,16,18,3,7,,,,2.0,1.0,1.8*01
$GPGBS,102009.00,2.047,2.792,10.350,,,,*73
{"class":"TPV","status":2,"mode":3,"time":"2007-01-15T10:20:09.000Z","ept":0.005,"lat":30.341683146,"lon":12.228735886,"altHAE":659.0828,"altMSL":627.5515,"alt":627.5515,"epx":2.047,"epy":2.792,"epv":10.350,"track":90.0000,"magtrack":92.4833,"magvar":2.5,"speed":0.100,"climb":0.100,"eps":5.58,"epc":20.70,"velN":0.000,"velE":0.100,"velD":-0.100,"geoidSep":29.291,"eph":4.750,"sep":9.500}
{"class":"SKY","time":"2007-01-14T00:01:45.626Z","gdop":2.40,"hdop":1.00,"pdop":2.00,"tdop":1.30,"xdop":0.55,"ydop":0.74,"vdop":1.80}
$GPGSV,3,1,10,21,78,040,46,31,39,230,44,06,36,062,43,25,36,245,43*7F
$GPGSV,3,2,10,30,26,132,38,16,40,321,42,18,31,140,39,03,10,284,34*7F
$GPGSV,3,3,10,07,43,056,43,22,13,173,44*7B
{"class":"SKY","time":"2007-01-14T00:01:45.627Z","gdop":2.40,"hdop":1.00,"pdop":2.00,"tdop":1.30,"xdop":0.55,"ydop":0.74,"vdop":1.80,"nSat":10,"uSat":9,"satellites":[{"PRN":21,"az":40.0,"el":78.0,"ss":46.5,"used":true},{"PRN":31,"az":230.0,"el":39.0,"ss":44.5,"used":true},{"PRN":6,"az":62.0,"el":36.0,"ss":43.0,"used":true},{"PRN":25,"az":245.0,"el":36.0,"ss":43.0,"used":true},{"PRN":30,"az":132.0,"el":26.0,"ss":38.0,"used":true},{"PRN":16,"az":321.0,"el":40.0,"ss":42.2,"used":true},{"PRN":18,"az":140.0,"el":31.0,"ss":38.8,"used":true},{"PRN":3,"az":284.0,"el":10.0,"ss":34.0,"used":true},{"PRN":7,"az":56.0,"el":43.0,"ss":43.0,"used":true},{"PRN":22,"az":173.0,"el":13.0,"ss":44.0,"used":false}]}
$GPZDA,102010.00,15,01,2007,00,00*64
$GPGGA,102010.00,3020.5009928,N,1213.7241516,E,2,09,1.00,627.55,M,29.291,M,,*5A
$GPRMC,102010.00,A,3020.5009928,N,1213.7241516,E,0.1944,0.000,150107,2.5,E*5A
$GPGSA,A,3,21,31,6,25,30,16,18,3,7,,,,2.0,1.0,1.8*01
$GPGBS,102010.00,2.047,2.792,10.350,,,,*7B
{"class":"TPV","status":2,"mode":3,"time":"2007-01-15T10:20:10.000Z","ept":0.005,"lat":30.341683214,"lon":12.228735860,"altHAE":659.0847,"altMSL":627.5525,"alt":627.5525,"epx":2.047,"epy":2.792,"epv":10.350,"track":0.0000,"magtrack":2.4833,"magvar":2.5,"speed":0.100,"climb":0.000,"eps":5.58,"epc":20.70,"velN":0.100,"velE":0.000,"velD":0.000,"geoidSep":29.291,"eph":4.750,"sep":9.500}
{"class":"SKY","time":"2007-01-14T00:01:45.627Z","gdop":2.40,"hdop":1.00,"pdop":2.00,"tdop":1.30,"xdop":0.55,"ydop":0.74,"vdop":1.80}
$GPGSV,3,1,10,21,78,040,46,31,39,230,44,06,36,062,43,25,36,245,43*7F
$GPGSV,3,2,10,30,26,132,38,16,40,321,42,18,31,140,38,03,10,284,34*7E
$GPGSV,3,3,10,07,43,056,43,22,13,173,44*7B
{"class":"SKY","time":"2007-01-14T00:01:45.628Z","gdop":2.40,"hdop":1.00,"pdop":2.00,"tdop":1.30,"xdop":0.55,"ydop":0.74,"vdop":1.80,"nSat":10,"uSat":9,"satellites":[{"PRN":21,"az":40.0,"el":78.0,"ss":46.5,"used":true},{"PRN":31,"az":230.0,"el":39.0,"ss":44.5,"used":true},{"PRN":6,"az":62.0,"el":36.0,"ss":43.0,"used":true},{"PRN":25,"az":245.0,"el":36.0,"ss":43.0,"used":true},{"PRN":30,"az":132.0,"el":26.0,"ss":38.0,"used":true},{"PRN":16,"az":321.0,"el":40.0,"ss":42.2,"used":true},{"PRN":18,"az":140.0,"el":31.0,"ss":38.5,"used":true},{"PRN":3,"az":284.0,"el":10.0,"ss":34.0,"used":true},{"PRN":7,"az":56.0,"el":43.0,"ss":43.0,"used":true},{"PRN":22,"az":173.0,"el":13.0,"ss":44.0,"used":false}]}
$GPZDA,102011.00,15,01,2007,00,00*65
$GPGGA,102011.00,3020.5009923,N,1213.7241516,E,2,09,1.00,627.54,M,29.291,M,,*51
$GPRMC,102011.00,A,3020.5009923,N,1213.7241516,E,0.1944,0.000,150107,2.5,E*50
$GPGSA,A,3,21,31,6,25,30,16,18,3,7,,,,2.0,1.0,1.8*01
$GPGBS,102011.00,2.047,2.792,10.350,,,,*7A
{"class":"TPV","status":2,"mode":3,"time":"2007-01-15T10:20:11.000Z","ept":0.005,"lat":30.341683205,"lon":12.228735860,"altHAE":659.0691,"altMSL":627.5378,"alt":627.5378,"epx":2.047,"epy":2.792,"epv":10.350,"track":0.0000,"magtrack":2.4833,"magvar":2.5,"speed":0.100,"climb":0.100,"eps":5.58,"epc":20.70,"velN":0.100,"velE":0.000,"velD":-0.100,"geoidSep":29.291,"eph":4.750,"sep":9.500}
{"class":"SKY","time":"2007-01-14T00:01:45.628Z","gdop":2.40,"hdop":1.00,"pdop":2.00,"tdop":1.30,"xdop":0.55,"ydop":0.74,"vdop":1.80}
$GPGSV,3,1,10,21,78,040,46,31,39,230,44,06,36,062,43,25,36,245,43*7F
$GPGSV,3,2,10,30,26,132,38,16,40,321,42,18,31,140,38,03,10,284,34*7E
$GPGSV,3,3,10,07,43,056,43,22,13,173,35*7D
{"class":"SKY","time":"2007-01-14T00:01:45.629Z","gdop":2.40,"hdop":1.00,"pdop":2.00,"tdop":1.30,"xdop":0.55,"ydop":0.74,"vdop":1.80,"nSat":10,"uSat":9,"satellites":[{"PRN":21,"az":40.0,"el":78.0,"ss":46.5,"used":true},{"PRN":31,"az":230.0,"el":39.0,"ss":44.5,"used":true},{"PRN":6,"az":62.0,"el":36.0,"ss":43.0,"used":true},{"PRN":25,"az":245.0,"el":36.0,"ss":43.0,"used":true},{"PRN":30,"az":132.0,"el":26.0,"ss":38.0,"used":true},{"PRN":16,"az":321.0,"el":40.0,"ss":42.2,"used":true},{"PRN":18,"az":140.0,"el":31.0,"ss":38.5,"used":true},{"PRN":3,"az":284.0,"el":10.0,"ss":34.0,"used":true},{"PRN":7,"az":56.0,"el":43.0,"ss":43.0,"used":true},{"PRN":22,"az":173.0,"el":13.0,"ss":34.8,"used":false}]}
