$GPRMC,,V,,S,,W,,,,,*35
$GPGSA,A,1,,,,,,,,,,,,,,,*1E
{"class":"TPV","mode":0,"jam":5}
$GPZDA,151405.00,28,03,2024,00,00*6F
$GPGGA,151405.00,4624.2789171,N,11701.2277206,W,1,05,,248.31,M,-15.351,M,,*46
$GPRMC,151405.00,A,4624.2789171,N,11701.2277206,W,0.8544,94.005,280324,13.9,E*7A
$GPGSA,A,3,,,,,,,,,,,,,3.3,,*32
{"class":"TPV","mode":3,"time":"2024-03-28T15:14:05.000Z","ept":0.005,"lat":46.404648618,"lon":-117.020462010,"altHAE":232.9577,"altMSL":248.3082,"alt":248.3082,"track":94.0052,"magtrack":107.8568,"magvar":13.9,"speed":0.440,"climb":0.002,"eps":1.05,"ecefx":-2001691.12,"ecefy":-3925074.05,"ecefz":4596546.66,"ecefvx":0.38,"ecefvy":-0.22,"ecefvz":-0.02,"ecefpAcc":24.63,"ecefvAcc":1.05,"velN":-0.031,"velE":0.438,"velD":-0.002,"geoidSep":-15.351,"sep":61.940}
{"class":"SKY","pdop":3.26}
$GPGSV,5,1,18,02,07,110,00,05,13,282,19,07,64,097,00,08,36,057,16*75
$GPGSV,5,2,18,09,17,167,21,13,33,310,24,14,59,246,19,15,06,324,00*7B
$GPGSV,5,3,18,17,15,183,17,20,03,253,00,21,11,095,00,22,37,240,25*77
$GPGSV,5,4,18,27,07,035,00,30,79,319,21,46,35,197,00,48,36,191,00*7B
$GPGSV,5,5,18,51,36,167,00,196,06,307,00*4D
{"class":"SKY","time":"2024-03-28T15:14:05.000Z","gdop":3.66,"hdop":1.28,"pdop":3.26,"tdop":1.74,"xdop":0.91,"ydop":0.90,"vdop":2.95,"nSat":20,"uSat":5,"satellites":[{"PRN":2,"gnssid":0,"svid":2,"az":110.0,"el":7.0,"prRes":0.0,"qual":1,"ss":0.0,"used":false,"health":1},{"PRN":5,"gnssid":0,"svid":5,"az":282.0,"el":13.0,"prRes":0.0,"qual":4,"ss":19.0,"used":false,"health":1},{"PRN":7,"gnssid":0,"svid":7,"az":97.0,"el":64.0,"prRes":0.0,"qual":1,"ss":0.0,"used":false,"health":1},{"PRN":8,"gnssid":0,"svid":8,"az":57.0,"el":36.0,"prRes":7.7,"qual":4,"ss":16.0,"used":true,"health":1},{"PRN":9,"gnssid":0,"svid":9,"az":167.0,"el":17.0,"prRes":186.9,"qual":4,"ss":21.0,"used":true,"health":1},{"PRN":13,"gnssid":0,"svid":13,"az":310.0,"el":33.0,"prRes":189.4,"qual":4,"ss":24.0,"used":true,"health":1},{"PRN":14,"gnssid":0,"svid":14,"az":246.0,"el":59.0,"prRes":41.0,"qual":4,"ss":19.0,"used":true,"health":1},{"PRN":15,"gnssid":0,"svid":15,"az":324.0,"el":6.0,"prRes":0.0,"qual":1,"ss":0.0,"used":false,"health":1},{"PRN":17,"gnssid":0,"svid":17,"az":183.0,"el":15.0,"prRes":0.0,"qual":3,"ss":17.0,"used":false,"health":1},{"PRN":20,"gnssid":0,"svid":20,"az":253.0,"el":3.0,"prRes":0.0,"qual":1,"ss":0.0,"used":false,"health":1},{"PRN":21,"gnssid":0,"svid":21,"az":95.0,"el":11.0,"prRes":0.0,"qual":1,"ss":0.0,"used":false,"health":1},{"PRN":22,"gnssid":0,"svid":22,"az":240.0,"el":37.0,"prRes":-207.4,"qual":4,"ss":25.0,"used":true,"health":1},{"PRN":27,"gnssid":0,"svid":27,"az":35.0,"el":7.0,"prRes":0.0,"qual":1,"ss":0.0,"used":false,"health":1},{"PRN":30,"gnssid":0,"svid":30,"az":319.0,"el":79.0,"prRes":0.0,"qual":4,"ss":21.0,"used":false,"health":1},{"PRN":46,"gnssid":1,"svid":133,"az":197.0,"el":35.0,"prRes":0.0,"qual":1,"ss":0.0,"used":false,"health":2},{"PRN":48,"gnssid":1,"svid":135,"az":191.0,"el":36.0,"prRes":0.0,"qual":1,"ss":0.0,"used":false,"health":2},{"PRN":51,"gnssid":1,"svid":138,"az":167.0,"el":36.0,"prRes":0.0,"qual":1,"ss":0.0,"used":false,"health":2},{"PRN":194,"gnssid":5,"svid":2,"az":0.0,"prRes":0.0,"qual":1,"ss":0.0,"used":false,"health":2},{"PRN":196,"gnssid":5,"svid":4,"az":307.0,"el":6.0,"prRes":0.0,"qual":1,"ss":0.0,"used":false,"health":1},{"PRN":197,"gnssid":5,"svid":5,"az":0.0,"prRes":0.0,"qual":1,"ss":0.0,"used":false,"health":2}]}
{"class":"SKY","time":"2024-03-28T15:14:05.000Z","gdop":3.70,"hdop":1.29,"pdop":3.26,"tdop":1.76,"xdop":0.92,"ydop":0.90,"vdop":2.99}
$GPZDA,151406.00,28,03,2024,00,00*6C
$GPGGA,151406.00,4624.2786362,N,11701.2275474,W,1,05,1.29,248.27,M,-15.351,M,,*58
$GPRMC,151406.00,A,4624.2786362,N,11701.2275474,W,0.9867,114.498,280324,13.9,E*43
$GPGSA,A,3,8,9,13,14,22,,,,,,,,3.3,1.3,3.0*35
$GPGBS,151406.00,13.800,13.500,68.770,,,,*75
{"class":"TPV","mode":3,"time":"2024-03-28T15:14:06.000Z","leapseconds":18,"ept":0.005,"lat":46.404643937,"lon":-117.020459124,"altHAE":232.9146,"altMSL":248.2651,"alt":248.2651,"epx":13.800,"epy":13.500,"epv":68.770,"track":114.4984,"magtrack":128.3499,"magvar":13.9,"speed":0.508,"climb":0.007,"eps":1.02,"epc":136.59,"ecefx":-2001691.08,"ecefy":-3925074.46,"ecefz":4596546.27,"ecefvx":0.34,"ecefvy":-0.35,"ecefvz":-0.14,"ecefpAcc":24.55,"ecefvAcc":1.02,"velN":-0.210,"velE":0.462,"velD":-0.007,"geoidSep":-15.351,"eph":24.510,"sep":61.940}
{"class":"SKY","time":"2024-03-28T15:14:05.000Z","gdop":3.70,"hdop":1.29,"pdop":3.26,"tdop":1.76,"xdop":0.92,"ydop":0.90,"vdop":2.99}
$GPGSV,5,1,18,02,07,110,00,05,13,282,19,07,64,097,00,08,36,057,15*76
$GPGSV,5,2,18,09,17,167,21,13,33,310,24,14,59,246,19,15,06,324,00*7B
$GPGSV,5,3,18,17,15,183,17,20,03,253,00,21,11,095,00,22,37,240,24*76
$GPGSV,5,4,18,27,07,035,00,30,79,319,21,46,35,197,00,48,36,191,00*7B
$GPGSV,5,5,18,51,36,167,00,196,06,307,00*4D
{"class":"SKY","time":"2024-03-28T15:14:06.000Z","gdop":3.70,"hdop":1.29,"pdop":3.26,"tdop":1.76,"xdop":0.92,"ydop":0.90,"vdop":2.99,"nSat":20,"uSat":5,"satellites":[{"PRN":2,"gnssid":0,"svid":2,"az":110.0,"el":7.0,"prRes":0.0,"qual":1,"ss":0.0,"used":false,"health":1},{"PRN":5,"gnssid":0,"svid":5,"az":282.0,"el":13.0,"prRes":0.0,"qual":4,"ss":19.0,"used":false,"health":1},{"PRN":7,"gnssid":0,"svid":7,"az":97.0,"el":64.0,"prRes":0.0,"qual":1,"ss":0.0,"used":false,"health":1},{"PRN":8,"gnssid":0,"svid":8,"az":57.0,"el":36.0,"prRes":-181.8,"qual":4,"ss":15.0,"used":true,"health":1},{"PRN":9,"gnssid":0,"svid":9,"az":167.0,"el":17.0,"prRes":-135.7,"qual":4,"ss":21.0,"used":true,"health":1},{"PRN":13,"gnssid":0,"svid":13,"az":310.0,"el":33.0,"prRes":-266.2,"qual":4,"ss":24.0,"used":true,"health":1},{"PRN":14,"gnssid":0,"svid":14,"az":246.0,"el":59.0,"prRes":48.6,"qual":4,"ss":19.0,"used":true,"health":1},{"PRN":15,"gnssid":0,"svid":15,"az":324.0,"el":6.0,"prRes":0.0,"qual":1,"ss":0.0,"used":false,"health":1},{"PRN":17,"gnssid":0,"svid":17,"az":183.0,"el":15.0,"prRes":0.0,"qual":4,"ss":17.0,"used":false,"health":1},{"PRN":20,"gnssid":0,"svid":20,"az":253.0,"el":3.0,"prRes":0.0,"qual":1,"ss":0.0,"used":false,"health":1},{"PRN":21,"gnssid":0,"svid":21,"az":95.0,"el":11.0,"prRes":0.0,"qual":1,"ss":0.0,"used":false,"health":1},{"PRN":22,"gnssid":0,"svid":22,"az":240.0,"el":37.0,"prRes":120.3,"qual":4,"ss":24.0,"used":true,"health":1},{"PRN":27,"gnssid":0,"svid":27,"az":35.0,"el":7.0,"prRes":0.0,"qual":1,"ss":0.0,"used":false,"health":1},{"PRN":30,"gnssid":0,"svid":30,"az":319.0,"el":79.0,"prRes":0.0,"qual":4,"ss":21.0,"used":false,"health":1},{"PRN":46,"gnssid":1,"svid":133,"az":197.0,"el":35.0,"prRes":0.0,"qual":1,"ss":0.0,"used":false,"health":2},{"PRN":48,"gnssid":1,"svid":135,"az":191.0,"el":36.0,"prRes":0.0,"qual":1,"ss":0.0,"used":false,"health":2},{"PRN":51,"gnssid":1,"svid":138,"az":167.0,"el":36.0,"prRes":0.0,"qual":1,"ss":0.0,"used":false,"health":2},{"PRN":194,"gnssid":5,"svid":2,"az":0.0,"prRes":0.0,"qual":1,"ss":0.0,"used":false,"health":2},{"PRN":196,"gnssid":5,"svid":4,"az":307.0,"el":6.0,"prRes":0.0,"qual":1,"ss":0.0,"used":false,"health":1},{"PRN":197,"gnssid":5,"svid":5,"az":0.0,"prRes":0.0,"qual":1,"ss":0.0,"used":false,"health":2}]}
{"class":"SKY","time":"2024-03-28T15:14:06.000Z","gdop":3.70,"hdop":1.29,"pdop":3.26,"tdop":1.76,"xdop":0.92,"ydop":0.90,"vdop":2.99}
$GPZDA,151406.00,28,03,2024,00,00*6C
$GPGGA,151406.00,4624.2786362,N,11701.2275474,W,1,05,1.29,248.27,M,-15.351,M,,*58
$GPRMC,151406.00,A,4624.2786362,N,11701.2275474,W,0.9867,114.498,280324,13.9,E*43
$GPGSA,A,3,8,9,13,14,22,,,,,,,,3.3,1.3,3.0*35
$GPGBS,151406.00,13.800,13.500,68.770,,,,*75
{"class":"TPV","mode":3,"time":"2024-03-28T15:14:06.000Z","leapseconds":18,"ept":0.005,"lat":46.404643937,"lon":-117.020459124,"altHAE":232.9146,"altMSL":248.2651,"alt":248.2651,"epx":13.800,"epy":13.500,"epv":68.770,"track":114.4984,"magtrack":128.3499,"magvar":13.9,"speed":0.508,"climb":0.007,"eps":27.60,"epc":136.59,"ecefx":-2001691.08,"ecefy":-3925074.46,"ecefz":4596546.27,"ecefvx":0.34,"ecefvy":-0.35,"ecefvz":-0.14,"ecefpAcc":24.55,"ecefvAcc":1.02,"velN":-0.210,"velE":0.462,"velD":-0.007,"geoidSep":-15.351,"eph":24.510,"sep":61.940,"clockbias":-446175,"clockdrift":-430}
$GPZDA,151407.00,28,03,2024,00,00*6D
$GPGGA,151407.00,4624.2785248,N,11701.2281326,W,1,05,1.29,248.31,M,-15.351,M,,*5F
$GPRMC,151407.00,A,4624.2785248,N,11701.2281326,W,0.5798,111.272,280324,13.9,E*47
$GPGSA,A,3,8,9,13,14,22,,,,,,,,3.2,1.3,3.0*34
$GPGBS,151407.00,13.800,13.500,68.770,,,,*74
{"class":"TPV","mode":3,"time":"2024-03-28T15:14:07.000Z","leapseconds":18,"ept":0.005,"lat":46.404642080,"lon":-117.020468876,"altHAE":232.9593,"altMSL":248.3098,"alt":248.3098,"epx":13.800,"epy":13.500,"epv":68.770,"track":111.2723,"magtrack":125.1239,"magvar":13.9,"speed":0.298,"climb":0.006,"eps":1.03,"epc":137.54,"ecefx":-2001691.83,"ecefy":-3925074.28,"ecefz":4596546.16,"ecefvx":0.21,"ecefvy":-0.20,"ecefvz":-0.07,"ecefpAcc":24.46,"ecefvAcc":1.03,"velN":-0.108,"velE":0.278,"velD":-0.006,"geoidSep":-15.351,"eph":24.510,"sep":61.750}
{"class":"SKY","time":"2024-03-28T15:14:06.000Z","gdop":3.70,"hdop":1.29,"pdop":3.25,"tdop":1.76,"xdop":0.92,"ydop":0.90,"vdop":2.99}
$GPGSV,5,1,18,02,07,110,00,05,13,282,19,07,64,097,00,08,36,057,16*75
$GPGSV,5,2,18,09,17,167,21,13,33,310,24,14,59,246,18,15,06,324,00*7A
$GPGSV,5,3,18,17,15,183,17,20,03,253,00,21,11,095,00,22,37,240,24*76
$GPGSV,5,4,18,27,07,035,00,30,79,319,20,46,35,197,00,48,36,191,00*7A
$GPGSV,5,5,18,51,36,167,00,196,06,307,00*4D
{"class":"SKY","time":"2024-03-28T15:14:07.000Z","gdop":3.70,"hdop":1.29,"pdop":3.25,"tdop":1.76,"xdop":0.92,"ydop":0.90,"vdop":2.99,"nSat":20,"uSat":5,"satellites":[{"PRN":2,"gnssid":0,"svid":2,"az":110.0,"el":7.0,"prRes":0.0,"qual":1,"ss":0.0,"used":false,"health":1},{"PRN":5,"gnssid":0,"svid":5,"az":282.0,"el":13.0,"prRes":0.0,"qual":4,"ss":19.0,"used":false,"health":1},{"PRN":7,"gnssid":0,"svid":7,"az":97.0,"el":64.0,"prRes":0.0,"qual":1,"ss":0.0,"used":false,"health":1},{"PRN":8,"gnssid":0,"svid":8,"az":57.0,"el":36.0,"prRes":230.4,"qual":4,"ss":16.0,"used":true,"health":1},{"PRN":9,"gnssid":0,"svid":9,"az":167.0,"el":17.0,"prRes":286.7,"qual":4,"ss":21.0,"used":true,"health":1},{"PRN":13,"gnssid":0,"svid":13,"az":310.0,"el":33.0,"prRes":0.0,"qual":4,"ss":24.0,"used":true,"health":1},{"PRN":14,"gnssid":0,"svid":14,"az":246.0,"el":59.0,"prRes":-161.3,"qual":4,"ss":18.0,"used":true,"health":1},{"PRN":15,"gnssid":0,"svid":15,"az":324.0,"el":6.0,"prRes":0.0,"qual":1,"ss":0.0,"used":false,"health":1},{"PRN":17,"gnssid":0,"svid":17,"az":183.0,"el":15.0,"prRes":0.0,"qual":4,"ss":17.0,"used":false,"health":1},{"PRN":20,"gnssid":0,"svid":20,"az":253.0,"el":3.0,"prRes":0.0,"qual":1,"ss":0.0,"used":false,"health":1},{"PRN":21,"gnssid":0,"svid":21,"az":95.0,"el":11.0,"prRes":0.0,"qual":1,"ss":0.0,"used":false,"health":1},{"PRN":22,"gnssid":0,"svid":22,"az":240.0,"el":37.0,"prRes":-122.9,"qual":4,"ss":24.0,"used":true,"health":1},{"PRN":27,"gnssid":0,"svid":27,"az":35.0,"el":7.0,"prRes":0.0,"qual":1,"ss":0.0,"used":false,"health":1},{"PRN":30,"gnssid":0,"svid":30,"az":319.0,"el":79.0,"prRes":0.0,"qual":4,"ss":20.0,"used":false,"health":1},{"PRN":46,"gnssid":1,"svid":133,"az":197.0,"el":35.0,"prRes":0.0,"qual":1,"ss":0.0,"used":false,"health":2},{"PRN":48,"gnssid":1,"svid":135,"az":191.0,"el":36.0,"prRes":0.0,"qual":1,"ss":0.0,"used":false,"health":2},{"PRN":51,"gnssid":1,"svid":138,"az":167.0,"el":36.0,"prRes":0.0,"qual":1,"ss":0.0,"used":false,"health":2},{"PRN":194,"gnssid":5,"svid":2,"az":0.0,"prRes":0.0,"qual":1,"ss":0.0,"used":false,"health":2},{"PRN":196,"gnssid":5,"svid":4,"az":307.0,"el":6.0,"prRes":0.0,"qual":1,"ss":0.0,"used":false,"health":1},{"PRN":197,"gnssid":5,"svid":5,"az":0.0,"prRes":0.0,"qual":1,"ss":0.0,"used":false,"health":2}]}
{"class":"SKY","time":"2024-03-28T15:14:07.000Z","gdop":3.70,"hdop":1.29,"pdop":3.25,"tdop":1.76,"xdop":0.92,"ydop":0.90,"vdop":2.99}
$GPZDA,151407.00,28,03,2024,00,00*6D
$GPGGA,151407.00,4624.2785248,N,11701.2281326,W,1,05,1.29,248.31,M,-15.351,M,,*5F
$GPRMC,151407.00,A,4624.2785248,N,11701.2281326,W,0.5798,111.272,280324,13.9,E*47
$GPGSA,A,3,8,9,13,14,22,,,,,,,,3.2,1.3,3.0*34
$GPGBS,151407.00,13.800,13.500,68.770,,,,*74
{"class":"TPV","mode":3,"time":"2024-03-28T15:14:07.000Z","leapseconds":18,"ept":0.005,"lat":46.404642080,"lon":-117.020468876,"altHAE":232.9593,"altMSL":248.3098,"alt":248.3098,"epx":13.800,"epy":13.500,"epv":68.770,"track":111.2723,"magtrack":125.1239,"magvar":13.9,"speed":0.298,"climb":0.006,"eps":27.60,"epc":137.54,"ecefx":-2001691.83,"ecefy":-3925074.28,"ecefz":4596546.16,"ecefvx":0.21,"ecefvy":-0.20,"ecefvz":-0.07,"ecefpAcc":24.46,"ecefvAcc":1.03,"velN":-0.108,"velE":0.278,"velD":-0.006,"geoidSep":-15.351,"eph":24.510,"sep":61.750,"clockbias":-446602,"clockdrift":-429}
$GPZDA,151408.00,28,03,2024,00,00*62
$GPGGA,151408.00,4624.2781708,N,11701.2280353,W,1,05,1.29,248.33,M,-15.351,M,,*54
$GPRMC,151408.00,A,4624.2781708,N,11701.2280353,W,0.9965,124.580,280324,13.9,E*42
$GPGSA,A,3,8,9,13,14,22,,,,,,,,3.2,1.3,3.0*34
$GPGBS,151408.00,13.800,13.500,68.770,,,,*7B
{"class":"TPV","mode":3,"time":"2024-03-28T15:14:08.000Z","leapseconds":18,"ept":0.005,"lat":46.404636181,"lon":-117.020467255,"altHAE":232.9761,"altMSL":248.3266,"alt":248.3266,"epx":13.800,"epy":13.500,"epv":68.770,"track":124.5800,"magtrack":138.4316,"magvar":13.9,"speed":0.513,"climb":0.001,"eps":1.02,"epc":137.54,"ecefx":-2001691.94,"ecefy":-3925074.77,"ecefz":4596545.72,"ecefvx":0.28,"ecefvy":-0.38,"ecefvz":-0.20,"ecefpAcc":24.46,"ecefvAcc":1.02,"velN":-0.291,"velE":0.422,"velD":-0.001,"geoidSep":-15.351,"eph":24.510,"sep":61.750}
{"class":"SKY","time":"2024-03-28T15:14:07.000Z","gdop":3.70,"hdop":1.29,"pdop":3.25,"tdop":1.76,"xdop":0.92,"ydop":0.90,"vdop":2.99}
$GPGSV,5,1,18,02,07,110,00,05,13,282,19,07,64,097,00,08,36,057,15*76
$GPGSV,5,2,18,09,17,167,21,13,33,310,23,14,59,246,18,15,06,324,00*7D
$GPGSV,5,3,18,17,15,183,17,20,03,253,00,21,11,095,00,22,37,240,23*71
$GPGSV,5,4,18,27,07,035,00,30,79,319,20,46,35,197,00,48,36,191,00*7A
$GPGSV,5,5,18,51,36,167,00,196,06,307,00*4D
{"class":"SKY","time":"2024-03-28T15:14:08.000Z","gdop":3.70,"hdop":1.29,"pdop":3.25,"tdop":1.76,"xdop":0.92,"ydop":0.90,"vdop":2.99,"nSat":20,"uSat":5,"satellites":[{"PRN":2,"gnssid":0,"svid":2,"az":110.0,"el":7.0,"prRes":0.0,"qual":1,"ss":0.0,"used":false,"health":1},{"PRN":5,"gnssid":0,"svid":5,"az":282.0,"el":13.0,"prRes":0.0,"qual":4,"ss":19.0,"used":false,"health":1},{"PRN":7,"gnssid":0,"svid":7,"az":97.0,"el":64.0,"prRes":0.0,"qual":1,"ss":0.0,"used":false,"health":1},{"PRN":8,"gnssid":0,"svid":8,"az":57.0,"el":36.0,"prRes":-153.6,"qual":4,"ss":15.0,"used":true,"health":1},{"PRN":9,"gnssid":0,"svid":9,"az":167.0,"el":17.0,"prRes":-284.2,"qual":4,"ss":21.0,"used":true,"health":1},{"PRN":13,"gnssid":0,"svid":13,"az":310.0,"el":33.0,"prRes":312.3,"qual":4,"ss":23.0,"used":true,"health":1},{"PRN":14,"gnssid":0,"svid":14,"az":246.0,"el":59.0,"prRes":281.6,"qual":4,"ss":18.0,"used":true,"health":1},{"PRN":15,"gnssid":0,"svid":15,"az":324.0,"el":6.0,"prRes":0.0,"qual":1,"ss":0.0,"used":false,"health":1},{"PRN":17,"gnssid":0,"svid":17,"az":183.0,"el":15.0,"prRes":0.0,"qual":4,"ss":17.0,"used":false,"health":1},{"PRN":20,"gnssid":0,"svid":20,"az":253.0,"el":3.0,"prRes":0.0,"qual":1,"ss":0.0,"used":false,"health":1},{"PRN":21,"gnssid":0,"svid":21,"az":95.0,"el":11.0,"prRes":0.0,"qual":1,"ss":0.0,"used":false,"health":1},{"PRN":22,"gnssid":0,"svid":22,"az":240.0,"el":37.0,"prRes":61.4,"qual":4,"ss":23.0,"used":true,"health":1},{"PRN":27,"gnssid":0,"svid":27,"az":35.0,"el":7.0,"prRes":0.0,"qual":1,"ss":0.0,"used":false,"health":1},{"PRN":30,"gnssid":0,"svid":30,"az":319.0,"el":79.0,"prRes":0.0,"qual":4,"ss":20.0,"used":false,"health":1},{"PRN":46,"gnssid":1,"svid":133,"az":197.0,"el":35.0,"prRes":0.0,"qual":1,"ss":0.0,"used":false,"health":2},{"PRN":48,"gnssid":1,"svid":135,"az":191.0,"el":36.0,"prRes":0.0,"qual":1,"ss":0.0,"used":false,"health":2},{"PRN":51,"gnssid":1,"svid":138,"az":167.0,"el":36.0,"prRes":0.0,"qual":1,"ss":0.0,"used":false,"health":2},{"PRN":194,"gnssid":5,"svid":2,"az":0.0,"prRes":0.0,"qual":1,"ss":0.0,"used":false,"health":2},{"PRN":196,"gnssid":5,"svid":4,"az":307.0,"el":6.0,"prRes":0.0,"qual":1,"ss":0.0,"used":false,"health":1},{"PRN":197,"gnssid":5,"svid":5,"az":0.0,"prRes":0.0,"qual":1,"ss":0.0,"used":false,"health":2}]}
{"class":"SKY","time":"2024-03-28T15:14:08.000Z","gdop":3.70,"hdop":1.29,"pdop":3.25,"tdop":1.76,"xdop":0.92,"ydop":0.90,"vdop":2.99}
$GPZDA,151408.00,28,03,2024,00,00*62
$GPGGA,151408.00,4624.2781708,N,11701.2280353,W,1,05,1.29,248.33,M,-15.351,M,,*54
$GPRMC,151408.00,A,4624.2781708,N,11701.2280353,W,0.9965,124.580,280324,13.9,E*42
$GPGSA,A,3,8,9,13,14,22,,,,,,,,3.2,1.3,3.0*34
$GPGBS,151408.00,13.800,13.500,68.770,,,,*7B
{"class":"TPV","mode":3,"time":"2024-03-28T15:14:08.000Z","leapseconds":18,"ept":0.005,"lat":46.404636181,"lon":-117.020467255,"altHAE":232.9761,"altMSL":248.3266,"alt":248.3266,"epx":13.800,"epy":13.500,"epv":68.770,"track":124.5800,"magtrack":138.4316,"magvar":13.9,"speed":0.513,"climb":0.001,"eps":27.60,"epc":137.54,"ecefx":-2001691.94,"ecefy":-3925074.77,"ecefz":4596545.72,"ecefvx":0.28,"ecefvy":-0.38,"ecefvz":-0.20,"ecefpAcc":24.46,"ecefvAcc":1.02,"velN":-0.291,"velE":0.422,"velD":-0.001,"geoidSep":-15.351,"eph":24.510,"sep":61.750,"clockbias":-447030,"clockdrift":-429}
$GPZDA,151408.00,28,03,2024,00,00*62
$GPGGA,151408.00,4624.2781708,N,11701.2280353,W,1,05,1.29,248.33,M,-15.351,M,,*54
$GPRMC,151408.00,A,4624.2781708,N,11701.2280353,W,0.9965,124.580,280324,13.9,E*42
$GPGSA,A,3,8,9,13,14,22,,,,,,,,3.2,1.3,3.0*34
$GPGBS,151408.00,13.800,13.500,68.770,,,,*7B
{"class":"TPV","mode":3,"time":"2024-03-28T15:14:08.000Z","leapseconds":18,"ept":0.005,"lat":46.404636181,"lon":-117.020467255,"altHAE":232.9761,"altMSL":248.3266,"alt":248.3266,"epx":13.800,"epy":13.500,"epv":68.770,"track":124.5800,"magtrack":138.4316,"magvar":13.9,"speed":0.513,"climb":0.001,"eps":27.60,"epc":137.54,"ecefx":-2001691.94,"ecefy":-3925074.77,"ecefz":4596545.72,"ecefvx":0.28,"ecefvy":-0.38,"ecefvz":-0.20,"ecefpAcc":24.46,"ecefvAcc":1.02,"velN":-0.291,"velE":0.422,"velD":-0.001,"geoidSep":-15.351,"eph":24.510,"sep":61.750,"jam":4,"clockbias":-447030,"clockdrift":-429}
$GPZDA,151409.00,28,03,2024,00,00*63
$GPGGA,151409.00,4624.2778408,N,11701.2286467,W,1,05,1.29,248.33,M,-15.351,M,,*56
$GPRMC,151409.00,A,4624.2778408,N,11701.2286467,W,0.7901,141.633,280324,13.9,E*44
$GPGSA,A,3,8,9,13,14,22,,,,,,,,3.2,1.3,3.0*34
$GPGBS,151409.00,13.800,13.500,68.770,,,,*7A
{"class":"TPV","mode":3,"time":"2024-03-28T15:14:09.000Z","leapseconds":18,"ept":0.005,"lat":46.404630680,"lon":-117.020477445,"altHAE":232.9784,"altMSL":248.3290,"alt":248.3290,"epx":13.800,"epy":13.500,"epv":68.770,"track":141.6331,"magtrack":155.4847,"magvar":13.9,"speed":0.406,"climb":0.000,"eps":0.96,"epc":137.54,"ecefx":-2001692.84,"ecefy":-3925074.81,"ecefz":4596545.30,"ecefvx":0.12,"ecefvy":-0.32,"ecefvz":-0.22,"ecefpAcc":24.38,"ecefvAcc":0.96,"velN":-0.319,"velE":0.252,"velD":0.000,"geoidSep":-15.351,"eph":24.510,"sep":61.750}
{"class":"SKY","time":"2024-03-28T15:14:08.000Z","gdop":3.70,"hdop":1.29,"pdop":3.25,"tdop":1.76,"xdop":0.92,"ydop":0.90,"vdop":2.99}
$GPGSV,5,1,18,02,07,110,00,05,13,282,18,07,64,097,00,08,36,057,16*74
$GPGSV,5,2,18,09,17,167,21,13,33,310,25,14,59,246,17,15,06,324,00*74
$GPGSV,5,3,18,17,15,183,19,20,03,253,00,21,11,095,00,22,37,240,23*7F
$GPGSV,5,4,18,27,07,035,00,30,79,319,20,46,35,197,00,48,36,191,00*7A
$GPGSV,5,5,18,51,36,167,00,196,06,307,00*4D
{"class":"SKY","time":"2024-03-28T15:14:09.000Z","gdop":3.70,"hdop":1.29,"pdop":3.25,"tdop":1.76,"xdop":0.92,"ydop":0.90,"vdop":2.99,"nSat":20,"uSat":5,"satellites":[{"PRN":2,"gnssid":0,"svid":2,"az":110.0,"el":7.0,"prRes":0.0,"qual":1,"ss":0.0,"used":false,"health":1},{"PRN":5,"gnssid":0,"svid":5,"az":282.0,"el":13.0,"prRes":0.0,"qual":4,"ss":18.0,"used":false,"health":1},{"PRN":7,"gnssid":0,"svid":7,"az":97.0,"el":64.0,"prRes":0.0,"qual":1,"ss":0.0,"used":false,"health":1},{"PRN":8,"gnssid":0,"svid":8,"az":57.0,"el":36.0,"prRes":-248.3,"qual":4,"ss":16.0,"used":true,"health":1},{"PRN":9,"gnssid":0,"svid":9,"az":167.0,"el":17.0,"prRes":-140.8,"qual":4,"ss":21.0,"used":true,"health":1},{"PRN":13,"gnssid":0,"svid":13,"az":310.0,"el":33.0,"prRes":-209.9,"qual":4,"ss":25.0,"used":true,"health":1},{"PRN":14,"gnssid":0,"svid":14,"az":246.0,"el":59.0,"prRes":-107.5,"qual":4,"ss":17.0,"used":true,"health":1},{"PRN":15,"gnssid":0,"svid":15,"az":324.0,"el":6.0,"prRes":0.0,"qual":1,"ss":0.0,"used":false,"health":1},{"PRN":17,"gnssid":0,"svid":17,"az":183.0,"el":15.0,"prRes":0.0,"qual":4,"ss":19.0,"used":false,"health":1},{"PRN":20,"gnssid":0,"svid":20,"az":253.0,"el":3.0,"prRes":0.0,"qual":1,"ss":0.0,"used":false,"health":1},{"PRN":21,"gnssid":0,"svid":21,"az":95.0,"el":11.0,"prRes":0.0,"qual":1,"ss":0.0,"used":false,"health":1},{"PRN":22,"gnssid":0,"svid":22,"az":240.0,"el":37.0,"prRes":-194.6,"qual":4,"ss":23.0,"used":true,"health":1},{"PRN":27,"gnssid":0,"svid":27,"az":35.0,"el":7.0,"prRes":0.0,"qual":1,"ss":0.0,"used":false,"health":1},{"PRN":30,"gnssid":0,"svid":30,"az":319.0,"el":79.0,"prRes":0.0,"qual":4,"ss":20.0,"used":false,"health":1},{"PRN":46,"gnssid":1,"svid":133,"az":197.0,"el":35.0,"prRes":0.0,"qual":1,"ss":0.0,"used":false,"health":2},{"PRN":48,"gnssid":1,"svid":135,"az":191.0,"el":36.0,"prRes":0.0,"qual":1,"ss":0.0,"used":false,"health":2},{"PRN":51,"gnssid":1,"svid":138,"az":167.0,"el":36.0,"prRes":0.0,"qual":1,"ss":0.0,"used":false,"health":2},{"PRN":194,"gnssid":5,"svid":2,"az":0.0,"prRes":0.0,"qual":1,"ss":0.0,"used":false,"health":2},{"PRN":196,"gnssid":5,"svid":4,"az":307.0,"el":6.0,"prRes":0.0,"qual":1,"ss":0.0,"used":false,"health":1},{"PRN":197,"gnssid":5,"svid":5,"az":0.0,"prRes":0.0,"qual":1,"ss":0.0,"used":false,"health":2}]}
{"class":"SKY","time":"2024-03-28T15:14:09.000Z","gdop":3.70,"hdop":1.29,"pdop":3.25,"tdop":1.76,"xdop":0.92,"ydop":0.90,"vdop":2.99}
$GPZDA,151409.00,28,03,2024,00,00*63
$GPGGA,151409.00,4624.2778408,N,11701.2286467,W,1,05,1.29,248.33,M,-15.351,M,,*56
$GPRMC,151409.00,A,4624.2778408,N,11701.2286467,W,0.7901,141.633,280324,13.9,E*44
$GPGSA,A,3,8,9,13,14,22,,,,,,,,3.2,1.3,3.0*34
$GPGBS,151409.00,13.800,13.500,68.770,,,,*7A
{"class":"TPV","mode":3,"time":"2024-03-28T15:14:09.000Z","leapseconds":18,"ept":0.005,"lat":46.404630680,"lon":-117.020477445,"altHAE":232.9784,"altMSL":248.3290,"alt":248.3290,"epx":13.800,"epy":13.500,"epv":68.770,"track":141.6331,"magtrack":155.4847,"magvar":13.9,"speed":0.406,"climb":0.000,"eps":27.60,"epc":137.54,"ecefx":-2001692.84,"ecefy":-3925074.81,"ecefz":4596545.30,"ecefvx":0.12,"ecefvy":-0.32,"ecefvz":-0.22,"ecefpAcc":24.38,"ecefvAcc":0.96,"velN":-0.319,"velE":0.252,"velD":0.000,"geoidSep":-15.351,"eph":24.510,"sep":61.750,"clockbias":-447457,"clockdrift":-429}
$GPZDA,151410.00,28,03,2024,00,00*6B
$GPGGA,151410.00,4624.2777008,N,11701.2295283,W,1,05,1.29,248.35,M,-15.351,M,,*5D
$GPRMC,151410.00,A,4624.2777008,N,11701.2295283,W,0.4303,168.016,280324,13.9,E*48
$GPGSA,A,3,8,9,13,14,22,,,,,,,,3.2,1.3,3.0*34
$GPGBS,151410.00,13.800,13.500,68.770,,,,*72
{"class":"TPV","mode":3,"time":"2024-03-28T15:14:10.000Z","leapseconds":18,"ept":0.005,"lat":46.404628346,"lon":-117.020492138,"altHAE":233.0044,"altMSL":248.3550,"alt":248.3550,"epx":13.800,"epy":13.500,"epv":68.770,"track":168.0155,"magtrack":181.8671,"magvar":13.9,"speed":0.221,"climb":-0.001,"eps":0.97,"epc":137.54,"ecefx":-2001693.94,"ecefy":-3925074.48,"ecefz":4596545.14,"ecefvx":-0.03,"ecefvy":-0.16,"ecefvz":-0.15,"ecefpAcc":24.35,"ecefvAcc":0.97,"velN":-0.217,"velE":0.046,"velD":0.001,"geoidSep":-15.351,"eph":24.510,"sep":61.750}
{"class":"SKY","time":"2024-03-28T15:14:09.000Z","gdop":3.70,"hdop":1.29,"pdop":3.25,"tdop":1.76,"xdop":0.92,"ydop":0.90,"vdop":2.99}
$GPGSV,5,1,18,02,07,110,00,05,13,282,19,07,64,097,00,08,36,057,16*75
$GPGSV,5,2,18,09,17,167,22,13,33,310,25,14,59,246,18,15,06,324,00*78
$GPGSV,5,3,18,17,15,183,19,20,03,253,00,21,11,095,00,22,37,240,24*78
$GPGSV,5,4,18,27,07,035,00,30,79,319,21,46,35,197,00,48,36,191,00*7B
$GPGSV,5,5,18,51,36,167,00,196,06,307,00*4D
{"class":"SKY","time":"2024-03-28T15:14:10.000Z","gdop":3.70,"hdop":1.29,"pdop":3.25,"tdop":1.76,"xdop":0.92,"ydop":0.90,"vdop":2.99,"nSat":19,"uSat":5,"satellites":[{"PRN":2,"gnssid":0,"svid":2,"az":110.0,"el":7.0,"prRes":0.0,"qual":1,"ss":0.0,"used":false,"health":1},{"PRN":5,"gnssid":0,"svid":5,"az":282.0,"el":13.0,"prRes":0.0,"qual":4,"ss":19.0,"used":false,"health":1},{"PRN":7,"gnssid":0,"svid":7,"az":97.0,"el":64.0,"prRes":0.0,"qual":1,"ss":0.0,"used":false,"health":1},{"PRN":8,"gnssid":0,"svid":8,"az":57.0,"el":36.0,"prRes":-245.8,"qual":4,"ss":16.0,"used":true,"health":1},{"PRN":9,"gnssid":0,"svid":9,"az":167.0,"el":17.0,"prRes":-48.6,"qual":4,"ss":22.0,"used":true,"health":1},{"PRN":13,"gnssid":0,"svid":13,"az":310.0,"el":33.0,"prRes":-81.9,"qual":4,"ss":25.0,"used":true,"health":1},{"PRN":14,"gnssid":0,"svid":14,"az":246.0,"el":59.0,"prRes":79.4,"qual":4,"ss":18.0,"used":true,"health":1},{"PRN":15,"gnssid":0,"svid":15,"az":324.0,"el":6.0,"prRes":0.0,"qual":1,"ss":0.0,"used":false,"health":1},{"PRN":17,"gnssid":0,"svid":17,"az":183.0,"el":15.0,"prRes":0.0,"qual":4,"ss":19.0,"used":false,"health":1},{"PRN":20,"gnssid":0,"svid":20,"az":253.0,"el":3.0,"prRes":0.0,"qual":1,"ss":0.0,"used":false,"health":1},{"PRN":21,"gnssid":0,"svid":21,"az":95.0,"el":11.0,"prRes":0.0,"qual":1,"ss":0.0,"used":false,"health":1},{"PRN":22,"gnssid":0,"svid":22,"az":240.0,"el":37.0,"prRes":-69.1,"qual":4,"ss":24.0,"used":true,"health":1},{"PRN":27,"gnssid":0,"svid":27,"az":35.0,"el":7.0,"prRes":0.0,"qual":1,"ss":0.0,"used":false,"health":1},{"PRN":30,"gnssid":0,"svid":30,"az":319.0,"el":79.0,"prRes":0.0,"qual":4,"ss":21.0,"used":false,"health":1},{"PRN":46,"gnssid":1,"svid":133,"az":197.0,"el":35.0,"prRes":0.0,"qual":1,"ss":0.0,"used":false,"health":2},{"PRN":48,"gnssid":1,"svid":135,"az":191.0,"el":36.0,"prRes":0.0,"qual":1,"ss":0.0,"used":false,"health":2},{"PRN":51,"gnssid":1,"svid":138,"az":167.0,"el":36.0,"prRes":0.0,"qual":1,"ss":0.0,"used":false,"health":2},{"PRN":196,"gnssid":5,"svid":4,"az":307.0,"el":6.0,"prRes":0.0,"qual":1,"ss":0.0,"used":false,"health":1},{"PRN":197,"gnssid":5,"svid":5,"az":0.0,"prRes":0.0,"qual":1,"ss":0.0,"used":false,"health":2}]}
{"class":"SKY","time":"2024-03-28T15:14:10.000Z","gdop":3.70,"hdop":1.29,"pdop":3.25,"tdop":1.76,"xdop":0.92,"ydop":0.90,"vdop":2.99}
$GPZDA,151410.00,28,03,2024,00,00*6B
$GPGGA,151410.00,4624.2777008,N,11701.2295283,W,1,05,1.29,248.35,M,-15.351,M,,*5D
$GPRMC,151410.00,A,4624.2777008,N,11701.2295283,W,0.4303,168.016,280324,13.9,E*48
$GPGSA,A,3,8,9,13,14,22,,,,,,,,3.2,1.3,3.0*34
$GPGBS,151410.00,13.800,13.500,68.770,,,,*72
{"class":"TPV","mode":3,"time":"2024-03-28T15:14:10.000Z","leapseconds":18,"ept":0.005,"lat":46.404628346,"lon":-117.020492138,"altHAE":233.0044,"altMSL":248.3550,"alt":248.3550,"epx":13.800,"epy":13.500,"epv":68.770,"track":168.0155,"magtrack":181.8671,"magvar":13.9,"speed":0.221,"climb":-0.001,"eps":27.60,"epc":137.54,"ecefx":-2001693.94,"ecefy":-3925074.48,"ecefz":4596545.14,"ecefvx":-0.03,"ecefvy":-0.16,"ecefvz":-0.15,"ecefpAcc":24.35,"ecefvAcc":0.97,"velN":-0.217,"velE":0.046,"velD":0.001,"geoidSep":-15.351,"eph":24.510,"sep":61.750,"clockbias":-447883,"clockdrift":-428}
$GPZDA,151411.00,28,03,2024,00,00*6A
$GPGGA,151411.00,4624.2774987,N,11701.2301930,W,1,05,1.29,248.38,M,-15.351,M,,*53
$GPRMC,151411.00,A,4624.2774987,N,11701.2301930,W,0.4319,198.469,280324,13.9,E*43
$GPGSA,A,3,8,9,13,14,22,,,,,,,,3.2,1.3,3.0*34
$GPGBS,151411.00,13.800,13.500,68.770,,,,*73
{"class":"TPV","mode":3,"time":"2024-03-28T15:14:11.000Z","leapseconds":18,"ept":0.005,"lat":46.404624978,"lon":-117.020503216,"altHAE":233.0296,"altMSL":248.3801,"alt":248.3801,"epx":13.800,"epy":13.500,"epv":68.770,"track":198.4685,"magtrack":212.3201,"magvar":13.9,"speed":0.222,"climb":-0.006,"eps":1.05,"epc":137.54,"ecefx":-2001694.83,"ecefy":-3925074.35,"ecefz":4596544.90,"ecefvx":-0.13,"ecefvy":-0.10,"ecefvz":-0.15,"ecefpAcc":24.26,"ecefvAcc":1.05,"velN":-0.211,"velE":-0.070,"velD":0.006,"geoidSep":-15.351,"eph":24.510,"sep":61.750}
{"class":"SKY","time":"2024-03-28T15:14:10.000Z","gdop":3.70,"hdop":1.29,"pdop":3.25,"tdop":1.76,"xdop":0.92,"ydop":0.90,"vdop":2.99}
$GPGSV,5,1,18,02,07,110,00,05,13,282,19,07,64,097,00,08,36,057,17*74
$GPGSV,5,2,18,09,17,167,22,13,33,310,24,14,59,246,17,15,06,324,00*76
$GPGSV,5,3,18,17,15,183,19,20,03,253,00,21,11,095,00,22,37,240,24*78
$GPGSV,5,4,18,27,07,035,00,30,79,319,21,46,35,197,00,48,36,191,00*7B
$GPGSV,5,5,18,51,36,167,00,196,06,307,00*4D
{"class":"SKY","time":"2024-03-28T15:14:11.000Z","gdop":3.70,"hdop":1.29,"pdop":3.25,"tdop":1.76,"xdop":0.92,"ydop":0.90,"vdop":2.99,"nSat":20,"uSat":5,"satellites":[{"PRN":2,"gnssid":0,"svid":2,"az":110.0,"el":7.0,"prRes":0.0,"qual":1,"ss":0.0,"used":false,"health":1},{"PRN":5,"gnssid":0,"svid":5,"az":282.0,"el":13.0,"prRes":0.0,"qual":4,"ss":19.0,"used":false,"health":1},{"PRN":7,"gnssid":0,"svid":7,"az":97.0,"el":64.0,"prRes":0.0,"qual":1,"ss":0.0,"used":false,"health":1},{"PRN":8,"gnssid":0,"svid":8,"az":57.0,"el":36.0,"prRes":-268.8,"qual":4,"ss":17.0,"used":true,"health":1},{"PRN":9,"gnssid":0,"svid":9,"az":167.0,"el":17.0,"prRes":-161.3,"qual":4,"ss":22.0,"used":true,"health":1},{"PRN":13,"gnssid":0,"svid":13,"az":310.0,"el":33.0,"prRes":156.2,"qual":4,"ss":24.0,"used":true,"health":1},{"PRN":14,"gnssid":0,"svid":14,"az":246.0,"el":59.0,"prRes":-189.4,"qual":4,"ss":17.0,"used":true,"health":1},{"PRN":15,"gnssid":0,"svid":15,"az":324.0,"el":6.0,"prRes":0.0,"qual":1,"ss":0.0,"used":false,"health":1},{"PRN":17,"gnssid":0,"svid":17,"az":183.0,"el":15.0,"prRes":0.0,"qual":4,"ss":19.0,"used":false,"health":1},{"PRN":20,"gnssid":0,"svid":20,"az":253.0,"el":3.0,"prRes":0.0,"qual":1,"ss":0.0,"used":false,"health":1},{"PRN":21,"gnssid":0,"svid":21,"az":95.0,"el":11.0,"prRes":0.0,"qual":1,"ss":0.0,"used":false,"health":1},{"PRN":22,"gnssid":0,"svid":22,"az":240.0,"el":37.0,"prRes":145.9,"qual":4,"ss":24.0,"used":true,"health":1},{"PRN":27,"gnssid":0,"svid":27,"az":35.0,"el":7.0,"prRes":0.0,"qual":1,"ss":0.0,"used":false,"health":1},{"PRN":30,"gnssid":0,"svid":30,"az":319.0,"el":79.0,"prRes":0.0,"qual":4,"ss":21.0,"used":false,"health":1},{"PRN":46,"gnssid":1,"svid":133,"az":197.0,"el":35.0,"prRes":0.0,"qual":1,"ss":0.0,"used":false,"health":2},{"PRN":48,"gnssid":1,"svid":135,"az":191.0,"el":36.0,"prRes":0.0,"qual":1,"ss":0.0,"used":false,"health":2},{"PRN":51,"gnssid":1,"svid":138,"az":167.0,"el":36.0,"prRes":0.0,"qual":1,"ss":0.0,"used":false,"health":2},{"PRN":193,"gnssid":5,"svid":1,"az":0.0,"prRes":0.0,"qual":1,"ss":0.0,"used":false,"health":2},{"PRN":196,"gnssid":5,"svid":4,"az":307.0,"el":6.0,"prRes":0.0,"qual":1,"ss":0.0,"used":false,"health":1},{"PRN":197,"gnssid":5,"svid":5,"az":0.0,"prRes":0.0,"qual":1,"ss":0.0,"used":false,"health":2}]}
{"class":"SKY","time":"2024-03-28T15:14:11.000Z","gdop":3.70,"hdop":1.29,"pdop":3.25,"tdop":1.76,"xdop":0.92,"ydop":0.90,"vdop":2.99}
$GPZDA,151411.00,28,03,2024,00,00*6A
$GPGGA,151411.00,4624.2774987,N,11701.2301930,W,1,05,1.29,248.38,M,-15.351,M,,*53
$GPRMC,151411.00,A,4624.2774987,N,11701.2301930,W,0.4319,198.469,280324,13.9,E*43
$GPGSA,A,3,8,9,13,14,22,,,,,,,,3.2,1.3,3.0*34
$GPGBS,151411.00,13.800,13.500,68.770,,,,*73
{"class":"TPV","mode":3,"time":"2024-03-28T15:14:11.000Z","leapseconds":18,"ept":0.005,"lat":46.404624978,"lon":-117.020503216,"altHAE":233.0296,"altMSL":248.3801,"alt":248.3801,"epx":13.800,"epy":13.500,"epv":68.770,"track":198.4685,"magtrack":212.3201,"magvar":13.9,"speed":0.222,"climb":-0.006,"eps":27.60,"epc":137.54,"ecefx":-2001694.83,"ecefy":-3925074.35,"ecefz":4596544.90,"ecefvx":-0.13,"ecefvy":-0.10,"ecefvz":-0.15,"ecefpAcc":24.26,"ecefvAcc":1.05,"velN":-0.211,"velE":-0.070,"velD":0.006,"geoidSep":-15.351,"eph":24.510,"sep":61.750,"clockbias":-448309,"clockdrift":-428}
$GPZDA,151412.00,28,03,2024,00,00*69
$GPGGA,151412.00,4624.2773462,N,11701.2315873,W,1,05,1.29,248.43,M,-15.351,M,,*5E
$GPRMC,151412.00,A,4624.2773462,N,11701.2315873,W,1.0849,246.813,280324,13.9,E*48
$GPGSA,A,3,8,9,13,14,22,,,,,,,,3.2,1.3,3.0*34
$GPGBS,151412.00,13.800,13.500,68.770,,,,*70
{"class":"TPV","mode":3,"time":"2024-03-28T15:14:12.000Z","leapseconds":18,"ept":0.005,"lat":46.404622436,"lon":-117.020526454,"altHAE":233.0777,"altMSL":248.4283,"alt":248.4283,"epx":13.800,"epy":13.500,"epv":68.770,"track":246.8128,"magtrack":260.6644,"magvar":13.9,"speed":0.558,"climb":0.002,"eps":1.14,"epc":137.54,"ecefx":-2001696.53,"ecefy":-3925073.75,"ecefz":4596544.74,"ecefvx":-0.53,"ecefvy":0.09,"ecefvz":-0.15,"ecefpAcc":24.24,"ecefvAcc":1.14,"velN":-0.220,"velE":-0.513,"velD":-0.002,"geoidSep":-15.351,"eph":24.510,"sep":61.750}
{"class":"SKY","time":"2024-03-28T15:14:11.000Z","gdop":3.70,"hdop":1.29,"pdop":3.25,"tdop":1.76,"xdop":0.92,"ydop":0.90,"vdop":2.99}
$GPGSV,5,1,18,02,07,110,00,05,13,282,19,07,64,097,00,08,36,057,16*75
$GPGSV,5,2,18,09,17,167,21,13,33,310,22,14,59,246,16,15,06,324,00*72
$GPGSV,5,3,18,17,15,183,18,20,03,253,00,21,11,095,00,22,37,240,23*7E
$GPGSV,5,4,18,27,07,035,00,30,79,319,20,46,35,197,00,48,36,191,00*7A
$GPGSV,5,5,18,51,36,167,00,196,06,307,00*4D
{"class":"SKY","time":"2024-03-28T15:14:12.000Z","gdop":3.70,"hdop":1.29,"pdop":3.25,"tdop":1.76,"xdop":0.92,"ydop":0.90,"vdop":2.99,"nSat":20,"uSat":5,"satellites":[{"PRN":2,"gnssid":0,"svid":2,"az":110.0,"el":7.0,"prRes":0.0,"qual":1,"ss":0.0,"used":false,"health":1},{"PRN":5,"gnssid":0,"svid":5,"az":282.0,"el":13.0,"prRes":0.0,"qual":4,"ss":19.0,"used":false,"health":1},{"PRN":7,"gnssid":0,"svid":7,"az":97.0,"el":64.0,"prRes":0.0,"qual":1,"ss":0.0,"used":false,"health":1},{"PRN":8,"gnssid":0,"svid":8,"az":57.0,"el":36.0,"prRes":-92.2,"qual":4,"ss":16.0,"used":true,"health":1},{"PRN":9,"gnssid":0,"svid":9,"az":167.0,"el":17.0,"prRes":-186.9,"qual":4,"ss":21.0,"used":true,"health":1},{"PRN":13,"gnssid":0,"svid":13,"az":310.0,"el":33.0,"prRes":212.5,"qual":4,"ss":22.0,"used":true,"health":1},{"PRN":14,"gnssid":0,"svid":14,"az":246.0,"el":59.0,"prRes":-56.3,"qual":4,"ss":16.0,"used":true,"health":1},{"PRN":15,"gnssid":0,"svid":15,"az":324.0,"el":6.0,"prRes":0.0,"qual":1,"ss":0.0,"used":false,"health":1},{"PRN":17,"gnssid":0,"svid":17,"az":183.0,"el":15.0,"prRes":0.0,"qual":4,"ss":18.0,"used":false,"health":1},{"PRN":20,"gnssid":0,"svid":20,"az":253.0,"el":3.0,"prRes":0.0,"qual":1,"ss":0.0,"used":false,"health":1},{"PRN":21,"gnssid":0,"svid":21,"az":95.0,"el":11.0,"prRes":0.0,"qual":1,"ss":0.0,"used":false,"health":1},{"PRN":22,"gnssid":0,"svid":22,"az":240.0,"el":37.0,"prRes":-115.2,"qual":4,"ss":23.0,"used":true,"health":1},{"PRN":27,"gnssid":0,"svid":27,"az":35.0,"el":7.0,"prRes":0.0,"qual":1,"ss":0.0,"used":false,"health":1},{"PRN":30,"gnssid":0,"svid":30,"az":319.0,"el":79.0,"prRes":0.0,"qual":4,"ss":20.0,"used":false,"health":1},{"PRN":46,"gnssid":1,"svid":133,"az":197.0,"el":35.0,"prRes":0.0,"qual":1,"ss":0.0,"used":false,"health":2},{"PRN":48,"gnssid":1,"svid":135,"az":191.0,"el":36.0,"prRes":0.0,"qual":1,"ss":0.0,"used":false,"health":2},{"PRN":51,"gnssid":1,"svid":138,"az":167.0,"el":36.0,"prRes":0.0,"qual":1,"ss":0.0,"used":false,"health":2},{"PRN":193,"gnssid":5,"svid":1,"az":0.0,"prRes":0.0,"qual":1,"ss":0.0,"used":false,"health":2},{"PRN":196,"gnssid":5,"svid":4,"az":307.0,"el":6.0,"prRes":0.0,"qual":1,"ss":0.0,"used":false,"health":1},{"PRN":197,"gnssid":5,"svid":5,"az":0.0,"prRes":0.0,"qual":1,"ss":0.0,"used":false,"health":2}]}
{"class":"SKY","time":"2024-03-28T15:14:12.000Z","gdop":3.70,"hdop":1.29,"pdop":3.25,"tdop":1.76,"xdop":0.92,"ydop":0.90,"vdop":2.99}
$GPZDA,151412.00,28,03,2024,00,00*69
$GPGGA,151412.00,4624.2773462,N,11701.2315873,W,1,05,1.29,248.43,M,-15.351,M,,*5E
$GPRMC,151412.00,A,4624.2773462,N,11701.2315873,W,1.0849,246.813,280324,13.9,E*48
$GPGSA,A,3,8,9,13,14,22,,,,,,,,3.2,1.3,3.0*34
$GPGBS,151412.00,13.800,13.500,68.770,,,,*70
{"class":"TPV","mode":3,"time":"2024-03-28T15:14:12.000Z","leapseconds":18,"ept":0.005,"lat":46.404622436,"lon":-117.020526454,"altHAE":233.0777,"altMSL":248.4283,"alt":248.4283,"epx":13.800,"epy":13.500,"epv":68.770,"track":246.8128,"magtrack":260.6644,"magvar":13.9,"speed":0.558,"climb":0.002,"eps":27.60,"epc":137.54,"ecefx":-2001696.53,"ecefy":-3925073.75,"ecefz":4596544.74,"ecefvx":-0.53,"ecefvy":0.09,"ecefvz":-0.15,"ecefpAcc":24.24,"ecefvAcc":1.14,"velN":-0.220,"velE":-0.513,"velD":-0.002,"geoidSep":-15.351,"eph":24.510,"sep":61.750,"clockbias":-448736,"clockdrift":-428}
$GPZDA,151412.00,28,03,2024,00,00*69
$GPGGA,151412.00,4624.2773462,N,11701.2315873,W,1,05,1.29,248.43,M,-15.351,M,,*5E
$GPRMC,151412.00,A,4624.2773462,N,11701.2315873,W,1.0849,246.813,280324,13.9,E*48
$GPGSA,A,3,8,9,13,14,22,,,,,,,,3.2,1.3,3.0*34
$GPGBS,151412.00,13.800,13.500,68.770,,,,*70
{"class":"TPV","mode":3,"time":"2024-03-28T15:14:12.000Z","leapseconds":18,"ept":0.005,"lat":46.404622436,"lon":-117.020526454,"altHAE":233.0777,"altMSL":248.4283,"alt":248.4283,"epx":13.800,"epy":13.500,"epv":68.770,"track":246.8128,"magtrack":260.6644,"magvar":13.9,"speed":0.558,"climb":0.002,"eps":27.60,"epc":137.54,"ecefx":-2001696.53,"ecefy":-3925073.75,"ecefz":4596544.74,"ecefvx":-0.53,"ecefvy":0.09,"ecefvz":-0.15,"ecefpAcc":24.24,"ecefvAcc":1.14,"velN":-0.220,"velE":-0.513,"velD":-0.002,"geoidSep":-15.351,"eph":24.510,"sep":61.750,"jam":2,"clockbias":-448736,"clockdrift":-428}
$GPZDA,151413.00,28,03,2024,00,00*68
$GPGGA,151413.00,4624.2774153,N,11701.2321742,W,1,05,1.29,248.40,M,-15.351,M,,*56
$GPRMC,151413.00,A,4624.2774153,N,11701.2321742,W,0.8684,258.478,280324,13.9,E*4B
$GPGSA,A,3,8,9,13,14,22,,,,,,,,3.2,1.3,3.0*34
$GPGBS,151413.00,13.800,13.500,68.770,,,,*71
{"class":"TPV","mode":3,"time":"2024-03-28T15:14:13.000Z","leapseconds":18,"ept":0.005,"lat":46.404623589,"lon":-117.020536236,"altHAE":233.0523,"altMSL":248.4029,"alt":248.4029,"epx":13.800,"epy":13.500,"epv":68.770,"track":258.4778,"magtrack":272.3294,"magvar":13.9,"speed":0.447,"climb":0.002,"eps":1.09,"epc":137.54,"ecefx":-2001697.15,"ecefy":-3925073.31,"ecefz":4596544.81,"ecefvx":-0.42,"ecefvy":0.14,"ecefvz":-0.06,"ecefpAcc":24.12,"ecefvAcc":1.09,"velN":-0.089,"velE":-0.438,"velD":-0.002,"geoidSep":-15.351,"eph":24.510,"sep":61.750}
{"class":"SKY","time":"2024-03-28T15:14:12.000Z","gdop":3.70,"hdop":1.29,"pdop":3.25,"tdop":1.76,"xdop":0.92,"ydop":0.90,"vdop":2.99}
$GPGSV,5,1,18,02,07,110,00,05,13,282,20,07,64,097,00,08,36,057,19*70
$GPGSV,5,2,18,09,17,167,21,13,33,310,29,14,59,246,16,15,06,324,00*79
$GPGSV,5,3,18,17,15,183,18,20,03,253,00,21,11,095,00,22,37,240,24*79
$GPGSV,5,4,18,27,07,035,00,30,79,319,19,46,35,197,00,48,36,191,00*70
$GPGSV,5,5,18,51,36,167,00,196,06,307,00*4D
{"class":"SKY","time":"2024-03-28T15:14:13.000Z","gdop":3.70,"hdop":1.29,"pdop":3.25,"tdop":1.76,"xdop":0.92,"ydop":0.90,"vdop":2.99,"nSat":20,"uSat":5,"satellites":[{"PRN":2,"gnssid":0,"svid":2,"az":110.0,"el":7.0,"prRes":0.0,"qual":1,"ss":0.0,"used":false,"health":1},{"PRN":5,"gnssid":0,"svid":5,"az":282.0,"el":13.0,"prRes":0.0,"qual":4,"ss":20.0,"used":false,"health":1},{"PRN":7,"gnssid":0,"svid":7,"az":97.0,"el":64.0,"prRes":0.0,"qual":1,"ss":0.0,"used":false,"health":1},{"PRN":8,"gnssid":0,"svid":8,"az":57.0,"el":36.0,"prRes":-304.6,"qual":4,"ss":19.0,"used":true,"health":1},{"PRN":9,"gnssid":0,"svid":9,"az":167.0,"el":17.0,"prRes":174.1,"qual":4,"ss":21.0,"used":true,"health":1},{"PRN":13,"gnssid":0,"svid":13,"az":310.0,"el":33.0,"prRes":169.0,"qual":4,"ss":29.0,"used":true,"health":1},{"PRN":14,"gnssid":0,"svid":14,"az":246.0,"el":59.0,"prRes":-235.5,"qual":4,"ss":16.0,"used":true,"health":1},{"PRN":15,"gnssid":0,"svid":15,"az":324.0,"el":6.0,"prRes":0.0,"qual":1,"ss":0.0,"used":false,"health":1},{"PRN":17,"gnssid":0,"svid":17,"az":183.0,"el":15.0,"prRes":0.0,"qual":4,"ss":18.0,"used":false,"health":1},{"PRN":20,"gnssid":0,"svid":20,"az":253.0,"el":3.0,"prRes":0.0,"qual":1,"ss":0.0,"used":false,"health":1},{"PRN":21,"gnssid":0,"svid":21,"az":95.0,"el":11.0,"prRes":0.0,"qual":1,"ss":0.0,"used":false,"health":1},{"PRN":22,"gnssid":0,"svid":22,"az":240.0,"el":37.0,"prRes":-256.0,"qual":4,"ss":24.0,"used":true,"health":1},{"PRN":27,"gnssid":0,"svid":27,"az":35.0,"el":7.0,"prRes":0.0,"qual":1,"ss":0.0,"used":false,"health":1},{"PRN":30,"gnssid":0,"svid":30,"az":319.0,"el":79.0,"prRes":0.0,"qual":4,"ss":19.0,"used":false,"health":1},{"PRN":46,"gnssid":1,"svid":133,"az":197.0,"el":35.0,"prRes":0.0,"qual":1,"ss":0.0,"used":false,"health":2},{"PRN":48,"gnssid":1,"svid":135,"az":191.0,"el":36.0,"prRes":0.0,"qual":1,"ss":0.0,"used":false,"health":2},{"PRN":51,"gnssid":1,"svid":138,"az":167.0,"el":36.0,"prRes":0.0,"qual":1,"ss":0.0,"used":false,"health":2},{"PRN":193,"gnssid":5,"svid":1,"az":0.0,"prRes":0.0,"qual":1,"ss":0.0,"used":false,"health":2},{"PRN":196,"gnssid":5,"svid":4,"az":307.0,"el":6.0,"prRes":0.0,"qual":1,"ss":0.0,"used":false,"health":1},{"PRN":197,"gnssid":5,"svid":5,"az":0.0,"prRes":0.0,"qual":1,"ss":0.0,"used":false,"health":2}]}
{"class":"SKY","time":"2024-03-28T15:14:13.000Z","gdop":3.70,"hdop":1.29,"pdop":3.25,"tdop":1.76,"xdop":0.92,"ydop":0.90,"vdop":2.99}
$GPZDA,151413.00,28,03,2024,00,00*68
$GPGGA,151413.00,4624.2774153,N,11701.2321742,W,1,05,1.29,248.40,M,-15.351,M,,*56
$GPRMC,151413.00,A,4624.2774153,N,11701.2321742,W,0.8684,258.478,280324,13.9,E*4B
$GPGSA,A,3,8,9,13,14,22,,,,,,,,3.2,1.3,3.0*34
$GPGBS,151413.00,13.800,13.500,68.770,,,,*71
{"class":"TPV","mode":3,"time":"2024-03-28T15:14:13.000Z","leapseconds":18,"ept":0.005,"lat":46.404623589,"lon":-117.020536236,"altHAE":233.0523,"altMSL":248.4029,"alt":248.4029,"epx":13.800,"epy":13.500,"epv":68.770,"track":258.4778,"magtrack":272.3294,"magvar":13.9,"speed":0.447,"climb":0.002,"eps":27.60,"epc":137.54,"ecefx":-2001697.15,"ecefy":-3925073.31,"ecefz":4596544.81,"ecefvx":-0.42,"ecefvy":0.14,"ecefvz":-0.06,"ecefpAcc":24.12,"ecefvAcc":1.09,"velN":-0.089,"velE":-0.438,"velD":-0.002,"geoidSep":-15.351,"eph":24.510,"sep":61.750,"clockbias":-449164,"clockdrift":-428}
$GPZDA,151414.00,28,03,2024,00,00*6F
$GPGGA,151414.00,4624.2771483,N,11701.2321298,W,1,05,1.29,248.46,M,-15.351,M,,*58
$GPRMC,151414.00,A,4624.2771483,N,11701.2321298,W,0.6580,210.681,280324,13.9,E*42
$GPGSA,A,3,8,9,13,14,22,,,,,,,,3.2,1.3,3.0*34
$GPGBS,151414.00,13.800,13.500,68.770,,,,*76
{"class":"TPV","mode":3,"time":"2024-03-28T15:14:14.000Z","leapseconds":18,"ept":0.005,"lat":46.404619138,"lon":-117.020535497,"altHAE":233.1092,"altMSL":248.4598,"alt":248.4598,"epx":13.800,"epy":13.500,"epv":68.770,"track":210.6814,"magtrack":224.5330,"magvar":13.9,"speed":0.339,"climb":0.001,"eps":1.08,"epc":137.54,"ecefx":-2001697.28,"ecefy":-3925073.69,"ecefz":4596544.51,"ecefvx":-0.25,"ecefvy":-0.11,"ecefvz":-0.20,"ecefpAcc":24.04,"ecefvAcc":1.08,"velN":-0.291,"velE":-0.173,"velD":-0.001,"geoidSep":-15.351,"eph":24.510,"sep":61.750}
{"class":"SKY","time":"2024-03-28T15:14:13.000Z","gdop":3.70,"hdop":1.29,"pdop":3.25,"tdop":1.76,"xdop":0.92,"ydop":0.90,"vdop":2.99}
$GPGSV,5,1,18,02,07,110,00,05,13,282,29,07,64,097,00,08,36,057,23*70
$GPGSV,5,2,18,09,17,167,20,13,33,310,22,14,59,246,17,15,06,324,00*72
$GPGSV,5,3,18,17,15,183,18,20,03,253,22,21,11,095,00,22,37,240,23*7E
$GPGSV,5,4,18,27,07,035,00,30,79,319,21,46,35,197,00,48,36,191,00*7B
$GPGSV,5,5,18,51,36,167,00,196,06,307,25*4A
{"class":"SKY","time":"2024-03-28T15:14:14.000Z","gdop":3.70,"hdop":1.29,"pdop":3.25,"tdop":1.76,"xdop":0.92,"ydop":0.90,"vdop":2.99,"nSat":19,"uSat":5,"satellites":[{"PRN":2,"gnssid":0,"svid":2,"az":110.0,"el":7.0,"prRes":0.0,"qual":1,"ss":0.0,"used":false,"health":1},{"PRN":5,"gnssid":0,"svid":5,"az":282.0,"el":13.0,"prRes":0.0,"qual":4,"ss":29.0,"used":false,"health":1},{"PRN":7,"gnssid":0,"svid":7,"az":97.0,"el":64.0,"prRes":0.0,"qual":1,"ss":0.0,"used":false,"health":1},{"PRN":8,"gnssid":0,"svid":8,"az":57.0,"el":36.0,"prRes":-140.8,"qual":4,"ss":23.0,"used":true,"health":1},{"PRN":9,"gnssid":0,"svid":9,"az":167.0,"el":17.0,"prRes":261.1,"qual":4,"ss":20.0,"used":true,"health":1},{"PRN":13,"gnssid":0,"svid":13,"az":310.0,"el":33.0,"prRes":-41.0,"qual":4,"ss":22.0,"used":true,"health":1},{"PRN":14,"gnssid":0,"svid":14,"az":246.0,"el":59.0,"prRes":-156.2,"qual":4,"ss":17.0,"used":true,"health":1},{"PRN":15,"gnssid":0,"svid":15,"az":324.0,"el":6.0,"prRes":0.0,"qual":1,"ss":0.0,"used":false,"health":1},{"PRN":17,"gnssid":0,"svid":17,"az":183.0,"el":15.0,"prRes":0.0,"qual":4,"ss":18.0,"used":false,"health":1},{"PRN":20,"gnssid":0,"svid":20,"az":253.0,"el":3.0,"prRes":0.0,"qual":3,"ss":22.0,"used":false,"health":1},{"PRN":21,"gnssid":0,"svid":21,"az":95.0,"el":11.0,"prRes":0.0,"qual":1,"ss":0.0,"used":false,"health":1},{"PRN":22,"gnssid":0,"svid":22,"az":240.0,"el":37.0,"prRes":17.9,"qual":4,"ss":23.0,"used":true,"health":1},{"PRN":27,"gnssid":0,"svid":27,"az":35.0,"el":7.0,"prRes":0.0,"qual":1,"ss":0.0,"used":false,"health":1},{"PRN":30,"gnssid":0,"svid":30,"az":319.0,"el":79.0,"prRes":0.0,"qual":4,"ss":21.0,"used":false,"health":1},{"PRN":46,"gnssid":1,"svid":133,"az":197.0,"el":35.0,"prRes":0.0,"qual":1,"ss":0.0,"used":false,"health":2},{"PRN":48,"gnssid":1,"svid":135,"az":191.0,"el":36.0,"prRes":0.0,"qual":1,"ss":0.0,"used":false,"health":2},{"PRN":51,"gnssid":1,"svid":138,"az":167.0,"el":36.0,"prRes":0.0,"qual":1,"ss":0.0,"used":false,"health":2},{"PRN":193,"gnssid":5,"svid":1,"az":0.0,"prRes":0.0,"qual":1,"ss":0.0,"used":false,"health":2},{"PRN":196,"gnssid":5,"svid":4,"az":307.0,"el":6.0,"prRes":0.0,"qual":3,"ss":25.0,"used":false,"health":1}]}
{"class":"SKY","time":"2024-03-28T15:14:14.000Z","gdop":3.70,"hdop":1.29,"pdop":3.25,"tdop":1.76,"xdop":0.92,"ydop":0.90,"vdop":2.99}
$GPZDA,151414.00,28,03,2024,00,00*6F
$GPGGA,151414.00,4624.2771483,N,11701.2321298,W,1,05,1.29,248.46,M,-15.351,M,,*58
$GPRMC,151414.00,A,4624.2771483,N,11701.2321298,W,0.6580,210.681,280324,13.9,E*42
$GPGSA,A,3,8,9,13,14,22,,,,,,,,3.2,1.3,3.0*34
$GPGBS,151414.00,13.800,13.500,68.770,,,,*76
{"class":"TPV","mode":3,"time":"2024-03-28T15:14:14.000Z","leapseconds":18,"ept":0.005,"lat":46.404619138,"lon":-117.020535497,"altHAE":233.1092,"altMSL":248.4598,"alt":248.4598,"epx":13.800,"epy":13.500,"epv":68.770,"track":210.6814,"magtrack":224.5330,"magvar":13.9,"speed":0.339,"climb":0.001,"eps":27.60,"epc":137.54,"ecefx":-2001697.28,"ecefy":-3925073.69,"ecefz":4596544.51,"ecefvx":-0.25,"ecefvy":-0.11,"ecefvz":-0.20,"ecefpAcc":24.04,"ecefvAcc":1.08,"velN":-0.291,"velE":-0.173,"velD":-0.001,"geoidSep":-15.351,"eph":24.510,"sep":61.750,"clockbias":-449593,"clockdrift":-429}
$GPZDA,151415.00,28,03,2024,00,00*6E
$GPGGA,151415.00,4624.2769728,N,11701.2322436,W,1,05,1.29,248.44,M,-15.351,M,,*51
$GPRMC,151415.00,A,4624.2769728,N,11701.2322436,W,0.4567,186.226,280324,13.9,E*47
$GPGSA,A,3,8,9,13,14,22,,,,,,,,3.2,1.3,3.0*34
$GPGBS,151415.00,13.800,13.500,68.770,,,,*77
{"class":"TPV","mode":3,"time":"2024-03-28T15:14:15.000Z","leapseconds":18,"ept":0.005,"lat":46.404616214,"lon":-117.020537394,"altHAE":233.0873,"altMSL":248.4379,"alt":248.4379,"epx":13.800,"epy":13.500,"epv":68.770,"track":186.2263,"magtrack":200.0779,"magvar":13.9,"speed":0.235,"climb":0.001,"eps":1.18,"epc":137.54,"ecefx":-2001697.51,"ecefy":-3925073.82,"ecefz":4596544.27,"ecefvx":-0.10,"ecefvy":-0.14,"ecefvz":-0.16,"ecefpAcc":24.12,"ecefvAcc":1.18,"velN":-0.234,"velE":-0.025,"velD":-0.001,"geoidSep":-15.351,"eph":24.510,"sep":61.750}
{"class":"SKY","time":"2024-03-28T15:14:14.000Z","gdop":3.70,"hdop":1.29,"pdop":3.25,"tdop":1.76,"xdop":0.92,"ydop":0.90,"vdop":2.99}
$GPGSV,5,1,18,02,07,110,17,05,13,282,28,07,64,097,00,08,36,057,20*74
$GPGSV,5,2,18,09,17,167,18,13,33,310,23,14,59,246,17,15,06,324,00*78
$GPGSV,5,3,18,17,15,183,20,20,03,253,22,21,11,095,00,22,37,240,28*7E
$GPGSV,5,4,18,27,07,035,00,30,79,319,21,46,35,197,00,48,36,191,00*7B
$GPGSV,5,5,18,51,36,167,00,196,06,307,23*4C
{"class":"SKY","time":"2024-03-28T15:14:15.000Z","gdop":3.70,"hdop":1.29,"pdop":3.25,"tdop":1.76,"xdop":0.92,"ydop":0.90,"vdop":2.99,"nSat":20,"uSat":5,"satellites":[{"PRN":2,"gnssid":0,"svid":2,"az":110.0,"el":7.0,"prRes":0.0,"qual":3,"ss":17.0,"used":false,"health":1},{"PRN":5,"gnssid":0,"svid":5,"az":282.0,"el":13.0,"prRes":0.0,"qual":4,"ss":28.0,"used":false,"health":1},{"PRN":7,"gnssid":0,"svid":7,"az":97.0,"el":64.0,"prRes":0.0,"qual":1,"ss":0.0,"used":false,"health":1},{"PRN":8,"gnssid":0,"svid":8,"az":57.0,"el":36.0,"prRes":256.0,"qual":4,"ss":20.0,"used":true,"health":1},{"PRN":9,"gnssid":0,"svid":9,"az":167.0,"el":17.0,"prRes":-212.5,"qual":4,"ss":18.0,"used":true,"health":1},{"PRN":13,"gnssid":0,"svid":13,"az":310.0,"el":33.0,"prRes":145.9,"qual":4,"ss":23.0,"used":true,"health":1},{"PRN":14,"gnssid":0,"svid":14,"az":246.0,"el":59.0,"prRes":-153.6,"qual":4,"ss":17.0,"used":true,"health":1},{"PRN":15,"gnssid":0,"svid":15,"az":324.0,"el":6.0,"prRes":0.0,"qual":1,"ss":0.0,"used":false,"health":1},{"PRN":17,"gnssid":0,"svid":17,"az":183.0,"el":15.0,"prRes":0.0,"qual":4,"ss":20.0,"used":false,"health":1},{"PRN":20,"gnssid":0,"svid":20,"az":253.0,"el":3.0,"prRes":0.0,"qual":3,"ss":22.0,"used":false,"health":1},{"PRN":21,"gnssid":0,"svid":21,"az":95.0,"el":11.0,"prRes":0.0,"qual":1,"ss":0.0,"used":false,"health":1},{"PRN":22,"gnssid":0,"svid":22,"az":240.0,"el":37.0,"prRes":-33.3,"qual":4,"ss":28.0,"used":true,"health":1},{"PRN":27,"gnssid":0,"svid":27,"az":35.0,"el":7.0,"prRes":0.0,"qual":1,"ss":0.0,"used":false,"health":1},{"PRN":30,"gnssid":0,"svid":30,"az":319.0,"el":79.0,"prRes":0.0,"qual":4,"ss":21.0,"used":false,"health":1},{"PRN":46,"gnssid":1,"svid":133,"az":197.0,"el":35.0,"prRes":0.0,"qual":1,"ss":0.0,"used":false,"health":2},{"PRN":48,"gnssid":1,"svid":135,"az":191.0,"el":36.0,"prRes":0.0,"qual":1,"ss":0.0,"used":false,"health":2},{"PRN":51,"gnssid":1,"svid":138,"az":167.0,"el":36.0,"prRes":0.0,"qual":1,"ss":0.0,"used":false,"health":2},{"PRN":193,"gnssid":5,"svid":1,"az":0.0,"prRes":0.0,"qual":1,"ss":0.0,"used":false,"health":2},{"PRN":194,"gnssid":5,"svid":2,"az":0.0,"prRes":0.0,"qual":1,"ss":0.0,"used":false,"health":2},{"PRN":196,"gnssid":5,"svid":4,"az":307.0,"el":6.0,"prRes":0.0,"qual":3,"ss":23.0,"used":false,"health":1}]}
{"class":"SKY","time":"2024-03-28T15:14:15.000Z","gdop":3.70,"hdop":1.29,"pdop":3.25,"tdop":1.76,"xdop":0.92,"ydop":0.90,"vdop":2.99}
$GPZDA,151415.00,28,03,2024,00,00*6E
$GPGGA,151415.00,4624.2769728,N,11701.2322436,W,1,05,1.29,248.44,M,-15.351,M,,*51
$GPRMC,151415.00,A,4624.2769728,N,11701.2322436,W,0.4567,186.226,280324,13.9,E*47
$GPGSA,A,3,8,9,13,14,22,,,,,,,,3.2,1.3,3.0*34
$GPGBS,151415.00,13.800,13.500,68.770,,,,*77
{"class":"TPV","mode":3,"time":"2024-03-28T15:14:15.000Z","leapseconds":18,"ept":0.005,"lat":46.404616214,"lon":-117.020537394,"altHAE":233.0873,"altMSL":248.4379,"alt":248.4379,"epx":13.800,"epy":13.500,"epv":68.770,"track":186.2263,"magtrack":200.0779,"magvar":13.9,"speed":0.235,"climb":0.001,"eps":27.60,"epc":137.54,"ecefx":-2001697.51,"ecefy":-3925073.82,"ecefz":4596544.27,"ecefvx":-0.10,"ecefvy":-0.14,"ecefvz":-0.16,"ecefpAcc":24.12,"ecefvAcc":1.18,"velN":-0.234,"velE":-0.025,"velD":-0.001,"geoidSep":-15.351,"eph":24.510,"sep":61.750,"clockbias":-450021,"clockdrift":-429}
$GPZDA,151416.00,28,03,2024,00,00*6D
$GPGGA,151416.00,4624.2768923,N,11701.2326202,W,1,05,1.29,248.35,M,-15.351,M,,*55
$GPRMC,151416.00,A,4624.2768923,N,11701.2326202,W,0.2775,168.846,280324,13.9,E*4E
$GPGSA,A,3,8,9,13,14,22,,,,,,,,3.2,1.3,3.0*34
$GPGBS,151416.00,13.800,13.500,68.770,,,,*74
{"class":"TPV","mode":3,"time":"2024-03-28T15:14:16.000Z","leapseconds":18,"ept":0.005,"lat":46.404614872,"lon":-117.020543670,"altHAE":232.9946,"altMSL":248.3452,"alt":248.3452,"epx":13.800,"epy":13.500,"epv":68.770,"track":168.8462,"magtrack":182.6978,"magvar":13.9,"speed":0.143,"climb":-0.005,"eps":1.18,"epc":137.54,"ecefx":-2001697.96,"ecefy":-3925073.64,"ecefz":4596544.10,"ecefvx":-0.02,"ecefvy":-0.10,"ecefvz":-0.10,"ecefpAcc":24.21,"ecefvAcc":1.18,"velN":-0.140,"velE":0.028,"velD":0.005,"geoidSep":-15.351,"eph":24.510,"sep":61.750}
{"class":"SKY","time":"2024-03-28T15:14:15.000Z","gdop":3.70,"hdop":1.29,"pdop":3.25,"tdop":1.76,"xdop":0.92,"ydop":0.90,"vdop":2.99}
$GPGSV,5,1,18,02,07,110,15,05,13,282,27,07,64,097,00,08,36,057,15*7F
$GPGSV,5,2,18,09,17,167,16,13,33,310,22,14,59,246,14,15,06,324,00*74
$GPGSV,5,3,18,17,15,183,18,20,03,253,20,21,11,095,00,22,37,240,23*7C
$GPGSV,5,4,18,27,07,035,00,30,79,319,21,46,35,197,00,48,36,191,00*7B
$GPGSV,5,5,18,51,36,167,00,196,06,307,20*4F
{"class":"SKY","time":"2024-03-28T15:14:16.000Z","gdop":3.70,"hdop":1.29,"pdop":3.25,"tdop":1.76,"xdop":0.92,"ydop":0.90,"vdop":2.99,"nSat":20,"uSat":5,"satellites":[{"PRN":2,"gnssid":0,"svid":2,"az":110.0,"el":7.0,"prRes":0.0,"qual":3,"ss":15.0,"used":false,"health":1},{"PRN":5,"gnssid":0,"svid":5,"az":282.0,"el":13.0,"prRes":0.0,"qual":4,"ss":27.0,"used":false,"health":1},{"PRN":7,"gnssid":0,"svid":7,"az":97.0,"el":64.0,"prRes":0.0,"qual":1,"ss":0.0,"used":false,"health":1},{"PRN":8,"gnssid":0,"svid":8,"az":57.0,"el":36.0,"prRes":-133.1,"qual":4,"ss":15.0,"used":true,"health":1},{"PRN":9,"gnssid":0,"svid":9,"az":167.0,"el":17.0,"prRes":-261.1,"qual":4,"ss":16.0,"used":true,"health":1},{"PRN":13,"gnssid":0,"svid":13,"az":310.0,"el":33.0,"prRes":243.2,"qual":4,"ss":22.0,"used":true,"health":1},{"PRN":14,"gnssid":0,"svid":14,"az":246.0,"el":59.0,"prRes":-30.7,"qual":4,"ss":14.0,"used":true,"health":1},{"PRN":15,"gnssid":0,"svid":15,"az":324.0,"el":6.0,"prRes":0.0,"qual":1,"ss":0.0,"used":false,"health":1},{"PRN":17,"gnssid":0,"svid":17,"az":183.0,"el":15.0,"prRes":0.0,"qual":4,"ss":18.0,"used":false,"health":1},{"PRN":20,"gnssid":0,"svid":20,"az":253.0,"el":3.0,"prRes":0.0,"qual":3,"ss":20.0,"used":false,"health":1},{"PRN":21,"gnssid":0,"svid":21,"az":95.0,"el":11.0,"prRes":0.0,"qual":1,"ss":0.0,"used":false,"health":1},{"PRN":22,"gnssid":0,"svid":22,"az":240.0,"el":37.0,"prRes":297.0,"qual":4,"ss":23.0,"used":true,"health":1},{"PRN":27,"gnssid":0,"svid":27,"az":35.0,"el":7.0,"prRes":0.0,"qual":1,"ss":0.0,"used":false,"health":1},{"PRN":30,"gnssid":0,"svid":30,"az":319.0,"el":79.0,"prRes":0.0,"qual":4,"ss":21.0,"used":false,"health":1},{"PRN":46,"gnssid":1,"svid":133,"az":197.0,"el":35.0,"prRes":0.0,"qual":1,"ss":0.0,"used":false,"health":2},{"PRN":48,"gnssid":1,"svid":135,"az":191.0,"el":36.0,"prRes":0.0,"qual":1,"ss":0.0,"used":false,"health":2},{"PRN":51,"gnssid":1,"svid":138,"az":167.0,"el":36.0,"prRes":0.0,"qual":1,"ss":0.0,"used":false,"health":2},{"PRN":193,"gnssid":5,"svid":1,"az":0.0,"prRes":0.0,"qual":1,"ss":0.0,"used":false,"health":2},{"PRN":194,"gnssid":5,"svid":2,"az":0.0,"prRes":0.0,"qual":1,"ss":0.0,"used":false,"health":2},{"PRN":196,"gnssid":5,"svid":4,"az":307.0,"el":6.0,"prRes":0.0,"qual":3,"ss":20.0,"used":false,"health":1}]}
{"class":"SKY","time":"2024-03-28T15:14:16.000Z","gdop":3.70,"hdop":1.29,"pdop":3.25,"tdop":1.76,"xdop":0.92,"ydop":0.90,"vdop":2.99}
$GPZDA,151416.00,28,03,2024,00,00*6D
$GPGGA,151416.00,4624.2768923,N,11701.2326202,W,1,05,1.29,248.35,M,-15.351,M,,*55
$GPRMC,151416.00,A,4624.2768923,N,11701.2326202,W,0.2775,168.846,280324,13.9,E*4E
$GPGSA,A,3,8,9,13,14,22,,,,,,,,3.2,1.3,3.0*34
$GPGBS,151416.00,13.800,13.500,68.770,,,,*74
{"class":"TPV","mode":3,"time":"2024-03-28T15:14:16.000Z","leapseconds":18,"ept":0.005,"lat":46.404614872,"lon":-117.020543670,"altHAE":232.9946,"altMSL":248.3452,"alt":248.3452,"epx":13.800,"epy":13.500,"epv":68.770,"track":168.8462,"magtrack":182.6978,"magvar":13.9,"speed":0.143,"climb":-0.005,"eps":27.60,"epc":137.54,"ecefx":-2001697.96,"ecefy":-3925073.64,"ecefz":4596544.10,"ecefvx":-0.02,"ecefvy":-0.10,"ecefvz":-0.10,"ecefpAcc":24.21,"ecefvAcc":1.18,"velN":-0.140,"velE":0.028,"velD":0.005,"geoidSep":-15.351,"eph":24.510,"sep":61.750,"clockbias":-450447,"clockdrift":-428}
$GPZDA,151416.00,28,03,2024,00,00*6D
$GPGGA,151416.00,4624.2768923,N,11701.2326202,W,1,05,1.29,248.35,M,-15.351,M,,*55
$GPRMC,151416.00,A,4624.2768923,N,11701.2326202,W,0.2775,168.846,280324,13.9,E*4E
$GPGSA,A,3,8,9,13,14,22,,,,,,,,3.2,1.3,3.0*34
$GPGBS,151416.00,13.800,13.500,68.770,,,,*74
{"class":"TPV","mode":3,"time":"2024-03-28T15:14:16.000Z","leapseconds":18,"ept":0.005,"lat":46.404614872,"lon":-117.020543670,"altHAE":232.9946,"altMSL":248.3452,"alt":248.3452,"epx":13.800,"epy":13.500,"epv":68.770,"track":168.8462,"magtrack":182.6978,"magvar":13.9,"speed":0.143,"climb":-0.005,"eps":27.60,"epc":137.54,"ecefx":-2001697.96,"ecefy":-3925073.64,"ecefz":4596544.10,"ecefvx":-0.02,"ecefvy":-0.10,"ecefvz":-0.10,"ecefpAcc":24.21,"ecefvAcc":1.18,"velN":-0.140,"velE":0.028,"velD":0.005,"geoidSep":-15.351,"eph":24.510,"sep":61.750,"jam":4,"clockbias":-450447,"clockdrift":-428}
$GPZDA,151417.00,28,03,2024,00,00*6C
$GPGGA,151417.00,4624.2767886,N,11701.2325116,W,1,05,1.29,248.25,M,-15.351,M,,*51
$GPRMC,151417.00,A,4624.2767886,N,11701.2325116,W,0.4790,114.567,280324,13.9,E*43
$GPGSA,A,3,8,9,13,14,22,,,,,,,,3.2,1.3,3.0*34
$GPGBS,151417.00,13.800,13.500,68.770,,,,*75
{"class":"TPV","mode":3,"time":"2024-03-28T15:14:17.000Z","leapseconds":18,"ept":0.005,"lat":46.404613143,"lon":-117.020541859,"altHAE":232.9014,"altMSL":248.2520,"alt":248.2520,"epx":13.800,"epy":13.500,"epv":68.770,"track":114.5667,"magtrack":128.4183,"magvar":13.9,"speed":0.246,"climb":-0.013,"eps":1.24,"epc":137.54,"ecefx":-2001697.87,"ecefy":-3925073.77,"ecefz":4596543.90,"ecefvx":0.17,"ecefvy":-0.16,"ecefvz":-0.08,"ecefpAcc":24.39,"ecefvAcc":1.24,"velN":-0.102,"velE":0.224,"velD":0.013,"geoidSep":-15.351,"eph":24.510,"sep":61.750}
{"class":"SKY","time":"2024-03-28T15:14:16.000Z","gdop":3.70,"hdop":1.29,"pdop":3.25,"tdop":1.76,"xdop":0.92,"ydop":0.90,"vdop":2.99}
$GPGSV,5,1,18,02,07,110,11,05,13,282,23,07,64,097,00,08,36,057,13*79
$GPGSV,5,2,18,09,17,167,15,13,33,310,21,14,59,246,14,15,06,324,00*74
$GPGSV,5,3,18,17,15,183,21,20,03,253,19,21,11,095,00,22,37,240,20*7F
$GPGSV,5,4,18,27,07,035,00,30,79,319,23,46,35,197,00,48,36,191,00*79
$GPGSV,5,5,18,51,36,167,00,196,06,307,20*4F
