$GPGSV,6,1,23,02,20,095,00,05,03,267,30,07,46,116,21,08,21,045,19*77
$GPGSV,6,2,23,13,47,293,30,15,20,314,32,17,35,181,20,19,10,194,20*7A
$GPGSV,6,3,23,21,20,078,15,22,55,256,22,30,80,111,20,46,35,197,31*77
$GPGSV,6,4,23,48,36,191,00,51,36,167,00,65,31,230,29,66,40,296,29*72
$GPGSV,6,5,23,67,10,342,00,74,15,079,00,75,61,035,25,76,39,292,29*7A
$GPGSV,6,6,23,84,30,046,00,85,35,115,16,86,05,157,00*44
{"class":"SKY","time":"2019-04-11T15:57:37.000Z","gdop":2.65,"hdop":1.02,"pdop":2.28,"tdop":1.34,"xdop":0.76,"ydop":0.68,"vdop":2.04,"nSat":23,"uSat":10,"satellites":[{"PRN":2,"gnssid":0,"svid":2,"az":95.0,"el":20.0,"prRes":9.5,"qual":1,"ss":0.0,"used":false,"health":1},{"PRN":5,"gnssid":0,"svid":5,"az":267.0,"el":3.0,"prRes":26.7,"qual":7,"ss":30.0,"used":false,"health":1},{"PRN":7,"gnssid":0,"svid":7,"az":116.0,"el":46.0,"prRes":11.6,"qual":4,"ss":21.0,"used":false,"health":1},{"PRN":8,"gnssid":0,"svid":8,"az":45.0,"el":21.0,"prRes":4.5,"qual":4,"ss":19.0,"used":false,"health":1},{"PRN":13,"gnssid":0,"svid":13,"az":293.0,"el":47.0,"prRes":29.3,"qual":7,"ss":30.0,"used":true,"health":1},{"PRN":15,"gnssid":0,"svid":15,"az":314.0,"el":20.0,"prRes":31.4,"qual":7,"ss":32.0,"used":true,"health":1},{"PRN":17,"gnssid":0,"svid":17,"az":181.0,"el":35.0,"prRes":18.1,"qual":4,"ss":20.0,"used":true,"health":1},{"PRN":19,"gnssid":0,"svid":19,"az":194.0,"el":10.0,"prRes":19.4,"qual":4,"ss":20.0,"used":true,"health":1},{"PRN":21,"gnssid":0,"svid":21,"az":78.0,"el":20.0,"prRes":7.8,"qual":4,"ss":15.0,"used":false,"health":1},{"PRN":22,"gnssid":0,"svid":22,"az":256.0,"el":55.0,"prRes":25.6,"qual":4,"ss":22.0,"used":false,"health":1},{"PRN":30,"gnssid":0,"svid":30,"az":111.0,"el":80.0,"prRes":11.1,"qual":4,"ss":20.0,"used":false,"health":1},{"PRN":46,"gnssid":1,"svid":133,"az":197.0,"el":35.0,"prRes":19.7,"qual":7,"ss":31.0,"used":true,"health":1},{"PRN":48,"gnssid":1,"svid":135,"az":191.0,"el":36.0,"prRes":19.1,"qual":1,"ss":0.0,"used":false,"health":1},{"PRN":51,"gnssid":1,"svid":138,"az":167.0,"el":36.0,"prRes":16.7,"qual":1,"ss":0.0,"used":false},{"PRN":65,"gnssid":6,"svid":1,"az":230.0,"el":31.0,"prRes":23.0,"qual":7,"ss":29.0,"used":true,"health":1},{"PRN":66,"gnssid":6,"svid":2,"az":296.0,"el":40.0,"prRes":29.6,"qual":7,"ss":29.0,"used":true,"health":1},{"PRN":67,"gnssid":6,"svid":3,"az":342.0,"el":10.0,"prRes":34.2,"qual":1,"ss":0.0,"used":false,"health":1},{"PRN":74,"gnssid":6,"svid":10,"az":79.0,"el":15.0,"prRes":7.9,"qual":1,"ss":0.0,"used":false,"health":1},{"PRN":75,"gnssid":6,"svid":11,"az":35.0,"el":61.0,"prRes":3.5,"qual":4,"ss":25.0,"used":true,"health":1},{"PRN":76,"gnssid":6,"svid":12,"az":292.0,"el":39.0,"prRes":29.2,"qual":7,"ss":29.0,"used":true,"health":1},{"PRN":84,"gnssid":6,"svid":20,"az":46.0,"el":30.0,"prRes":4.6,"qual":1,"ss":0.0,"used":false,"health":1},{"PRN":85,"gnssid":6,"svid":21,"az":115.0,"el":35.0,"prRes":11.5,"qual":4,"ss":16.0,"used":true,"health":1},{"PRN":86,"gnssid":6,"svid":22,"az":157.0,"el":5.0,"prRes":15.7,"qual":1,"ss":0.0,"used":false,"health":1}]}
{"class":"SKY","time":"2019-04-11T15:57:37.000Z","gdop":2.67,"hdop":1.02,"pdop":2.30,"tdop":1.36,"xdop":0.76,"ydop":0.68,"vdop":2.06}
$GPZDA,155737.00,28,03,2024,00,00*69
$GPGGA,155737.00,4624.2757360,N,11701.2438120,W,2,10,1.02,265.69,M,-15.351,M,,*53
$GPRMC,155737.00,A,4624.2757360,N,11701.2438120,W,0.4918,67.538,280324,13.9,E*79
$GPGSA,A,3,13,15,17,19,46,,,,,,,,2.3,1.0,2.1*3B
$GPGBS,155737.00,2.850,2.550,11.179,,,,*71
{"class":"TPV","status":2,"mode":3,"time":"2024-03-28T15:57:37.000Z","leapseconds":18,"ept":0.005,"lat":46.404595600,"lon":-117.020730200,"altHAE":247.5220,"altMSL":265.6940,"alt":265.6940,"epx":2.850,"epy":2.550,"epv":11.179,"track":67.5376,"magtrack":81.3892,"magvar":13.9,"speed":0.253,"eps":0.73,"ecefx":-2001716.00,"ecefy":-3925077.43,"ecefz":4596553.14,"ecefvx":0.21,"ecefvy":-0.13,"ecefvz":0.08,"ecefpAcc":13.70,"ecefvAcc":0.73,"geoidSep":-15.351,"eph":7.915,"sep":10.842,"jam":17,"clockbias":-97554,"clockdrift":-332}
$GPGSV,6,1,23,02,20,095,00,05,03,267,30,07,46,116,21,08,21,045,19*77
$GPGSV,6,2,23,13,47,293,30,15,20,314,33,17,35,181,19,19,10,194,20*71
$GPGSV,6,3,23,21,20,078,16,22,55,256,22,30,80,111,20,46,35,197,31*74
$GPGSV,6,4,23,48,36,191,00,51,36,167,00,65,31,230,28,66,40,296,29*73
$GPGSV,6,5,23,67,10,342,00,74,15,079,00,75,61,035,25,76,39,292,29*7A
$GPGSV,6,6,23,84,30,046,00,85,35,115,16,86,05,157,00*44
{"class":"SKY","time":"2024-03-28T15:57:38.000Z","gdop":2.65,"hdop":1.02,"pdop":2.28,"tdop":1.34,"xdop":0.76,"ydop":0.68,"vdop":2.04,"nSat":23,"uSat":10,"satellites":[{"PRN":2,"gnssid":0,"svid":2,"az":95.0,"el":20.0,"prRes":9.5,"qual":1,"ss":0.0,"used":false,"health":1},{"PRN":5,"gnssid":0,"svid":5,"az":267.0,"el":3.0,"prRes":26.7,"qual":7,"ss":30.0,"used":false,"health":1},{"PRN":7,"gnssid":0,"svid":7,"az":116.0,"el":46.0,"prRes":11.6,"qual":4,"ss":21.0,"used":false,"health":1},{"PRN":8,"gnssid":0,"svid":8,"az":45.0,"el":21.0,"prRes":4.5,"qual":4,"ss":19.0,"used":false,"health":1},{"PRN":13,"gnssid":0,"svid":13,"az":293.0,"el":47.0,"prRes":29.3,"qual":7,"ss":30.0,"used":true,"health":1},{"PRN":15,"gnssid":0,"svid":15,"az":314.0,"el":20.0,"prRes":31.4,"qual":7,"ss":33.0,"used":true,"health":1},{"PRN":17,"gnssid":0,"svid":17,"az":181.0,"el":35.0,"prRes":18.1,"qual":4,"ss":19.0,"used":true,"health":1},{"PRN":19,"gnssid":0,"svid":19,"az":194.0,"el":10.0,"prRes":19.4,"qual":4,"ss":20.0,"used":true,"health":1},{"PRN":21,"gnssid":0,"svid":21,"az":78.0,"el":20.0,"prRes":7.8,"qual":4,"ss":16.0,"used":false,"health":1},{"PRN":22,"gnssid":0,"svid":22,"az":256.0,"el":55.0,"prRes":25.6,"qual":4,"ss":22.0,"used":false,"health":1},{"PRN":30,"gnssid":0,"svid":30,"az":111.0,"el":80.0,"prRes":11.1,"qual":4,"ss":20.0,"used":false,"health":1},{"PRN":46,"gnssid":1,"svid":133,"az":197.0,"el":35.0,"prRes":19.7,"qual":7,"ss":31.0,"used":true,"health":1},{"PRN":48,"gnssid":1,"svid":135,"az":191.0,"el":36.0,"prRes":19.1,"qual":1,"ss":0.0,"used":false,"health":1},{"PRN":51,"gnssid":1,"svid":138,"az":167.0,"el":36.0,"prRes":16.7,"qual":1,"ss":0.0,"used":false},{"PRN":65,"gnssid":6,"svid":1,"az":230.0,"el":31.0,"prRes":23.0,"qual":7,"ss":28.0,"used":true,"health":1},{"PRN":66,"gnssid":6,"svid":2,"az":296.0,"el":40.0,"prRes":29.6,"qual":7,"ss":29.0,"used":true,"health":1},{"PRN":67,"gnssid":6,"svid":3,"az":342.0,"el":10.0,"prRes":34.2,"qual":1,"ss":0.0,"used":false,"health":1},{"PRN":74,"gnssid":6,"svid":10,"az":79.0,"el":15.0,"prRes":7.9,"qual":1,"ss":0.0,"used":false,"health":1},{"PRN":75,"gnssid":6,"svid":11,"az":35.0,"el":61.0,"prRes":3.5,"qual":4,"ss":25.0,"used":true,"health":1},{"PRN":76,"gnssid":6,"svid":12,"az":292.0,"el":39.0,"prRes":29.2,"qual":7,"ss":29.0,"used":true,"health":1},{"PRN":84,"gnssid":6,"svid":20,"az":46.0,"el":30.0,"prRes":4.6,"qual":1,"ss":0.0,"used":false,"health":1},{"PRN":85,"gnssid":6,"svid":21,"az":115.0,"el":35.0,"prRes":11.5,"qual":4,"ss":16.0,"used":true,"health":1},{"PRN":86,"gnssid":6,"svid":22,"az":157.0,"el":5.0,"prRes":15.7,"qual":1,"ss":0.0,"used":false,"health":1}]}
{"class":"SKY","time":"2024-03-28T15:57:38.000Z","gdop":2.67,"hdop":1.02,"pdop":2.30,"tdop":1.36,"xdop":0.76,"ydop":0.68,"vdop":2.07}
$GPZDA,155738.00,28,03,2024,00,00*66
$GPGGA,155738.00,4624.2758140,N,11701.2435780,W,2,10,1.02,265.99,M,-15.351,M,,*5D
$GPRMC,155738.00,A,4624.2758140,N,11701.2435780,W,0.6026,67.538,280324,13.9,E*7E
$GPGSA,A,3,13,15,17,19,46,,,,,,,,2.3,1.0,2.1*3B
$GPGBS,155738.00,2.850,2.550,11.137,,,,*74
{"class":"TPV","status":2,"mode":3,"time":"2024-03-28T15:57:38.000Z","leapseconds":18,"ept":0.005,"lat":46.404596900,"lon":-117.020726300,"altHAE":247.8210,"altMSL":265.9930,"alt":265.9930,"epx":2.850,"epy":2.550,"epv":11.137,"track":67.5376,"magtrack":81.3892,"magvar":13.9,"speed":0.310,"climb":0.299,"eps":5.70,"epc":22.32,"ecefx":-2001715.77,"ecefy":-3925077.66,"ecefz":4596553.46,"ecefvx":0.28,"ecefvy":-0.09,"ecefvz":0.09,"ecefpAcc":13.64,"ecefvAcc":0.73,"geoidSep":-15.351,"eph":7.882,"sep":10.842,"clockbias":-97886,"clockdrift":-332}
$GPGSV,6,1,23,02,20,095,00,05,03,267,30,07,46,116,20,08,21,045,19*76
$GPGSV,6,2,23,13,47,293,30,15,20,314,33,17,35,181,17,19,10,194,18*74
$GPGSV,6,3,23,21,20,078,17,22,55,256,22,30,80,111,20,46,35,197,31*75
$GPGSV,6,4,23,48,36,191,00,51,36,167,00,65,31,230,28,66,40,296,29*73
$GPGSV,6,5,23,67,10,342,00,74,15,079,00,75,61,035,26,76,39,292,29*79
$GPGSV,6,6,23,84,30,046,00,85,35,115,17,86,05,157,00*45
{"class":"SKY","time":"2024-03-28T15:57:39.000Z","gdop":2.65,"hdop":1.02,"pdop":2.28,"tdop":1.34,"xdop":0.76,"ydop":0.68,"vdop":2.04,"nSat":23,"uSat":10,"satellites":[{"PRN":2,"gnssid":0,"svid":2,"az":95.0,"el":20.0,"prRes":9.5,"qual":1,"ss":0.0,"used":false,"health":1},{"PRN":5,"gnssid":0,"svid":5,"az":267.0,"el":3.0,"prRes":26.7,"qual":7,"ss":30.0,"used":false,"health":1},{"PRN":7,"gnssid":0,"svid":7,"az":116.0,"el":46.0,"prRes":11.6,"qual":4,"ss":20.0,"used":false,"health":1},{"PRN":8,"gnssid":0,"svid":8,"az":45.0,"el":21.0,"prRes":4.5,"qual":4,"ss":19.0,"used":false,"health":1},{"PRN":13,"gnssid":0,"svid":13,"az":293.0,"el":47.0,"prRes":29.3,"qual":7,"ss":30.0,"used":true,"health":1},{"PRN":15,"gnssid":0,"svid":15,"az":314.0,"el":20.0,"prRes":31.4,"qual":7,"ss":33.0,"used":true,"health":1},{"PRN":17,"gnssid":0,"svid":17,"az":181.0,"el":35.0,"prRes":18.1,"qual":4,"ss":17.0,"used":true,"health":1},{"PRN":19,"gnssid":0,"svid":19,"az":194.0,"el":10.0,"prRes":19.4,"qual":4,"ss":18.0,"used":true,"health":1},{"PRN":21,"gnssid":0,"svid":21,"az":78.0,"el":20.0,"prRes":7.8,"qual":4,"ss":17.0,"used":false,"health":1},{"PRN":22,"gnssid":0,"svid":22,"az":256.0,"el":55.0,"prRes":25.6,"qual":4,"ss":22.0,"used":false,"health":1},{"PRN":30,"gnssid":0,"svid":30,"az":111.0,"el":80.0,"prRes":11.1,"qual":4,"ss":20.0,"used":false,"health":1},{"PRN":46,"gnssid":1,"svid":133,"az":197.0,"el":35.0,"prRes":19.7,"qual":7,"ss":31.0,"used":true,"health":1},{"PRN":48,"gnssid":1,"svid":135,"az":191.0,"el":36.0,"prRes":19.1,"qual":1,"ss":0.0,"used":false,"health":1},{"PRN":51,"gnssid":1,"svid":138,"az":167.0,"el":36.0,"prRes":16.7,"qual":1,"ss":0.0,"used":false},{"PRN":65,"gnssid":6,"svid":1,"az":230.0,"el":31.0,"prRes":23.0,"qual":7,"ss":28.0,"used":true,"health":1},{"PRN":66,"gnssid":6,"svid":2,"az":296.0,"el":40.0,"prRes":29.6,"qual":7,"ss":29.0,"used":true,"health":1},{"PRN":67,"gnssid":6,"svid":3,"az":342.0,"el":10.0,"prRes":34.2,"qual":1,"ss":0.0,"used":false,"health":1},{"PRN":74,"gnssid":6,"svid":10,"az":79.0,"el":15.0,"prRes":7.9,"qual":1,"ss":0.0,"used":false,"health":1},{"PRN":75,"gnssid":6,"svid":11,"az":35.0,"el":61.0,"prRes":3.5,"qual":4,"ss":26.0,"used":true,"health":1},{"PRN":76,"gnssid":6,"svid":12,"az":292.0,"el":39.0,"prRes":29.2,"qual":7,"ss":29.0,"used":true,"health":1},{"PRN":84,"gnssid":6,"svid":20,"az":46.0,"el":30.0,"prRes":4.6,"qual":1,"ss":0.0,"used":false,"health":1},{"PRN":85,"gnssid":6,"svid":21,"az":115.0,"el":35.0,"prRes":11.5,"qual":4,"ss":17.0,"used":true,"health":1},{"PRN":86,"gnssid":6,"svid":22,"az":157.0,"el":5.0,"prRes":15.7,"qual":1,"ss":0.0,"used":false,"health":1}]}
{"class":"SKY","time":"2024-03-28T15:57:39.000Z","gdop":2.67,"hdop":1.02,"pdop":2.30,"tdop":1.36,"xdop":0.76,"ydop":0.68,"vdop":2.07}
$GPZDA,155739.00,28,03,2024,00,00*67
$GPGGA,155739.00,4624.2758620,N,11701.2433320,W,2,10,1.02,266.20,M,-15.351,M,,*54
$GPRMC,155739.00,A,4624.2758620,N,11701.2433320,W,0.4801,67.538,280324,13.9,E*79
$GPGSA,A,3,13,15,17,19,46,,,,,,,,2.3,1.0,2.1*3B
$GPGBS,155739.00,2.850,2.550,11.102,,,,*73
{"class":"TPV","status":2,"mode":3,"time":"2024-03-28T15:57:39.000Z","leapseconds":18,"ept":0.005,"lat":46.404597700,"lon":-117.020722200,"altHAE":248.0300,"altMSL":266.2020,"alt":266.2020,"epx":2.850,"epy":2.550,"epv":11.102,"track":67.5376,"magtrack":81.3892,"magvar":13.9,"speed":0.247,"climb":0.209,"eps":5.70,"epc":22.24,"ecefx":-2001715.52,"ecefy":-3925077.87,"ecefz":4596553.68,"ecefvx":0.22,"ecefvy":-0.11,"ecefvz":0.05,"ecefpAcc":13.59,"ecefvAcc":0.72,"geoidSep":-15.351,"eph":7.838,"sep":10.842,"clockbias":-98217,"clockdrift":-332}
$GPGSV,6,1,23,02,20,095,00,05,03,267,30,07,46,116,20,08,21,045,18*77
$GPGSV,6,2,23,13,47,293,30,15,20,314,32,17,35,181,15,19,10,194,18*77
$GPGSV,6,3,23,21,20,078,18,22,55,256,21,30,80,111,20,46,35,197,31*79
$GPGSV,6,4,23,48,36,191,00,51,36,167,00,65,31,230,28,66,40,296,30*7B
$GPGSV,6,5,23,67,10,342,00,74,15,079,00,75,61,035,26,76,39,292,29*79
$GPGSV,6,6,23,84,30,046,00,85,35,115,17,86,05,157,00*45
{"class":"SKY","time":"2024-03-28T15:57:40.000Z","gdop":2.65,"hdop":1.02,"pdop":2.28,"tdop":1.34,"xdop":0.76,"ydop":0.68,"vdop":2.04,"nSat":23,"uSat":10,"satellites":[{"PRN":2,"gnssid":0,"svid":2,"az":95.0,"el":20.0,"prRes":9.5,"qual":1,"ss":0.0,"used":false,"health":1},{"PRN":5,"gnssid":0,"svid":5,"az":267.0,"el":3.0,"prRes":26.7,"qual":7,"ss":30.0,"used":false,"health":1},{"PRN":7,"gnssid":0,"svid":7,"az":116.0,"el":46.0,"prRes":11.6,"qual":4,"ss":20.0,"used":false,"health":1},{"PRN":8,"gnssid":0,"svid":8,"az":45.0,"el":21.0,"prRes":4.5,"qual":4,"ss":18.0,"used":false,"health":1},{"PRN":13,"gnssid":0,"svid":13,"az":293.0,"el":47.0,"prRes":29.3,"qual":7,"ss":30.0,"used":true,"health":1},{"PRN":15,"gnssid":0,"svid":15,"az":314.0,"el":20.0,"prRes":31.4,"qual":7,"ss":32.0,"used":true,"health":1},{"PRN":17,"gnssid":0,"svid":17,"az":181.0,"el":35.0,"prRes":18.1,"qual":4,"ss":15.0,"used":true,"health":1},{"PRN":19,"gnssid":0,"svid":19,"az":194.0,"el":10.0,"prRes":19.4,"qual":4,"ss":18.0,"used":true,"health":1},{"PRN":21,"gnssid":0,"svid":21,"az":78.0,"el":20.0,"prRes":7.8,"qual":4,"ss":18.0,"used":false,"health":1},{"PRN":22,"gnssid":0,"svid":22,"az":256.0,"el":55.0,"prRes":25.6,"qual":4,"ss":21.0,"used":false,"health":1},{"PRN":30,"gnssid":0,"svid":30,"az":111.0,"el":80.0,"prRes":11.1,"qual":4,"ss":20.0,"used":false,"health":1},{"PRN":46,"gnssid":1,"svid":133,"az":197.0,"el":35.0,"prRes":19.7,"qual":7,"ss":31.0,"used":true,"health":1},{"PRN":48,"gnssid":1,"svid":135,"az":191.0,"el":36.0,"prRes":19.1,"qual":1,"ss":0.0,"used":false,"health":1},{"PRN":51,"gnssid":1,"svid":138,"az":167.0,"el":36.0,"prRes":16.7,"qual":1,"ss":0.0,"used":false},{"PRN":65,"gnssid":6,"svid":1,"az":230.0,"el":31.0,"prRes":23.0,"qual":7,"ss":28.0,"used":true,"health":1},{"PRN":66,"gnssid":6,"svid":2,"az":296.0,"el":40.0,"prRes":29.6,"qual":7,"ss":30.0,"used":true,"health":1},{"PRN":67,"gnssid":6,"svid":3,"az":342.0,"el":10.0,"prRes":34.2,"qual":1,"ss":0.0,"used":false,"health":1},{"PRN":74,"gnssid":6,"svid":10,"az":79.0,"el":15.0,"prRes":7.9,"qual":1,"ss":0.0,"used":false,"health":1},{"PRN":75,"gnssid":6,"svid":11,"az":35.0,"el":61.0,"prRes":3.5,"qual":4,"ss":26.0,"used":true,"health":1},{"PRN":76,"gnssid":6,"svid":12,"az":292.0,"el":39.0,"prRes":29.2,"qual":7,"ss":29.0,"used":true,"health":1},{"PRN":84,"gnssid":6,"svid":20,"az":46.0,"el":30.0,"prRes":4.6,"qual":1,"ss":0.0,"used":false,"health":1},{"PRN":85,"gnssid":6,"svid":21,"az":115.0,"el":35.0,"prRes":11.5,"qual":4,"ss":17.0,"used":true,"health":1},{"PRN":86,"gnssid":6,"svid":22,"az":157.0,"el":5.0,"prRes":15.7,"qual":1,"ss":0.0,"used":false,"health":1}]}
{"class":"SKY","time":"2024-03-28T15:57:40.000Z","gdop":2.67,"hdop":1.02,"pdop":2.30,"tdop":1.36,"xdop":0.76,"ydop":0.68,"vdop":2.07}
$GPZDA,155740.00,28,03,2024,00,00*69
$GPGGA,155740.00,4624.2759100,N,11701.2431100,W,2,10,1.02,266.16,M,-15.351,M,,*59
$GPRMC,155740.00,A,4624.2759100,N,11701.2431100,W,0.2819,67.538,280324,13.9,E*7E
$GPGSA,A,3,13,15,17,19,46,,,,,,,,2.3,1.0,2.1*3B
$GPGBS,155740.00,2.850,2.550,11.085,,,,*73
{"class":"TPV","status":2,"mode":3,"time":"2024-03-28T15:57:40.000Z","leapseconds":18,"ept":0.005,"lat":46.404598500,"lon":-117.020718500,"altHAE":247.9880,"altMSL":266.1600,"alt":266.1600,"epx":2.850,"epy":2.550,"epv":11.085,"track":67.5376,"magtrack":81.3892,"magvar":13.9,"speed":0.145,"climb":-0.042,"eps":5.70,"epc":22.19,"ecefx":-2001715.23,"ecefy":-3925077.91,"ecefz":4596553.70,"ecefvx":0.14,"ecefvy":-0.04,"ecefvz":0.03,"ecefpAcc":13.55,"ecefvAcc":0.71,"geoidSep":-15.351,"eph":7.796,"sep":10.842,"clockbias":-98549,"clockdrift":-332}
$GPGSV,6,1,23,02,20,095,00,05,03,267,30,07,46,116,19,08,21,045,17*72
$GPGSV,6,2,23,13,47,293,30,15,20,314,32,17,35,181,16,19,10,194,19*75
$GPGSV,6,3,23,21,20,078,19,22,55,256,21,30,80,111,19,46,35,197,31*72
$GPGSV,6,4,23,48,36,191,00,51,36,167,00,65,31,230,28,66,40,296,30*7B
$GPGSV,6,5,23,67,10,342,00,74,15,079,00,75,61,035,25,76,39,292,30*72
$GPGSV,6,6,23,84,30,046,00,85,35,115,17,86,05,157,00*45
{"class":"SKY","time":"2024-03-28T15:57:41.000Z","gdop":2.65,"hdop":1.02,"pdop":2.28,"tdop":1.34,"xdop":0.76,"ydop":0.68,"vdop":2.04,"nSat":23,"uSat":10,"satellites":[{"PRN":2,"gnssid":0,"svid":2,"az":95.0,"el":20.0,"prRes":9.5,"qual":1,"ss":0.0,"used":false,"health":1},{"PRN":5,"gnssid":0,"svid":5,"az":267.0,"el":3.0,"prRes":26.7,"qual":7,"ss":30.0,"used":false,"health":1},{"PRN":7,"gnssid":0,"svid":7,"az":116.0,"el":46.0,"prRes":11.6,"qual":4,"ss":19.0,"used":false,"health":1},{"PRN":8,"gnssid":0,"svid":8,"az":45.0,"el":21.0,"prRes":4.5,"qual":4,"ss":17.0,"used":false,"health":1},{"PRN":13,"gnssid":0,"svid":13,"az":293.0,"el":47.0,"prRes":29.3,"qual":7,"ss":30.0,"used":true,"health":1},{"PRN":15,"gnssid":0,"svid":15,"az":314.0,"el":20.0,"prRes":31.4,"qual":7,"ss":32.0,"used":true,"health":1},{"PRN":17,"gnssid":0,"svid":17,"az":181.0,"el":35.0,"prRes":18.1,"qual":4,"ss":16.0,"used":true,"health":1},{"PRN":19,"gnssid":0,"svid":19,"az":194.0,"el":10.0,"prRes":19.4,"qual":4,"ss":19.0,"used":true,"health":1},{"PRN":21,"gnssid":0,"svid":21,"az":78.0,"el":20.0,"prRes":7.8,"qual":4,"ss":19.0,"used":false,"health":1},{"PRN":22,"gnssid":0,"svid":22,"az":256.0,"el":55.0,"prRes":25.6,"qual":4,"ss":21.0,"used":false,"health":1},{"PRN":30,"gnssid":0,"svid":30,"az":111.0,"el":80.0,"prRes":11.1,"qual":4,"ss":19.0,"used":false,"health":1},{"PRN":46,"gnssid":1,"svid":133,"az":197.0,"el":35.0,"prRes":19.7,"qual":7,"ss":31.0,"used":true,"health":1},{"PRN":48,"gnssid":1,"svid":135,"az":191.0,"el":36.0,"prRes":19.1,"qual":1,"ss":0.0,"used":false,"health":1},{"PRN":51,"gnssid":1,"svid":138,"az":167.0,"el":36.0,"prRes":16.7,"qual":1,"ss":0.0,"used":false},{"PRN":65,"gnssid":6,"svid":1,"az":230.0,"el":31.0,"prRes":23.0,"qual":7,"ss":28.0,"used":true,"health":1},{"PRN":66,"gnssid":6,"svid":2,"az":296.0,"el":40.0,"prRes":29.6,"qual":7,"ss":30.0,"used":true,"health":1},{"PRN":67,"gnssid":6,"svid":3,"az":342.0,"el":10.0,"prRes":34.2,"qual":1,"ss":0.0,"used":false,"health":1},{"PRN":74,"gnssid":6,"svid":10,"az":79.0,"el":15.0,"prRes":7.9,"qual":1,"ss":0.0,"used":false,"health":1},{"PRN":75,"gnssid":6,"svid":11,"az":35.0,"el":61.0,"prRes":3.5,"qual":4,"ss":25.0,"used":true,"health":1},{"PRN":76,"gnssid":6,"svid":12,"az":292.0,"el":39.0,"prRes":29.2,"qual":7,"ss":30.0,"used":true,"health":1},{"PRN":84,"gnssid":6,"svid":20,"az":46.0,"el":30.0,"prRes":4.6,"qual":1,"ss":0.0,"used":false,"health":1},{"PRN":85,"gnssid":6,"svid":21,"az":115.0,"el":35.0,"prRes":11.5,"qual":4,"ss":17.0,"used":true,"health":1},{"PRN":86,"gnssid":6,"svid":22,"az":157.0,"el":5.0,"prRes":15.7,"qual":1,"ss":0.0,"used":false,"health":1}]}
{"class":"SKY","time":"2024-03-28T15:57:41.000Z","gdop":2.68,"hdop":1.02,"pdop":2.30,"tdop":1.36,"xdop":0.76,"ydop":0.68,"vdop":2.07}
$GPZDA,155741.00,28,03,2024,00,00*68
$GPGGA,155741.00,4624.2759280,N,11701.2429960,W,2,10,1.02,266.05,M,-15.351,M,,*56
$GPRMC,155741.00,A,4624.2759280,N,11701.2429960,W,0.1127,67.538,280324,13.9,E*74
$GPGSA,A,3,13,15,17,19,46,,,,,,,,2.3,1.0,2.1*3B
$GPGBS,155741.00,2.850,2.550,11.067,,,,*7E
{"class":"TPV","status":2,"mode":3,"time":"2024-03-28T15:57:41.000Z","leapseconds":18,"ept":0.005,"lat":46.404598800,"lon":-117.020716600,"altHAE":247.8760,"altMSL":266.0480,"alt":266.0480,"epx":2.850,"epy":2.550,"epv":11.067,"track":67.5376,"magtrack":81.3892,"magvar":13.9,"speed":0.058,"climb":-0.112,"eps":5.70,"epc":22.15,"ecefx":-2001715.06,"ecefy":-3925077.89,"ecefz":4596553.64,"ecefvx":0.06,"ecefvy":-0.01,"ecefvz":-0.01,"ecefpAcc":13.52,"ecefvAcc":0.65,"geoidSep":-15.351,"eph":7.768,"sep":10.842,"clockbias":-98881,"clockdrift":-332}
$GPZDA,155741.00,28,03,2024,00,00*68
$GPGGA,155741.00,4624.2759280,N,11701.2429960,W,2,10,1.02,266.05,M,-15.351,M,,*56
$GPRMC,155741.00,A,4624.2759280,N,11701.2429960,W,0.1127,67.538,280324,13.9,E*74
$GPGSA,A,3,13,15,17,19,46,,,,,,,,2.3,1.0,2.1*3B
$GPGBS,155741.00,2.850,2.550,11.067,,,,*7E
{"class":"TPV","status":2,"mode":3,"time":"2024-03-28T15:57:41.000Z","leapseconds":18,"ept":0.005,"lat":46.404598800,"lon":-117.020716600,"altHAE":247.8760,"altMSL":266.0480,"alt":266.0480,"epx":2.850,"epy":2.550,"epv":11.067,"track":67.5376,"magtrack":81.3892,"magvar":13.9,"speed":0.058,"climb":-0.112,"eps":5.70,"epc":22.15,"ecefx":-2001715.06,"ecefy":-3925077.89,"ecefz":4596553.64,"ecefvx":0.06,"ecefvy":-0.01,"ecefvz":-0.01,"ecefpAcc":13.52,"ecefvAcc":0.65,"geoidSep":-15.351,"eph":7.768,"sep":10.842,"jam":17,"clockbias":-98881,"clockdrift":-332}
$GPGSV,6,1,23,02,20,095,00,05,03,267,34,07,46,116,19,08,21,045,17*76
$GPGSV,6,2,23,13,47,293,33,15,20,314,33,17,35,181,18,19,10,194,21*72
$GPGSV,6,3,23,21,20,078,19,22,55,256,21,30,80,111,18,46,35,197,30*72
$GPGSV,6,4,23,48,36,191,00,51,36,167,00,65,31,230,30,66,40,296,30*72
$GPGSV,6,5,23,67,10,342,00,74,15,079,00,75,61,035,26,76,39,292,30*71
$GPGSV,6,6,23,84,30,046,00,85,35,115,16,86,05,157,00*44
{"class":"SKY","time":"2024-03-28T15:57:42.000Z","gdop":2.65,"hdop":1.02,"pdop":2.28,"tdop":1.34,"xdop":0.76,"ydop":0.68,"vdop":2.04,"nSat":23,"uSat":10,"satellites":[{"PRN":2,"gnssid":0,"svid":2,"az":95.0,"el":20.0,"prRes":9.5,"qual":1,"ss":0.0,"used":false,"health":1},{"PRN":5,"gnssid":0,"svid":5,"az":267.0,"el":3.0,"prRes":26.7,"qual":7,"ss":34.0,"used":false,"health":1},{"PRN":7,"gnssid":0,"svid":7,"az":116.0,"el":46.0,"prRes":11.6,"qual":4,"ss":19.0,"used":false,"health":1},{"PRN":8,"gnssid":0,"svid":8,"az":45.0,"el":21.0,"prRes":4.5,"qual":4,"ss":17.0,"used":false,"health":1},{"PRN":13,"gnssid":0,"svid":13,"az":293.0,"el":47.0,"prRes":29.3,"qual":7,"ss":33.0,"used":true,"health":1},{"PRN":15,"gnssid":0,"svid":15,"az":314.0,"el":20.0,"prRes":31.4,"qual":7,"ss":33.0,"used":true,"health":1},{"PRN":17,"gnssid":0,"svid":17,"az":181.0,"el":35.0,"prRes":18.1,"qual":4,"ss":18.0,"used":true,"health":1},{"PRN":19,"gnssid":0,"svid":19,"az":194.0,"el":10.0,"prRes":19.4,"qual":4,"ss":21.0,"used":true,"health":1},{"PRN":21,"gnssid":0,"svid":21,"az":78.0,"el":20.0,"prRes":7.8,"qual":4,"ss":19.0,"used":false,"health":1},{"PRN":22,"gnssid":0,"svid":22,"az":256.0,"el":55.0,"prRes":25.6,"qual":4,"ss":21.0,"used":false,"health":1},{"PRN":30,"gnssid":0,"svid":30,"az":111.0,"el":80.0,"prRes":11.1,"qual":4,"ss":18.0,"used":false,"health":1},{"PRN":46,"gnssid":1,"svid":133,"az":197.0,"el":35.0,"prRes":19.7,"qual":5,"ss":30.0,"used":true,"health":1},{"PRN":48,"gnssid":1,"svid":135,"az":191.0,"el":36.0,"prRes":19.1,"qual":1,"ss":0.0,"used":false,"health":1},{"PRN":51,"gnssid":1,"svid":138,"az":167.0,"el":36.0,"prRes":16.7,"qual":1,"ss":0.0,"used":false},{"PRN":65,"gnssid":6,"svid":1,"az":230.0,"el":31.0,"prRes":23.0,"qual":7,"ss":30.0,"used":true,"health":1},{"PRN":66,"gnssid":6,"svid":2,"az":296.0,"el":40.0,"prRes":29.6,"qual":7,"ss":30.0,"used":true,"health":1},{"PRN":67,"gnssid":6,"svid":3,"az":342.0,"el":10.0,"prRes":34.2,"qual":1,"ss":0.0,"used":false,"health":1},{"PRN":74,"gnssid":6,"svid":10,"az":79.0,"el":15.0,"prRes":7.9,"qual":1,"ss":0.0,"used":false,"health":1},{"PRN":75,"gnssid":6,"svid":11,"az":35.0,"el":61.0,"prRes":3.5,"qual":5,"ss":26.0,"used":true,"health":1},{"PRN":76,"gnssid":6,"svid":12,"az":292.0,"el":39.0,"prRes":29.2,"qual":7,"ss":30.0,"used":true,"health":1},{"PRN":84,"gnssid":6,"svid":20,"az":46.0,"el":30.0,"prRes":4.6,"qual":1,"ss":0.0,"used":false,"health":1},{"PRN":85,"gnssid":6,"svid":21,"az":115.0,"el":35.0,"prRes":11.5,"qual":4,"ss":16.0,"used":true,"health":1},{"PRN":86,"gnssid":6,"svid":22,"az":157.0,"el":5.0,"prRes":15.7,"qual":1,"ss":0.0,"used":false,"health":1}]}
{"class":"SKY","time":"2024-03-28T15:57:42.000Z","gdop":2.68,"hdop":1.02,"pdop":2.30,"tdop":1.36,"xdop":0.76,"ydop":0.68,"vdop":2.07}
$GPZDA,155742.00,28,03,2024,00,00*6B
$GPGGA,155742.00,4624.2759340,N,11701.2429780,W,2,10,1.02,266.19,M,-15.351,M,,*55
$GPRMC,155742.00,A,4624.2759340,N,11701.2429780,W,0.0447,67.538,280324,13.9,E*78
$GPGSA,A,3,13,15,17,19,46,,,,,,,,2.3,1.0,2.1*3B
$GPGBS,155742.00,2.850,2.550,10.984,,,,*78
{"class":"TPV","status":2,"mode":3,"time":"2024-03-28T15:57:42.000Z","leapseconds":18,"ept":0.005,"lat":46.404598900,"lon":-117.020716300,"altHAE":248.0230,"altMSL":266.1950,"alt":266.1950,"epx":2.850,"epy":2.550,"epv":10.984,"track":67.5376,"magtrack":81.3892,"magvar":13.9,"speed":0.023,"climb":0.147,"eps":5.70,"epc":22.05,"ecefx":-2001715.08,"ecefy":-3925077.99,"ecefz":4596553.76,"ecefvx":-0.02,"ecefvy":0.01,"ecefvz":0.02,"ecefpAcc":13.44,"ecefvAcc":0.53,"geoidSep":-15.351,"eph":7.739,"sep":10.842,"clockbias":-99213,"clockdrift":-332}
$GPGSV,6,1,23,02,20,095,00,05,03,267,31,07,46,116,18,08,21,045,17*72
$GPGSV,6,2,23,13,47,293,28,15,20,314,31,17,35,181,20,19,10,194,22*72
$GPGSV,6,3,23,21,20,078,19,22,55,256,20,30,80,111,18,46,35,197,30*73
$GPGSV,6,4,23,48,36,191,00,51,36,167,00,65,31,230,28,66,40,296,29*73
$GPGSV,6,5,23,67,10,342,00,74,15,079,00,75,61,035,25,76,39,292,26*75
$GPGSV,6,6,23,84,30,046,00,85,35,115,14,86,05,157,00*46
{"class":"SKY","time":"2024-03-28T15:57:43.000Z","gdop":2.65,"hdop":1.02,"pdop":2.28,"tdop":1.34,"xdop":0.76,"ydop":0.68,"vdop":2.04,"nSat":23,"uSat":10,"satellites":[{"PRN":2,"gnssid":0,"svid":2,"az":95.0,"el":20.0,"prRes":9.5,"qual":1,"ss":0.0,"used":false,"health":1},{"PRN":5,"gnssid":0,"svid":5,"az":267.0,"el":3.0,"prRes":26.7,"qual":7,"ss":31.0,"used":false,"health":1},{"PRN":7,"gnssid":0,"svid":7,"az":116.0,"el":46.0,"prRes":11.6,"qual":4,"ss":18.0,"used":false,"health":1},{"PRN":8,"gnssid":0,"svid":8,"az":45.0,"el":21.0,"prRes":4.5,"qual":4,"ss":17.0,"used":false,"health":1},{"PRN":13,"gnssid":0,"svid":13,"az":293.0,"el":47.0,"prRes":29.3,"qual":7,"ss":28.0,"used":true,"health":1},{"PRN":15,"gnssid":0,"svid":15,"az":314.0,"el":20.0,"prRes":31.4,"qual":7,"ss":31.0,"used":true,"health":1},{"PRN":17,"gnssid":0,"svid":17,"az":181.0,"el":35.0,"prRes":18.1,"qual":4,"ss":20.0,"used":true,"health":1},{"PRN":19,"gnssid":0,"svid":19,"az":194.0,"el":10.0,"prRes":19.4,"qual":4,"ss":22.0,"used":true,"health":1},{"PRN":21,"gnssid":0,"svid":21,"az":78.0,"el":20.0,"prRes":7.8,"qual":4,"ss":19.0,"used":false,"health":1},{"PRN":22,"gnssid":0,"svid":22,"az":256.0,"el":55.0,"prRes":25.6,"qual":4,"ss":20.0,"used":false,"health":1},{"PRN":30,"gnssid":0,"svid":30,"az":111.0,"el":80.0,"prRes":11.1,"qual":4,"ss":18.0,"used":false,"health":1},{"PRN":46,"gnssid":1,"svid":133,"az":197.0,"el":35.0,"prRes":19.7,"qual":4,"ss":30.0,"used":true,"health":1},{"PRN":48,"gnssid":1,"svid":135,"az":191.0,"el":36.0,"prRes":19.1,"qual":1,"ss":0.0,"used":false,"health":1},{"PRN":51,"gnssid":1,"svid":138,"az":167.0,"el":36.0,"prRes":16.7,"qual":1,"ss":0.0,"used":false},{"PRN":65,"gnssid":6,"svid":1,"az":230.0,"el":31.0,"prRes":23.0,"qual":7,"ss":28.0,"used":true,"health":1},{"PRN":66,"gnssid":6,"svid":2,"az":296.0,"el":40.0,"prRes":29.6,"qual":7,"ss":29.0,"used":true,"health":1},{"PRN":67,"gnssid":6,"svid":3,"az":342.0,"el":10.0,"prRes":34.2,"qual":1,"ss":0.0,"used":false,"health":1},{"PRN":74,"gnssid":6,"svid":10,"az":79.0,"el":15.0,"prRes":7.9,"qual":1,"ss":0.0,"used":false,"health":1},{"PRN":75,"gnssid":6,"svid":11,"az":35.0,"el":61.0,"prRes":3.5,"qual":6,"ss":25.0,"used":true,"health":1},{"PRN":76,"gnssid":6,"svid":12,"az":292.0,"el":39.0,"prRes":29.2,"qual":5,"ss":26.0,"used":true,"health":1},{"PRN":84,"gnssid":6,"svid":20,"az":46.0,"el":30.0,"prRes":4.6,"qual":1,"ss":0.0,"used":false,"health":1},{"PRN":85,"gnssid":6,"svid":21,"az":115.0,"el":35.0,"prRes":11.5,"qual":4,"ss":14.0,"used":true,"health":1},{"PRN":86,"gnssid":6,"svid":22,"az":157.0,"el":5.0,"prRes":15.7,"qual":1,"ss":0.0,"used":false,"health":1}]}
{"class":"SKY","time":"2024-03-28T15:57:43.000Z","gdop":2.68,"hdop":1.02,"pdop":2.31,"tdop":1.36,"xdop":0.76,"ydop":0.68,"vdop":2.07}
$GPZDA,155743.00,28,03,2024,00,00*6A
$GPGGA,155743.00,4624.2758680,N,11701.2429600,W,2,10,1.02,266.39,M,-15.351,M,,*57
$GPRMC,155743.00,A,4624.2758680,N,11701.2429600,W,0.3110,67.538,280324,13.9,E*7C
$GPGSA,A,3,13,15,17,19,46,,,,,,,,2.3,1.0,2.1*3B
$GPGBS,155743.00,2.850,2.550,10.989,,,,*74
{"class":"TPV","status":2,"mode":3,"time":"2024-03-28T15:57:43.000Z","leapseconds":18,"ept":0.005,"lat":46.404597800,"lon":-117.020716000,"altHAE":248.2150,"altMSL":266.3870,"alt":266.3870,"epx":2.850,"epy":2.550,"epv":10.989,"track":67.5376,"magtrack":81.3892,"magvar":13.9,"speed":0.160,"climb":0.192,"eps":5.70,"epc":21.97,"ecefx":-2001715.16,"ecefy":-3925078.19,"ecefz":4596553.82,"ecefvx":-0.05,"ecefvy":-0.14,"ecefvz":-0.07,"ecefpAcc":13.41,"ecefvAcc":0.46,"geoidSep":-15.351,"eph":7.682,"sep":10.842,"clockbias":-99545,"clockdrift":-332}
$GPGSV,6,1,23,02,20,095,00,05,03,267,23,07,46,116,19,08,21,045,16*71
$GPGSV,6,2,23,13,47,293,26,15,20,314,26,17,35,181,28,19,10,194,21*71
$GPGSV,6,3,23,21,20,078,17,22,55,256,19,30,80,111,28,46,35,197,00*77
$GPGSV,6,4,23,48,36,191,00,51,36,167,00,65,31,230,18,66,40,296,23*7A
$GPGSV,6,5,23,67,10,342,00,74,15,079,00,75,61,035,24,76,39,292,25*77
$GPGSV,6,6,23,84,30,046,00,85,35,115,14,86,05,157,22*46
{"class":"SKY","time":"2024-03-28T15:57:44.000Z","gdop":2.75,"hdop":1.09,"pdop":2.38,"tdop":1.37,"xdop":0.77,"ydop":0.77,"vdop":2.12,"nSat":23,"uSat":9,"satellites":[{"PRN":2,"gnssid":0,"svid":2,"az":95.0,"el":20.0,"prRes":9.5,"qual":1,"ss":0.0,"used":false,"health":1},{"PRN":5,"gnssid":0,"svid":5,"az":267.0,"el":3.0,"prRes":26.7,"qual":4,"ss":23.0,"used":false,"health":1},{"PRN":7,"gnssid":0,"svid":7,"az":116.0,"el":46.0,"prRes":11.6,"qual":4,"ss":19.0,"used":false,"health":1},{"PRN":8,"gnssid":0,"svid":8,"az":45.0,"el":21.0,"prRes":4.5,"qual":4,"ss":16.0,"used":false,"health":1},{"PRN":13,"gnssid":0,"svid":13,"az":293.0,"el":47.0,"prRes":29.3,"qual":4,"ss":26.0,"used":true,"health":1},{"PRN":15,"gnssid":0,"svid":15,"az":314.0,"el":20.0,"prRes":31.4,"qual":4,"ss":26.0,"used":true,"health":1},{"PRN":17,"gnssid":0,"svid":17,"az":181.0,"el":35.0,"prRes":18.1,"qual":4,"ss":28.0,"used":true,"health":1},{"PRN":19,"gnssid":0,"svid":19,"az":194.0,"el":10.0,"prRes":19.4,"qual":4,"ss":21.0,"used":true,"health":1},{"PRN":21,"gnssid":0,"svid":21,"az":78.0,"el":20.0,"prRes":7.8,"qual":4,"ss":17.0,"used":false,"health":1},{"PRN":22,"gnssid":0,"svid":22,"az":256.0,"el":55.0,"prRes":25.6,"qual":4,"ss":19.0,"used":false,"health":1},{"PRN":30,"gnssid":0,"svid":30,"az":111.0,"el":80.0,"prRes":11.1,"qual":4,"ss":28.0,"used":false,"health":1},{"PRN":46,"gnssid":1,"svid":133,"az":197.0,"el":35.0,"prRes":19.7,"qual":1,"ss":0.0,"used":false,"health":1},{"PRN":48,"gnssid":1,"svid":135,"az":191.0,"el":36.0,"prRes":19.1,"qual":1,"ss":0.0,"used":false,"health":1},{"PRN":51,"gnssid":1,"svid":138,"az":167.0,"el":36.0,"prRes":16.7,"qual":1,"ss":0.0,"used":false},{"PRN":65,"gnssid":6,"svid":1,"az":230.0,"el":31.0,"prRes":23.0,"qual":4,"ss":18.0,"used":true,"health":1},{"PRN":66,"gnssid":6,"svid":2,"az":296.0,"el":40.0,"prRes":29.6,"qual":7,"ss":23.0,"used":true,"health":1},{"PRN":67,"gnssid":6,"svid":3,"az":342.0,"el":10.0,"prRes":34.2,"qual":1,"ss":0.0,"used":false,"health":1},{"PRN":74,"gnssid":6,"svid":10,"az":79.0,"el":15.0,"prRes":7.9,"qual":1,"ss":0.0,"used":false,"health":1},{"PRN":75,"gnssid":6,"svid":11,"az":35.0,"el":61.0,"prRes":3.5,"qual":4,"ss":24.0,"used":true,"health":1},{"PRN":76,"gnssid":6,"svid":12,"az":292.0,"el":39.0,"prRes":29.2,"qual":4,"ss":25.0,"used":true,"health":1},{"PRN":84,"gnssid":6,"svid":20,"az":46.0,"el":30.0,"prRes":4.6,"qual":1,"ss":0.0,"used":false,"health":1},{"PRN":85,"gnssid":6,"svid":21,"az":115.0,"el":35.0,"prRes":11.5,"qual":4,"ss":14.0,"used":true,"health":1},{"PRN":86,"gnssid":6,"svid":22,"az":157.0,"el":5.0,"prRes":15.7,"qual":3,"ss":22.0,"used":false,"health":1}]}
{"class":"SKY","time":"2024-03-28T15:57:44.000Z","gdop":2.78,"hdop":1.09,"pdop":2.41,"tdop":1.39,"xdop":0.77,"ydop":0.77,"vdop":2.15}
$GPZDA,155744.00,28,03,2024,00,00*6D
$GPGGA,155744.00,4624.2759940,N,11701.2423120,W,2,09,1.09,266.71,M,-15.351,M,,*52
$GPRMC,155744.00,A,4624.2759940,N,11701.2423120,W,1.5492,67.538,280324,13.9,E*7E
$GPGSA,A,3,13,15,17,19,,,,,,,,,2.4,1.1,2.1*3F
$GPGBS,155744.00,2.888,2.888,11.119,,,,*7E
{"class":"TPV","status":2,"mode":3,"time":"2024-03-28T15:57:44.000Z","leapseconds":18,"ept":0.005,"lat":46.404599900,"lon":-117.020705200,"altHAE":248.5400,"altMSL":266.7120,"alt":266.7120,"epx":2.888,"epy":2.888,"epv":11.119,"track":67.5376,"magtrack":81.3892,"magvar":13.9,"speed":0.797,"climb":0.325,"eps":5.74,"epc":22.11,"ecefx":-2001714.44,"ecefy":-3925078.62,"ecefz":4596554.21,"ecefvx":0.66,"ecefvy":-0.25,"ecefvz":0.46,"ecefpAcc":13.56,"ecefvAcc":1.08,"geoidSep":-15.351,"eph":7.767,"sep":11.307,"clockbias":-99877,"clockdrift":-332}
$GPGSV,6,1,23,02,20,095,00,05,03,267,21,07,46,116,18,08,21,045,13*77
$GPGSV,6,2,23,13,47,293,26,15,20,314,23,17,35,181,21,19,10,194,21*7D
$GPGSV,6,3,23,21,20,078,15,22,55,256,16,30,80,111,20,46,35,197,00*72
$GPGSV,6,4,23,48,36,191,00,51,36,167,00,65,31,230,28,66,40,296,25*7F
$GPGSV,6,5,23,67,10,342,00,74,15,079,00,75,61,035,29,76,39,292,31*7F
$GPGSV,6,6,23,84,30,046,00,85,35,115,19,86,05,157,23*4A
{"class":"SKY","time":"2024-03-28T15:57:45.000Z","gdop":2.75,"hdop":1.09,"pdop":2.38,"tdop":1.37,"xdop":0.77,"ydop":0.77,"vdop":2.12,"nSat":23,"uSat":9,"satellites":[{"PRN":2,"gnssid":0,"svid":2,"az":95.0,"el":20.0,"prRes":9.5,"qual":1,"ss":0.0,"used":false,"health":1},{"PRN":5,"gnssid":0,"svid":5,"az":267.0,"el":3.0,"prRes":26.7,"qual":4,"ss":21.0,"used":false,"health":1},{"PRN":7,"gnssid":0,"svid":7,"az":116.0,"el":46.0,"prRes":11.6,"qual":4,"ss":18.0,"used":false,"health":1},{"PRN":8,"gnssid":0,"svid":8,"az":45.0,"el":21.0,"prRes":4.5,"qual":4,"ss":13.0,"used":false,"health":1},{"PRN":13,"gnssid":0,"svid":13,"az":293.0,"el":47.0,"prRes":29.3,"qual":4,"ss":26.0,"used":true,"health":1},{"PRN":15,"gnssid":0,"svid":15,"az":314.0,"el":20.0,"prRes":31.4,"qual":4,"ss":23.0,"used":true,"health":1},{"PRN":17,"gnssid":0,"svid":17,"az":181.0,"el":35.0,"prRes":18.1,"qual":4,"ss":21.0,"used":true,"health":1},{"PRN":19,"gnssid":0,"svid":19,"az":194.0,"el":10.0,"prRes":19.4,"qual":4,"ss":21.0,"used":true,"health":1},{"PRN":21,"gnssid":0,"svid":21,"az":78.0,"el":20.0,"prRes":7.8,"qual":4,"ss":15.0,"used":false,"health":1},{"PRN":22,"gnssid":0,"svid":22,"az":256.0,"el":55.0,"prRes":25.6,"qual":4,"ss":16.0,"used":false,"health":1},{"PRN":30,"gnssid":0,"svid":30,"az":111.0,"el":80.0,"prRes":11.1,"qual":4,"ss":20.0,"used":false,"health":1},{"PRN":46,"gnssid":1,"svid":133,"az":197.0,"el":35.0,"prRes":19.7,"qual":1,"ss":0.0,"used":false,"health":1},{"PRN":48,"gnssid":1,"svid":135,"az":191.0,"el":36.0,"prRes":19.1,"qual":1,"ss":0.0,"used":false,"health":1},{"PRN":51,"gnssid":1,"svid":138,"az":167.0,"el":36.0,"prRes":16.7,"qual":1,"ss":0.0,"used":false},{"PRN":65,"gnssid":6,"svid":1,"az":230.0,"el":31.0,"prRes":23.0,"qual":4,"ss":28.0,"used":true,"health":1},{"PRN":66,"gnssid":6,"svid":2,"az":296.0,"el":40.0,"prRes":29.6,"qual":5,"ss":25.0,"used":true,"health":1},{"PRN":67,"gnssid":6,"svid":3,"az":342.0,"el":10.0,"prRes":34.2,"qual":1,"ss":0.0,"used":false,"health":1},{"PRN":74,"gnssid":6,"svid":10,"az":79.0,"el":15.0,"prRes":7.9,"qual":1,"ss":0.0,"used":false,"health":1},{"PRN":75,"gnssid":6,"svid":11,"az":35.0,"el":61.0,"prRes":3.5,"qual":5,"ss":29.0,"used":true,"health":1},{"PRN":76,"gnssid":6,"svid":12,"az":292.0,"el":39.0,"prRes":29.2,"qual":5,"ss":31.0,"used":true,"health":1},{"PRN":84,"gnssid":6,"svid":20,"az":46.0,"el":30.0,"prRes":4.6,"qual":1,"ss":0.0,"used":false,"health":1},{"PRN":85,"gnssid":6,"svid":21,"az":115.0,"el":35.0,"prRes":11.5,"qual":4,"ss":19.0,"used":true,"health":1},{"PRN":86,"gnssid":6,"svid":22,"az":157.0,"el":5.0,"prRes":15.7,"qual":3,"ss":23.0,"used":false,"health":1}]}
{"class":"SKY","time":"2024-03-28T15:57:45.000Z","gdop":2.78,"hdop":1.09,"pdop":2.41,"tdop":1.39,"xdop":0.77,"ydop":0.77,"vdop":2.15}
$GPZDA,155745.00,28,03,2024,00,00*6C
$GPGGA,155745.00,4624.2761020,N,11701.2421140,W,2,09,1.09,267.07,M,-15.351,M,,*53
$GPRMC,155745.00,A,4624.2761020,N,11701.2421140,W,0.8359,67.538,280324,13.9,E*73
$GPGSA,A,3,13,15,17,19,,,,,,,,,2.4,1.1,2.1*3F
$GPGBS,155745.00,2.888,2.888,11.283,,,,*7F
{"class":"TPV","status":2,"mode":3,"time":"2024-03-28T15:57:45.000Z","leapseconds":18,"ept":0.005,"lat":46.404601700,"lon":-117.020701900,"altHAE":248.8940,"altMSL":267.0660,"alt":267.0660,"epx":2.888,"epy":2.888,"epv":11.283,"track":67.5376,"magtrack":81.3892,"magvar":13.9,"speed":0.430,"climb":0.354,"eps":5.77,"epc":22.40,"ecefx":-2001714.26,"ecefy":-3925078.82,"ecefz":4596554.61,"ecefvx":0.35,"ecefvy":-0.18,"ecefvz":0.26,"ecefpAcc":13.72,"ecefvAcc":0.85,"geoidSep":-15.351,"eph":7.806,"sep":11.307,"clockbias":-100209,"clockdrift":-332}
$GPZDA,155745.00,28,03,2024,00,00*6C
$GPGGA,155745.00,4624.2761020,N,11701.2421140,W,2,09,1.09,267.07,M,-15.351,M,,*53
$GPRMC,155745.00,A,4624.2761020,N,11701.2421140,W,0.8359,67.538,280324,13.9,E*73
$GPGSA,A,3,13,15,17,19,,,,,,,,,2.4,1.1,2.1*3F
$GPGBS,155745.00,2.888,2.888,11.283,,,,*7F
{"class":"TPV","status":2,"mode":3,"time":"2024-03-28T15:57:45.000Z","leapseconds":18,"ept":0.005,"lat":46.404601700,"lon":-117.020701900,"altHAE":248.8940,"altMSL":267.0660,"alt":267.0660,"epx":2.888,"epy":2.888,"epv":11.283,"track":67.5376,"magtrack":81.3892,"magvar":13.9,"speed":0.430,"climb":0.354,"eps":5.77,"epc":22.40,"ecefx":-2001714.26,"ecefy":-3925078.82,"ecefz":4596554.61,"ecefvx":0.35,"ecefvy":-0.18,"ecefvz":0.26,"ecefpAcc":13.72,"ecefvAcc":0.85,"geoidSep":-15.351,"eph":7.806,"sep":11.307,"jam":6,"clockbias":-100209,"clockdrift":-332}
$GPGSV,6,1,23,02,20,095,00,05,03,267,20,07,46,116,29,08,21,045,13*74
$GPGSV,6,2,23,13,47,293,24,15,20,314,22,17,35,181,21,19,10,194,23*7C
$GPGSV,6,3,23,21,20,078,16,22,55,256,21,30,80,111,19,46,35,197,00*7F
$GPGSV,6,4,23,48,36,191,00,51,36,167,00,65,31,230,21,66,40,296,31*73
$GPGSV,6,5,23,67,10,342,00,74,15,079,00,75,61,035,28,76,39,292,32*7D
$GPGSV,6,6,23,84,30,046,00,85,35,115,21,86,05,157,23*41
{"class":"SKY","time":"2024-03-28T15:57:46.000Z","gdop":2.75,"hdop":1.09,"pdop":2.38,"tdop":1.37,"xdop":0.77,"ydop":0.77,"vdop":2.12,"nSat":23,"uSat":9,"satellites":[{"PRN":2,"gnssid":0,"svid":2,"az":95.0,"el":20.0,"prRes":9.5,"qual":1,"ss":0.0,"used":false,"health":1},{"PRN":5,"gnssid":0,"svid":5,"az":267.0,"el":3.0,"prRes":26.7,"qual":4,"ss":20.0,"used":false,"health":1},{"PRN":7,"gnssid":0,"svid":7,"az":116.0,"el":46.0,"prRes":11.6,"qual":4,"ss":29.0,"used":false,"health":1},{"PRN":8,"gnssid":0,"svid":8,"az":45.0,"el":21.0,"prRes":4.5,"qual":4,"ss":13.0,"used":false,"health":1},{"PRN":13,"gnssid":0,"svid":13,"az":293.0,"el":47.0,"prRes":29.3,"qual":4,"ss":24.0,"used":true,"health":1},{"PRN":15,"gnssid":0,"svid":15,"az":314.0,"el":20.0,"prRes":31.4,"qual":4,"ss":22.0,"used":true,"health":1},{"PRN":17,"gnssid":0,"svid":17,"az":181.0,"el":35.0,"prRes":18.1,"qual":5,"ss":21.0,"used":true,"health":1},{"PRN":19,"gnssid":0,"svid":19,"az":194.0,"el":10.0,"prRes":19.4,"qual":4,"ss":23.0,"used":true,"health":1},{"PRN":21,"gnssid":0,"svid":21,"az":78.0,"el":20.0,"prRes":7.8,"qual":4,"ss":16.0,"used":false,"health":1},{"PRN":22,"gnssid":0,"svid":22,"az":256.0,"el":55.0,"prRes":25.6,"qual":4,"ss":21.0,"used":false,"health":1},{"PRN":30,"gnssid":0,"svid":30,"az":111.0,"el":80.0,"prRes":11.1,"qual":4,"ss":19.0,"used":false,"health":1},{"PRN":46,"gnssid":1,"svid":133,"az":197.0,"el":35.0,"prRes":19.7,"qual":1,"ss":0.0,"used":false,"health":1},{"PRN":48,"gnssid":1,"svid":135,"az":191.0,"el":36.0,"prRes":19.1,"qual":1,"ss":0.0,"used":false,"health":1},{"PRN":51,"gnssid":1,"svid":138,"az":167.0,"el":36.0,"prRes":16.7,"qual":1,"ss":0.0,"used":false},{"PRN":65,"gnssid":6,"svid":1,"az":230.0,"el":31.0,"prRes":23.0,"qual":4,"ss":21.0,"used":true,"health":1},{"PRN":66,"gnssid":6,"svid":2,"az":296.0,"el":40.0,"prRes":29.6,"qual":5,"ss":31.0,"used":true,"health":1},{"PRN":67,"gnssid":6,"svid":3,"az":342.0,"el":10.0,"prRes":34.2,"qual":1,"ss":0.0,"used":false,"health":1},{"PRN":74,"gnssid":6,"svid":10,"az":79.0,"el":15.0,"prRes":7.9,"qual":1,"ss":0.0,"used":false,"health":1},{"PRN":75,"gnssid":6,"svid":11,"az":35.0,"el":61.0,"prRes":3.5,"qual":6,"ss":28.0,"used":true,"health":1},{"PRN":76,"gnssid":6,"svid":12,"az":292.0,"el":39.0,"prRes":29.2,"qual":6,"ss":32.0,"used":true,"health":1},{"PRN":84,"gnssid":6,"svid":20,"az":46.0,"el":30.0,"prRes":4.6,"qual":1,"ss":0.0,"used":false,"health":1},{"PRN":85,"gnssid":6,"svid":21,"az":115.0,"el":35.0,"prRes":11.5,"qual":4,"ss":21.0,"used":true,"health":1},{"PRN":86,"gnssid":6,"svid":22,"az":157.0,"el":5.0,"prRes":15.7,"qual":4,"ss":23.0,"used":false,"health":1}]}
{"class":"SKY","time":"2024-03-28T15:57:46.000Z","gdop":2.78,"hdop":1.09,"pdop":2.41,"tdop":1.39,"xdop":0.77,"ydop":0.77,"vdop":2.15}
$GPZDA,155746.00,28,03,2024,00,00*6F
$GPGGA,155746.00,4624.2762280,N,11701.2417540,W,2,09,1.09,267.08,M,-15.351,M,,*55
$GPRMC,155746.00,A,4624.2762280,N,11701.2417540,W,0.9544,67.538,280324,13.9,E*71
$GPGSA,A,3,13,15,17,19,,,,,,,,,2.4,1.1,2.1*3F
$GPGBS,155746.00,2.888,2.888,11.469,,,,*7E
{"class":"TPV","status":2,"mode":3,"time":"2024-03-28T15:57:46.000Z","leapseconds":18,"ept":0.005,"lat":46.404603800,"lon":-117.020695900,"altHAE":248.9060,"altMSL":267.0780,"alt":267.0780,"epx":2.888,"epy":2.888,"epv":11.469,"track":67.5376,"magtrack":81.3892,"magvar":13.9,"speed":0.491,"climb":0.012,"eps":5.77,"epc":22.75,"ecefx":-2001713.78,"ecefy":-3925078.89,"ecefz":4596554.77,"ecefvx":0.45,"ecefvy":-0.18,"ecefvz":0.12,"ecefpAcc":13.85,"ecefvAcc":0.55,"geoidSep":-15.351,"eph":7.760,"sep":11.307,"clockbias":-100540,"clockdrift":-332}
$GPGSV,6,1,23,02,20,095,00,05,03,267,22,07,46,116,30,08,21,045,13*7E
$GPGSV,6,2,23,13,47,293,23,15,20,314,23,17,35,181,23,19,10,194,25*7E
$GPGSV,6,3,23,21,20,078,16,22,55,256,22,30,80,111,20,46,35,197,00*76
$GPGSV,6,4,23,48,36,191,00,51,36,167,00,65,31,230,21,66,40,296,25*76
$GPGSV,6,5,23,67,10,342,00,74,15,079,00,75,61,035,18,76,39,292,24*79
$GPGSV,6,6,23,84,30,046,00,85,35,115,20,86,05,157,21*42
{"class":"SKY","time":"2024-03-28T15:57:47.000Z","gdop":2.75,"hdop":1.09,"pdop":2.38,"tdop":1.37,"xdop":0.77,"ydop":0.77,"vdop":2.12,"nSat":23,"uSat":9,"satellites":[{"PRN":2,"gnssid":0,"svid":2,"az":95.0,"el":20.0,"prRes":9.5,"qual":1,"ss":0.0,"used":false,"health":1},{"PRN":5,"gnssid":0,"svid":5,"az":267.0,"el":3.0,"prRes":26.7,"qual":4,"ss":22.0,"used":false,"health":1},{"PRN":7,"gnssid":0,"svid":7,"az":116.0,"el":46.0,"prRes":11.6,"qual":5,"ss":30.0,"used":false,"health":1},{"PRN":8,"gnssid":0,"svid":8,"az":45.0,"el":21.0,"prRes":4.5,"qual":4,"ss":13.0,"used":false,"health":1},{"PRN":13,"gnssid":0,"svid":13,"az":293.0,"el":47.0,"prRes":29.3,"qual":4,"ss":23.0,"used":true,"health":1},{"PRN":15,"gnssid":0,"svid":15,"az":314.0,"el":20.0,"prRes":31.4,"qual":4,"ss":23.0,"used":true,"health":1},{"PRN":17,"gnssid":0,"svid":17,"az":181.0,"el":35.0,"prRes":18.1,"qual":4,"ss":23.0,"used":true,"health":1},{"PRN":19,"gnssid":0,"svid":19,"az":194.0,"el":10.0,"prRes":19.4,"qual":4,"ss":25.0,"used":true,"health":1},{"PRN":21,"gnssid":0,"svid":21,"az":78.0,"el":20.0,"prRes":7.8,"qual":4,"ss":16.0,"used":false,"health":1},{"PRN":22,"gnssid":0,"svid":22,"az":256.0,"el":55.0,"prRes":25.6,"qual":4,"ss":22.0,"used":false,"health":1},{"PRN":30,"gnssid":0,"svid":30,"az":111.0,"el":80.0,"prRes":11.1,"qual":4,"ss":20.0,"used":false,"health":1},{"PRN":46,"gnssid":1,"svid":133,"az":197.0,"el":35.0,"prRes":19.7,"qual":1,"ss":0.0,"used":false,"health":1},{"PRN":48,"gnssid":1,"svid":135,"az":191.0,"el":36.0,"prRes":19.1,"qual":1,"ss":0.0,"used":false,"health":1},{"PRN":51,"gnssid":1,"svid":138,"az":167.0,"el":36.0,"prRes":16.7,"qual":1,"ss":0.0,"used":false},{"PRN":65,"gnssid":6,"svid":1,"az":230.0,"el":31.0,"prRes":23.0,"qual":4,"ss":21.0,"used":true,"health":1},{"PRN":66,"gnssid":6,"svid":2,"az":296.0,"el":40.0,"prRes":29.6,"qual":5,"ss":25.0,"used":true,"health":1},{"PRN":67,"gnssid":6,"svid":3,"az":342.0,"el":10.0,"prRes":34.2,"qual":1,"ss":0.0,"used":false,"health":1},{"PRN":74,"gnssid":6,"svid":10,"az":79.0,"el":15.0,"prRes":7.9,"qual":1,"ss":0.0,"used":false,"health":1},{"PRN":75,"gnssid":6,"svid":11,"az":35.0,"el":61.0,"prRes":3.5,"qual":4,"ss":18.0,"used":true,"health":1},{"PRN":76,"gnssid":6,"svid":12,"az":292.0,"el":39.0,"prRes":29.2,"qual":4,"ss":24.0,"used":true,"health":1},{"PRN":84,"gnssid":6,"svid":20,"az":46.0,"el":30.0,"prRes":4.6,"qual":1,"ss":0.0,"used":false,"health":1},{"PRN":85,"gnssid":6,"svid":21,"az":115.0,"el":35.0,"prRes":11.5,"qual":4,"ss":20.0,"used":true,"health":1},{"PRN":86,"gnssid":6,"svid":22,"az":157.0,"el":5.0,"prRes":15.7,"qual":4,"ss":21.0,"used":false,"health":1}]}
{"class":"SKY","time":"2024-03-28T15:57:47.000Z","gdop":2.78,"hdop":1.09,"pdop":2.41,"tdop":1.39,"xdop":0.77,"ydop":0.77,"vdop":2.15}
$GPZDA,155747.00,28,03,2024,00,00*6E
$GPGGA,155747.00,4624.2761320,N,11701.2417120,W,2,09,1.09,267.10,M,-15.351,M,,*57
$GPRMC,155747.00,A,4624.2761320,N,11701.2417120,W,0.3246,67.538,280324,13.9,E*75
$GPGSA,A,3,13,15,17,19,,,,,,,,,2.4,1.1,2.1*3F
$GPGBS,155747.00,2.888,2.888,11.696,,,,*7D
{"class":"TPV","status":2,"mode":3,"time":"2024-03-28T15:57:47.000Z","leapseconds":18,"ept":0.005,"lat":46.404602200,"lon":-117.020695200,"altHAE":248.9320,"altMSL":267.1040,"alt":267.1040,"epx":2.888,"epy":2.888,"epv":11.696,"track":67.5376,"magtrack":81.3892,"magvar":13.9,"speed":0.167,"climb":0.026,"eps":5.77,"epc":23.16,"ecefx":-2001713.80,"ecefy":-3925079.05,"ecefz":4596554.67,"ecefvx":-0.14,"ecefvy":-0.13,"ecefvz":-0.04,"ecefpAcc":14.09,"ecefvAcc":1.08,"geoidSep":-15.351,"eph":7.864,"sep":11.307,"clockbias":-100872,"clockdrift":-332}
$GPGSV,6,1,23,02,20,095,00,05,03,267,22,07,46,116,25,08,21,045,11*78
$GPGSV,6,2,23,13,47,293,19,15,20,314,21,17,35,181,21,19,10,194,22*70
$GPGSV,6,3,23,21,20,078,16,22,55,256,20,30,80,111,23,46,35,197,00*77
$GPGSV,6,4,23,48,36,191,00,51,36,167,00,65,30,230,19,66,40,296,24*7D
$GPGSV,6,5,23,67,10,342,00,74,15,079,00,75,61,035,16,76,39,292,23*70
$GPGSV,6,6,23,84,30,046,00,85,35,115,18,86,05,157,20*48
{"class":"SKY","time":"2024-03-28T15:57:48.000Z","gdop":2.76,"hdop":1.09,"pdop":2.39,"tdop":1.38,"xdop":0.78,"ydop":0.77,"vdop":2.13,"nSat":23,"uSat":9,"satellites":[{"PRN":2,"gnssid":0,"svid":2,"az":95.0,"el":20.0,"prRes":9.5,"qual":1,"ss":0.0,"used":false,"health":1},{"PRN":5,"gnssid":0,"svid":5,"az":267.0,"el":3.0,"prRes":26.7,"qual":4,"ss":22.0,"used":false,"health":1},{"PRN":7,"gnssid":0,"svid":7,"az":116.0,"el":46.0,"prRes":11.6,"qual":4,"ss":25.0,"used":false,"health":1},{"PRN":8,"gnssid":0,"svid":8,"az":45.0,"el":21.0,"prRes":4.5,"qual":4,"ss":11.0,"used":false,"health":1},{"PRN":13,"gnssid":0,"svid":13,"az":293.0,"el":47.0,"prRes":29.3,"qual":4,"ss":19.0,"used":true,"health":1},{"PRN":15,"gnssid":0,"svid":15,"az":314.0,"el":20.0,"prRes":31.4,"qual":4,"ss":21.0,"used":true,"health":1},{"PRN":17,"gnssid":0,"svid":17,"az":181.0,"el":35.0,"prRes":18.1,"qual":4,"ss":21.0,"used":true,"health":1},{"PRN":19,"gnssid":0,"svid":19,"az":194.0,"el":10.0,"prRes":19.4,"qual":4,"ss":22.0,"used":true,"health":1},{"PRN":21,"gnssid":0,"svid":21,"az":78.0,"el":20.0,"prRes":7.8,"qual":4,"ss":16.0,"used":false,"health":1},{"PRN":22,"gnssid":0,"svid":22,"az":256.0,"el":55.0,"prRes":25.6,"qual":4,"ss":20.0,"used":false,"health":1},{"PRN":30,"gnssid":0,"svid":30,"az":111.0,"el":80.0,"prRes":11.1,"qual":4,"ss":23.0,"used":false,"health":1},{"PRN":46,"gnssid":1,"svid":133,"az":197.0,"el":35.0,"prRes":19.7,"qual":1,"ss":0.0,"used":false,"health":1},{"PRN":48,"gnssid":1,"svid":135,"az":191.0,"el":36.0,"prRes":19.1,"qual":1,"ss":0.0,"used":false,"health":1},{"PRN":51,"gnssid":1,"svid":138,"az":167.0,"el":36.0,"prRes":16.7,"qual":1,"ss":0.0,"used":false},{"PRN":65,"gnssid":6,"svid":1,"az":230.0,"el":30.0,"prRes":23.0,"qual":4,"ss":19.0,"used":true,"health":1},{"PRN":66,"gnssid":6,"svid":2,"az":296.0,"el":40.0,"prRes":29.6,"qual":4,"ss":24.0,"used":true,"health":1},{"PRN":67,"gnssid":6,"svid":3,"az":342.0,"el":10.0,"prRes":34.2,"qual":1,"ss":0.0,"used":false,"health":1},{"PRN":74,"gnssid":6,"svid":10,"az":79.0,"el":15.0,"prRes":7.9,"qual":1,"ss":0.0,"used":false,"health":1},{"PRN":75,"gnssid":6,"svid":11,"az":35.0,"el":61.0,"prRes":3.5,"qual":4,"ss":16.0,"used":true,"health":1},{"PRN":76,"gnssid":6,"svid":12,"az":292.0,"el":39.0,"prRes":29.2,"qual":4,"ss":23.0,"used":true,"health":1},{"PRN":84,"gnssid":6,"svid":20,"az":46.0,"el":30.0,"prRes":4.6,"qual":1,"ss":0.0,"used":false,"health":1},{"PRN":85,"gnssid":6,"svid":21,"az":115.0,"el":35.0,"prRes":11.5,"qual":4,"ss":18.0,"used":true,"health":1},{"PRN":86,"gnssid":6,"svid":22,"az":157.0,"el":5.0,"prRes":15.7,"qual":4,"ss":20.0,"used":false,"health":1}]}
{"class":"SKY","time":"2024-03-28T15:57:48.000Z","gdop":2.78,"hdop":1.09,"pdop":2.41,"tdop":1.39,"xdop":0.77,"ydop":0.77,"vdop":2.15}
$GPZDA,155748.00,28,03,2024,00,00*61
$GPGGA,155748.00,4624.2759460,N,11701.2422880,W,2,09,1.09,267.39,M,-15.351,M,,*5E
$GPRMC,155748.00,A,4624.2759460,N,11701.2422880,W,1.4559,67.538,280324,13.9,E*78
$GPGSA,A,3,13,15,17,19,,,,,,,,,2.4,1.1,2.1*3F
$GPGBS,155748.00,2.888,2.888,12.022,,,,*78
{"class":"TPV","status":2,"mode":3,"time":"2024-03-28T15:57:48.000Z","leapseconds":18,"ept":0.005,"lat":46.404599100,"lon":-117.020704800,"altHAE":249.2190,"altMSL":267.3910,"alt":267.3910,"epx":2.888,"epy":2.888,"epv":12.022,"track":67.5376,"magtrack":81.3892,"magvar":13.9,"speed":0.749,"climb":0.287,"eps":5.77,"epc":23.72,"ecefx":-2001714.66,"ecefy":-3925079.11,"ecefz":4596554.64,"ecefvx":-0.75,"ecefvy":0.08,"ecefvz":-0.10,"ecefpAcc":14.54,"ecefvAcc":1.44,"geoidSep":-15.351,"eph":8.177,"sep":11.367,"clockbias":-101203,"clockdrift":-332}
$GPGSV,6,1,23,02,20,095,00,05,03,267,21,07,46,116,21,08,21,045,00*7F
$GPGSV,6,2,23,13,47,293,16,15,20,314,20,17,35,181,24,19,10,194,20*79
$GPGSV,6,3,23,21,20,078,00,22,55,256,17,30,80,111,19,46,35,197,00*7D
$GPGSV,6,4,23,48,36,191,00,51,36,167,00,65,30,230,23,66,40,295,22*71
$GPGSV,6,5,23,67,10,342,00,74,15,079,00,75,61,035,18,76,39,292,27*7A
$GPGSV,6,6,23,84,30,046,00,85,35,115,20,86,05,157,20*43
{"class":"SKY","time":"2024-03-28T15:57:49.000Z","gdop":2.76,"hdop":1.09,"pdop":2.39,"tdop":1.38,"xdop":0.78,"ydop":0.77,"vdop":2.13,"nSat":23,"uSat":9,"satellites":[{"PRN":2,"gnssid":0,"svid":2,"az":95.0,"el":20.0,"prRes":9.5,"qual":1,"ss":0.0,"used":false,"health":1},{"PRN":5,"gnssid":0,"svid":5,"az":267.0,"el":3.0,"prRes":26.7,"qual":4,"ss":21.0,"used":false,"health":1},{"PRN":7,"gnssid":0,"svid":7,"az":116.0,"el":46.0,"prRes":11.6,"qual":4,"ss":21.0,"used":false,"health":1},{"PRN":8,"gnssid":0,"svid":8,"az":45.0,"el":21.0,"prRes":4.5,"qual":1,"ss":0.0,"used":false,"health":1},{"PRN":13,"gnssid":0,"svid":13,"az":293.0,"el":47.0,"prRes":29.3,"qual":4,"ss":16.0,"used":true,"health":1},{"PRN":15,"gnssid":0,"svid":15,"az":314.0,"el":20.0,"prRes":31.4,"qual":4,"ss":20.0,"used":true,"health":1},{"PRN":17,"gnssid":0,"svid":17,"az":181.0,"el":35.0,"prRes":18.1,"qual":4,"ss":24.0,"used":true,"health":1},{"PRN":19,"gnssid":0,"svid":19,"az":194.0,"el":10.0,"prRes":19.4,"qual":4,"ss":20.0,"used":true,"health":1},{"PRN":21,"gnssid":0,"svid":21,"az":78.0,"el":20.0,"prRes":7.8,"qual":1,"ss":0.0,"used":false,"health":1},{"PRN":22,"gnssid":0,"svid":22,"az":256.0,"el":55.0,"prRes":25.6,"qual":4,"ss":17.0,"used":false,"health":1},{"PRN":30,"gnssid":0,"svid":30,"az":111.0,"el":80.0,"prRes":11.1,"qual":4,"ss":19.0,"used":false,"health":1},{"PRN":46,"gnssid":1,"svid":133,"az":197.0,"el":35.0,"prRes":19.7,"qual":1,"ss":0.0,"used":false,"health":1},{"PRN":48,"gnssid":1,"svid":135,"az":191.0,"el":36.0,"prRes":19.1,"qual":1,"ss":0.0,"used":false,"health":1},{"PRN":51,"gnssid":1,"svid":138,"az":167.0,"el":36.0,"prRes":16.7,"qual":1,"ss":0.0,"used":false},{"PRN":65,"gnssid":6,"svid":1,"az":230.0,"el":30.0,"prRes":23.0,"qual":4,"ss":23.0,"used":true,"health":1},{"PRN":66,"gnssid":6,"svid":2,"az":295.0,"el":40.0,"prRes":29.5,"qual":4,"ss":22.0,"used":true,"health":1},{"PRN":67,"gnssid":6,"svid":3,"az":342.0,"el":10.0,"prRes":34.2,"qual":1,"ss":0.0,"used":false,"health":1},{"PRN":74,"gnssid":6,"svid":10,"az":79.0,"el":15.0,"prRes":7.9,"qual":1,"ss":0.0,"used":false,"health":1},{"PRN":75,"gnssid":6,"svid":11,"az":35.0,"el":61.0,"prRes":3.5,"qual":4,"ss":18.0,"used":true,"health":1},{"PRN":76,"gnssid":6,"svid":12,"az":292.0,"el":39.0,"prRes":29.2,"qual":5,"ss":27.0,"used":true,"health":1},{"PRN":84,"gnssid":6,"svid":20,"az":46.0,"el":30.0,"prRes":4.6,"qual":1,"ss":0.0,"used":false,"health":1},{"PRN":85,"gnssid":6,"svid":21,"az":115.0,"el":35.0,"prRes":11.5,"qual":4,"ss":20.0,"used":true,"health":1},{"PRN":86,"gnssid":6,"svid":22,"az":157.0,"el":5.0,"prRes":15.7,"qual":4,"ss":20.0,"used":false,"health":1}]}
{"class":"SKY","time":"2024-03-28T15:57:49.000Z","gdop":2.78,"hdop":1.09,"pdop":2.41,"tdop":1.39,"xdop":0.77,"ydop":0.77,"vdop":2.15}
$GPZDA,155749.00,28,03,2024,00,00*60
$GPGGA,155749.00,4624.2760360,N,11701.2423840,W,2,09,1.09,266.82,M,-15.351,M,,*5E
$GPRMC,155749.00,A,4624.2760360,N,11701.2423840,W,0.8825,67.538,280324,13.9,E*72
$GPGSA,A,3,13,15,17,19,,,,,,,,,2.4,1.1,2.1*3F
$GPGBS,155749.00,2.888,2.888,12.406,,,,*7B
{"class":"TPV","status":2,"mode":3,"time":"2024-03-28T15:57:49.000Z","leapseconds":18,"ept":0.005,"lat":46.404600600,"lon":-117.020706400,"altHAE":248.6490,"altMSL":266.8210,"alt":266.8210,"epx":2.888,"epy":2.888,"epv":12.406,"track":67.5376,"magtrack":81.3892,"magvar":13.9,"speed":0.454,"climb":-0.570,"eps":5.77,"epc":24.43,"ecefx":-2001714.53,"ecefy":-3925078.59,"ecefz":4596554.34,"ecefvx":-0.41,"ecefvy":0.19,"ecefvz":0.09,"ecefpAcc":15.04,"ecefvAcc":1.16,"geoidSep":-15.351,"eph":8.494,"sep":11.358,"clockbias":-101537,"clockdrift":-332}
$GPZDA,155749.00,28,03,2024,00,00*60
$GPGGA,155749.00,4624.2760360,N,11701.2423840,W,2,09,1.09,266.82,M,-15.351,M,,*5E
$GPRMC,155749.00,A,4624.2760360,N,11701.2423840,W,0.8825,67.538,280324,13.9,E*72
$GPGSA,A,3,13,15,17,19,,,,,,,,,2.4,1.1,2.1*3F
$GPGBS,155749.00,2.888,2.888,12.406,,,,*7B
{"class":"TPV","status":2,"mode":3,"time":"2024-03-28T15:57:49.000Z","leapseconds":18,"ept":0.005,"lat":46.404600600,"lon":-117.020706400,"altHAE":248.6490,"altMSL":266.8210,"alt":266.8210,"epx":2.888,"epy":2.888,"epv":12.406,"track":67.5376,"magtrack":81.3892,"magvar":13.9,"speed":0.454,"climb":-0.570,"eps":5.77,"epc":24.43,"ecefx":-2001714.53,"ecefy":-3925078.59,"ecefz":4596554.34,"ecefvx":-0.41,"ecefvy":0.19,"ecefvz":0.09,"ecefpAcc":15.04,"ecefvAcc":1.16,"geoidSep":-15.351,"eph":8.494,"sep":11.358,"jam":3,"clockbias":-101537,"clockdrift":-332}
$GPGSV,6,1,23,02,20,095,00,05,03,267,18,07,46,116,17,08,21,045,00*70
$GPGSV,6,2,23,13,47,293,17,15,20,314,19,17,35,181,22,19,10,194,17*70
$GPGSV,6,3,23,21,20,078,00,22,55,256,14,30,80,111,13,46,35,197,00*74
$GPGSV,6,4,23,48,36,191,00,51,36,167,00,65,30,230,23,66,40,295,18*78
$GPGSV,6,5,23,67,10,341,00,74,15,079,00,75,61,035,17,76,39,292,26*77
$GPGSV,6,6,23,84,30,046,00,85,35,115,19,86,05,157,19*43
{"class":"SKY","time":"2024-03-28T15:57:50.000Z","gdop":2.76,"hdop":1.09,"pdop":2.39,"tdop":1.38,"xdop":0.78,"ydop":0.77,"vdop":2.13,"nSat":23,"uSat":9,"satellites":[{"PRN":2,"gnssid":0,"svid":2,"az":95.0,"el":20.0,"prRes":9.5,"qual":1,"ss":0.0,"used":false,"health":1},{"PRN":5,"gnssid":0,"svid":5,"az":267.0,"el":3.0,"prRes":26.7,"qual":4,"ss":18.0,"used":false,"health":1},{"PRN":7,"gnssid":0,"svid":7,"az":116.0,"el":46.0,"prRes":11.6,"qual":4,"ss":17.0,"used":false,"health":1},{"PRN":8,"gnssid":0,"svid":8,"az":45.0,"el":21.0,"prRes":4.5,"qual":1,"ss":0.0,"used":false,"health":1},{"PRN":13,"gnssid":0,"svid":13,"az":293.0,"el":47.0,"prRes":29.3,"qual":4,"ss":17.0,"used":true,"health":1},{"PRN":15,"gnssid":0,"svid":15,"az":314.0,"el":20.0,"prRes":31.4,"qual":4,"ss":19.0,"used":true,"health":1},{"PRN":17,"gnssid":0,"svid":17,"az":181.0,"el":35.0,"prRes":18.1,"qual":4,"ss":22.0,"used":true,"health":1},{"PRN":19,"gnssid":0,"svid":19,"az":194.0,"el":10.0,"prRes":19.4,"qual":4,"ss":17.0,"used":true,"health":1},{"PRN":21,"gnssid":0,"svid":21,"az":78.0,"el":20.0,"prRes":7.8,"qual":1,"ss":0.0,"used":false,"health":1},{"PRN":22,"gnssid":0,"svid":22,"az":256.0,"el":55.0,"prRes":25.6,"qual":4,"ss":14.0,"used":false,"health":1},{"PRN":30,"gnssid":0,"svid":30,"az":111.0,"el":80.0,"prRes":11.1,"qual":4,"ss":13.0,"used":false,"health":1},{"PRN":46,"gnssid":1,"svid":133,"az":197.0,"el":35.0,"prRes":19.7,"qual":1,"ss":0.0,"used":false,"health":1},{"PRN":48,"gnssid":1,"svid":135,"az":191.0,"el":36.0,"prRes":19.1,"qual":1,"ss":0.0,"used":false,"health":1},{"PRN":51,"gnssid":1,"svid":138,"az":167.0,"el":36.0,"prRes":16.7,"qual":1,"ss":0.0,"used":false},{"PRN":65,"gnssid":6,"svid":1,"az":230.0,"el":30.0,"prRes":23.0,"qual":4,"ss":23.0,"used":true,"health":1},{"PRN":66,"gnssid":6,"svid":2,"az":295.0,"el":40.0,"prRes":29.5,"qual":4,"ss":18.0,"used":true,"health":1},{"PRN":67,"gnssid":6,"svid":3,"az":341.0,"el":10.0,"prRes":34.1,"qual":1,"ss":0.0,"used":false,"health":1},{"PRN":74,"gnssid":6,"svid":10,"az":79.0,"el":15.0,"prRes":7.9,"qual":1,"ss":0.0,"used":false,"health":1},{"PRN":75,"gnssid":6,"svid":11,"az":35.0,"el":61.0,"prRes":3.5,"qual":4,"ss":17.0,"used":true,"health":1},{"PRN":76,"gnssid":6,"svid":12,"az":292.0,"el":39.0,"prRes":29.2,"qual":6,"ss":26.0,"used":true,"health":1},{"PRN":84,"gnssid":6,"svid":20,"az":46.0,"el":30.0,"prRes":4.6,"qual":1,"ss":0.0,"used":false,"health":1},{"PRN":85,"gnssid":6,"svid":21,"az":115.0,"el":35.0,"prRes":11.5,"qual":4,"ss":19.0,"used":true,"health":1},{"PRN":86,"gnssid":6,"svid":22,"az":157.0,"el":5.0,"prRes":15.7,"qual":4,"ss":19.0,"used":false,"health":1}]}
{"class":"SKY","time":"2024-03-28T15:57:50.000Z","gdop":2.78,"hdop":1.09,"pdop":2.41,"tdop":1.40,"xdop":0.77,"ydop":0.77,"vdop":2.15}
$GPZDA,155750.00,28,03,2024,00,00*68
$GPGGA,155750.00,4624.2754900,N,11701.2426960,W,2,09,1.09,266.77,M,-15.351,M,,*51
$GPRMC,155750.00,A,4624.2754900,N,11701.2426960,W,2.0896,67.538,280324,13.9,E*75
$GPGSA,A,3,13,15,17,19,,,,,,,,,2.4,1.1,2.1*3F
$GPGBS,155750.00,2.888,2.888,12.864,,,,*7B
{"class":"TPV","status":2,"mode":3,"time":"2024-03-28T15:57:50.000Z","leapseconds":18,"ept":0.005,"lat":46.404591500,"lon":-117.020711600,"altHAE":248.5980,"altMSL":266.7700,"alt":266.7700,"epx":2.888,"epy":2.888,"epv":12.864,"track":67.5376,"magtrack":81.3892,"magvar":13.9,"speed":1.075,"climb":-0.051,"eps":5.77,"epc":25.27,"ecefx":-2001715.20,"ecefy":-3925079.03,"ecefz":4596553.61,"ecefvx":-0.63,"ecefvy":-0.55,"ecefvz":-0.68,"ecefpAcc":15.59,"ecefvAcc":1.35,"geoidSep":-15.351,"eph":8.799,"sep":11.358,"clockbias":-101870,"clockdrift":-332}
$GPGSV,6,1,23,02,20,095,00,05,03,267,15,07,46,116,15,08,21,045,00*7F
$GPGSV,6,2,23,13,47,293,16,15,20,314,19,17,35,181,21,19,10,194,14*71
$GPGSV,6,3,23,21,20,078,00,22,55,256,11,30,80,111,15,46,35,197,00*77
$GPGSV,6,4,23,48,36,191,00,51,36,167,00,65,30,230,21,66,40,295,19*7B
$GPGSV,6,5,23,67,10,341,00,74,15,079,00,75,61,035,17,76,39,292,25*74
$GPGSV,6,6,23,84,30,046,00,85,35,115,19,86,05,157,20*49
