$GPZDA,022741.00,04,10,2020,00,00*61
$GPGGA,022741.00,4622.0449,N,11657.8209,W,2,11,,478.45,M,-15.307,M,,*4A
$GPRMC,022741.00,A,4622.0449,N,11657.8209,W,0.0259,273.384,041020,13.8,E*4E
$GPGSA,A,3,,,,,,,,,,,,,,,*1C
{"class":"TPV","status":2,"mode":3,"time":"2020-10-04T02:27:41.000Z","ept":0.005,"lat":46.367414504,"lon":-116.963682407,"altHAE":463.1416,"altMSL":478.4481,"alt":478.4481,"track":273.3843,"magtrack":287.2122,"magvar":13.8,"speed":0.013,"climb":0.027,"eps":0.37,"ecefx":-1999231.22,"ecefy":-3929868.28,"ecefz":4593858.16,"ecefvx":-0.02,"ecefvy":-0.01,"ecefvz":0.02,"ecefpAcc":6.31,"ecefvAcc":0.37,"velN":0.001,"velE":-0.013,"velD":-0.027,"geoidSep":-15.307}
$GPGSV,4,1,16,02,06,322,28,03,34,183,28,04,81,068,30,06,12,279,20*79
$GPGSV,4,2,16,07,28,249,30,09,54,302,40,16,55,100,37,22,15,174,19*78
$GPGSV,4,3,16,26,34,054,29,27,04,122,15,29,01,015,13,31,00,064,00*78
$GPGSV,4,4,16,46,35,197,31,48,34,202,00,51,36,167,32,193,04,304,18*4D
{"class":"SKY","time":"2020-10-04T02:27:41.000Z","xdop":0.68,"ydop":0.54,"vdop":1.33,"tdop":0.84,"hdop":0.87,"gdop":1.80,"pdop":1.59,"nSat":18,"uSat":11,"satellites":[{"PRN":2,"el":6.0,"az":322.0,"ss":28.0,"used":true,"gnssid":0,"svid":2,"health":1},{"PRN":3,"el":34.0,"az":183.0,"ss":28.0,"used":true,"gnssid":0,"svid":3,"health":1},{"PRN":4,"el":81.0,"az":68.0,"ss":30.0,"used":true,"gnssid":0,"svid":4,"health":1},{"PRN":6,"el":12.0,"az":279.0,"ss":20.0,"used":true,"gnssid":0,"svid":6,"health":1},{"PRN":7,"el":28.0,"az":249.0,"ss":30.0,"used":true,"gnssid":0,"svid":7,"health":1},{"PRN":9,"el":54.0,"az":302.0,"ss":40.0,"used":true,"gnssid":0,"svid":9,"health":1},{"PRN":16,"el":55.0,"az":100.0,"ss":37.0,"used":true,"gnssid":0,"svid":16,"health":1},{"PRN":22,"el":15.0,"az":174.0,"ss":19.0,"used":true,"gnssid":0,"svid":22,"health":1},{"PRN":26,"el":34.0,"az":54.0,"ss":29.0,"used":true,"gnssid":0,"svid":26,"health":1},{"PRN":27,"el":4.0,"az":122.0,"ss":15.0,"used":false,"gnssid":0,"svid":27,"health":1},{"PRN":29,"el":1.0,"az":15.0,"ss":13.0,"used":false,"gnssid":0,"svid":29,"health":1},{"PRN":31,"el":0.0,"az":64.0,"ss":0.0,"used":false,"gnssid":0,"svid":31,"health":1},{"PRN":46,"el":35.0,"az":197.0,"ss":31.0,"used":true,"gnssid":1,"svid":133,"health":1},{"PRN":48,"el":34.0,"az":202.0,"ss":0.0,"used":false,"gnssid":1,"svid":135,"health":1},{"PRN":51,"el":36.0,"az":167.0,"ss":32.0,"used":true,"gnssid":1,"svid":138,"health":1},{"PRN":193,"el":4.0,"az":304.0,"ss":18.0,"used":false,"gnssid":5,"svid":1,"health":1},{"PRN":196,"az":0.0,"ss":0.0,"used":false,"gnssid":5,"svid":4,"health":1},{"PRN":197,"az":0.0,"ss":0.0,"used":false,"gnssid":5,"svid":5,"health":1}]}
$GPZDA,022742.00,04,10,2020,00,00*62
$GPGGA,022742.00,4622.0449,N,11657.8209,W,2,11,0.86,478.45,M,-15.307,M,,*59
$GPRMC,022742.00,A,4622.0449,N,11657.8209,W,0.0259,273.384,041020,13.8,E*4D
$GPGSA,A,3,2,3,4,6,7,9,16,22,26,,,,1.6,0.9,1.3*30
$GPGBS,022742.00,2.549,2.013,7.672,,,,*4E
{"class":"TPV","status":2,"mode":3,"time":"2020-10-04T02:27:42.000Z","leapseconds":18,"ept":0.005,"lat":46.367414504,"lon":-116.963682407,"altHAE":463.1416,"altMSL":478.4481,"alt":478.4481,"epx":2.549,"epy":2.013,"epv":7.672,"track":273.3843,"magtrack":287.2122,"magvar":13.8,"speed":0.013,"climb":0.027,"eps":0.30,"epc":15.34,"ecefx":-1999231.28,"ecefy":-3929868.25,"ecefz":4593858.16,"ecefvx":-0.01,"ecefvy":-0.01,"ecefvz":-0.01,"ecefpAcc":6.29,"ecefvAcc":0.30,"velN":0.001,"velE":-0.013,"velD":-0.027,"geoidSep":-15.307,"eph":4.114,"sep":7.556}
$GPGSV,4,1,16,02,06,322,28,03,34,183,28,04,81,068,31,06,12,279,19*72
$GPGSV,4,2,16,07,28,249,30,09,54,302,40,16,55,100,37,22,15,174,20*72
$GPGSV,4,3,16,26,34,054,29,27,04,122,15,29,01,015,13,31,00,064,00*78
$GPGSV,4,4,16,46,35,197,31,48,34,202,00,51,36,167,32,193,04,304,17*42
{"class":"SKY","time":"2020-10-04T02:27:42.000Z","xdop":0.68,"ydop":0.54,"vdop":1.33,"tdop":0.83,"hdop":0.86,"gdop":1.79,"pdop":1.59,"nSat":18,"uSat":11,"satellites":[{"PRN":2,"el":6.0,"az":322.0,"ss":28.0,"used":true,"gnssid":0,"svid":2,"health":1},{"PRN":3,"el":34.0,"az":183.0,"ss":28.0,"used":true,"gnssid":0,"svid":3,"health":1},{"PRN":4,"el":81.0,"az":68.0,"ss":31.0,"used":true,"gnssid":0,"svid":4,"health":1},{"PRN":6,"el":12.0,"az":279.0,"ss":19.0,"used":true,"gnssid":0,"svid":6,"health":1},{"PRN":7,"el":28.0,"az":249.0,"ss":30.0,"used":true,"gnssid":0,"svid":7,"health":1},{"PRN":9,"el":54.0,"az":302.0,"ss":40.0,"used":true,"gnssid":0,"svid":9,"health":1},{"PRN":16,"el":55.0,"az":100.0,"ss":37.0,"used":true,"gnssid":0,"svid":16,"health":1},{"PRN":22,"el":15.0,"az":174.0,"ss":20.0,"used":true,"gnssid":0,"svid":22,"health":1},{"PRN":26,"el":34.0,"az":54.0,"ss":29.0,"used":true,"gnssid":0,"svid":26,"health":1},{"PRN":27,"el":4.0,"az":122.0,"ss":15.0,"used":false,"gnssid":0,"svid":27,"health":1},{"PRN":29,"el":1.0,"az":15.0,"ss":13.0,"used":false,"gnssid":0,"svid":29,"health":1},{"PRN":31,"el":0.0,"az":64.0,"ss":0.0,"used":false,"gnssid":0,"svid":31,"health":1},{"PRN":46,"el":35.0,"az":197.0,"ss":31.0,"used":true,"gnssid":1,"svid":133,"health":1},{"PRN":48,"el":34.0,"az":202.0,"ss":0.0,"used":false,"gnssid":1,"svid":135,"health":1},{"PRN":51,"el":36.0,"az":167.0,"ss":32.0,"used":true,"gnssid":1,"svid":138,"health":1},{"PRN":193,"el":4.0,"az":304.0,"ss":17.0,"used":false,"gnssid":5,"svid":1,"health":1},{"PRN":196,"az":0.0,"ss":0.0,"used":false,"gnssid":5,"svid":4,"health":1},{"PRN":197,"az":0.0,"ss":0.0,"used":false,"gnssid":5,"svid":5,"health":1}]}
{"class":"TPV","status":2,"mode":3,"time":"2020-10-04T02:27:42.000Z","leapseconds":18,"ept":0.005,"lat":46.367414504,"lon":-116.963682407,"altHAE":463.1416,"altMSL":478.4481,"alt":478.4481,"epx":2.549,"epy":2.013,"epv":7.672,"track":273.3843,"magtrack":287.2122,"magvar":13.8,"speed":0.013,"climb":0.027,"eps":5.10,"epc":15.34,"ecefx":-1999231.28,"ecefy":-3929868.25,"ecefz":4593858.16,"ecefvx":-0.01,"ecefvy":-0.01,"ecefvz":-0.01,"ecefpAcc":6.29,"ecefvAcc":0.30,"velN":0.001,"velE":-0.013,"velD":-0.027,"geoidSep":-15.307,"eph":4.114,"sep":7.556}
$GPZDA,022743.00,04,10,2020,00,00*63
$GPGGA,022743.00,4622.0449,N,11657.8209,W,2,11,0.86,478.45,M,-15.307,M,,*58
$GPRMC,022743.00,A,4622.0449,N,11657.8209,W,0.0259,273.384,041020,13.8,E*4C
$GPGSA,A,3,2,3,4,6,7,9,16,22,26,,,,1.6,0.9,1.3*30
$GPGBS,022743.00,2.549,2.013,7.672,,,,*4F
{"class":"TPV","status":2,"mode":3,"time":"2020-10-04T02:27:43.000Z","leapseconds":18,"ept":0.005,"lat":46.367414504,"lon":-116.963682407,"altHAE":463.1416,"altMSL":478.4481,"alt":478.4481,"epx":2.549,"epy":2.013,"epv":7.672,"track":273.3843,"magtrack":287.2122,"magvar":13.8,"speed":0.013,"climb":0.027,"eps":0.26,"epc":15.34,"ecefx":-1999231.33,"ecefy":-3929868.24,"ecefz":4593858.17,"ecefvx":0.00,"ecefvy":0.02,"ecefvz":0.00,"ecefpAcc":6.27,"ecefvAcc":0.26,"velN":0.001,"velE":-0.013,"velD":-0.027,"geoidSep":-15.307,"eph":4.114,"sep":7.556}
$GPGSV,4,1,16,02,06,322,28,03,34,183,29,04,81,068,31,06,12,279,19*73
$GPGSV,4,2,16,07,28,249,30,09,54,302,40,16,55,100,37,22,15,174,19*78
$GPGSV,4,3,16,26,34,054,29,27,04,122,15,29,01,014,14,31,00,064,00*7E
$GPGSV,4,4,16,46,35,197,31,48,34,202,00,51,36,167,32,193,04,304,17*42
{"class":"SKY","time":"2020-10-04T02:27:43.000Z","xdop":0.68,"ydop":0.54,"vdop":1.33,"tdop":0.83,"hdop":0.86,"gdop":1.79,"pdop":1.59,"nSat":18,"uSat":11,"satellites":[{"PRN":2,"el":6.0,"az":322.0,"ss":28.0,"used":true,"gnssid":0,"svid":2,"health":1},{"PRN":3,"el":34.0,"az":183.0,"ss":29.0,"used":true,"gnssid":0,"svid":3,"health":1},{"PRN":4,"el":81.0,"az":68.0,"ss":31.0,"used":true,"gnssid":0,"svid":4,"health":1},{"PRN":6,"el":12.0,"az":279.0,"ss":19.0,"used":true,"gnssid":0,"svid":6,"health":1},{"PRN":7,"el":28.0,"az":249.0,"ss":30.0,"used":true,"gnssid":0,"svid":7,"health":1},{"PRN":9,"el":54.0,"az":302.0,"ss":40.0,"used":true,"gnssid":0,"svid":9,"health":1},{"PRN":16,"el":55.0,"az":100.0,"ss":37.0,"used":true,"gnssid":0,"svid":16,"health":1},{"PRN":22,"el":15.0,"az":174.0,"ss":19.0,"used":true,"gnssid":0,"svid":22,"health":1},{"PRN":26,"el":34.0,"az":54.0,"ss":29.0,"used":true,"gnssid":0,"svid":26,"health":1},{"PRN":27,"el":4.0,"az":122.0,"ss":15.0,"used":false,"gnssid":0,"svid":27,"health":1},{"PRN":29,"el":1.0,"az":14.0,"ss":14.0,"used":false,"gnssid":0,"svid":29,"health":1},{"PRN":31,"el":0.0,"az":64.0,"ss":0.0,"used":false,"gnssid":0,"svid":31,"health":1},{"PRN":46,"el":35.0,"az":197.0,"ss":31.0,"used":true,"gnssid":1,"svid":133,"health":1},{"PRN":48,"el":34.0,"az":202.0,"ss":0.0,"used":false,"gnssid":1,"svid":135,"health":1},{"PRN":51,"el":36.0,"az":167.0,"ss":32.0,"used":true,"gnssid":1,"svid":138,"health":1},{"PRN":193,"el":4.0,"az":304.0,"ss":17.0,"used":false,"gnssid":5,"svid":1,"health":1},{"PRN":196,"az":0.0,"ss":0.0,"used":false,"gnssid":5,"svid":4,"health":1},{"PRN":197,"az":0.0,"ss":0.0,"used":false,"gnssid":5,"svid":5,"health":1}]}
$GPZDA,022744.00,04,10,2020,00,00*64
$GPGGA,022744.00,4622.0449,N,11657.8209,W,2,10,0.86,478.45,M,-15.307,M,,*5E
$GPRMC,022744.00,A,4622.0449,N,11657.8209,W,0.0259,273.384,041020,13.8,E*4B
$GPGSA,A,3,2,3,4,6,7,9,16,22,26,,,,1.6,0.9,1.3*30
$GPGBS,022744.00,2.549,2.013,7.672,,,,*48
{"class":"TPV","status":2,"mode":3,"time":"2020-10-04T02:27:44.000Z","leapseconds":18,"ept":0.005,"lat":46.367414504,"lon":-116.963682407,"altHAE":463.1416,"altMSL":478.4481,"alt":478.4481,"epx":2.549,"epy":2.013,"epv":7.672,"track":273.3843,"magtrack":287.2122,"magvar":13.8,"speed":0.013,"climb":0.027,"eps":0.28,"epc":15.34,"ecefx":-1999231.37,"ecefy":-3929868.21,"ecefz":4593858.16,"ecefvx":-0.02,"ecefvy":0.01,"ecefvz":0.01,"ecefpAcc":6.25,"ecefvAcc":0.28,"velN":0.001,"velE":-0.013,"velD":-0.027,"geoidSep":-15.307,"eph":4.114,"sep":7.556}
$GPGSV,4,1,16,02,06,322,28,03,34,183,28,04,81,068,31,06,12,279,00*7A
$GPGSV,4,2,16,07,28,249,30,09,54,302,40,16,55,100,37,22,15,174,19*78
$GPGSV,4,3,16,26,34,054,29,27,04,122,17,29,01,014,15,31,00,064,00*7D
$GPGSV,4,4,16,46,35,197,31,48,34,202,00,51,36,167,32,193,04,304,18*4D
{"class":"SKY","time":"2020-10-04T02:27:44.000Z","xdop":0.73,"ydop":0.54,"vdop":1.33,"tdop":0.83,"hdop":0.86,"gdop":1.79,"pdop":1.59,"nSat":18,"uSat":10,"satellites":[{"PRN":2,"el":6.0,"az":322.0,"ss":28.0,"used":true,"gnssid":0,"svid":2,"health":1},{"PRN":3,"el":34.0,"az":183.0,"ss":28.0,"used":true,"gnssid":0,"svid":3,"health":1},{"PRN":4,"el":81.0,"az":68.0,"ss":31.0,"used":true,"gnssid":0,"svid":4,"health":1},{"PRN":6,"el":12.0,"az":279.0,"ss":0.0,"used":false,"gnssid":0,"svid":6,"health":1},{"PRN":7,"el":28.0,"az":249.0,"ss":30.0,"used":true,"gnssid":0,"svid":7,"health":1},{"PRN":9,"el":54.0,"az":302.0,"ss":40.0,"used":true,"gnssid":0,"svid":9,"health":1},{"PRN":16,"el":55.0,"az":100.0,"ss":37.0,"used":true,"gnssid":0,"svid":16,"health":1},{"PRN":22,"el":15.0,"az":174.0,"ss":19.0,"used":true,"gnssid":0,"svid":22,"health":1},{"PRN":26,"el":34.0,"az":54.0,"ss":29.0,"used":true,"gnssid":0,"svid":26,"health":1},{"PRN":27,"el":4.0,"az":122.0,"ss":17.0,"used":false,"gnssid":0,"svid":27,"health":1},{"PRN":29,"el":1.0,"az":14.0,"ss":15.0,"used":false,"gnssid":0,"svid":29,"health":1},{"PRN":31,"el":0.0,"az":64.0,"ss":0.0,"used":false,"gnssid":0,"svid":31,"health":1},{"PRN":46,"el":35.0,"az":197.0,"ss":31.0,"used":true,"gnssid":1,"svid":133,"health":1},{"PRN":48,"el":34.0,"az":202.0,"ss":0.0,"used":false,"gnssid":1,"svid":135,"health":1},{"PRN":51,"el":36.0,"az":167.0,"ss":32.0,"used":true,"gnssid":1,"svid":138,"health":1},{"PRN":193,"el":4.0,"az":304.0,"ss":18.0,"used":false,"gnssid":5,"svid":1,"health":1},{"PRN":196,"az":0.0,"ss":0.0,"used":false,"gnssid":5,"svid":4,"health":1},{"PRN":197,"az":0.0,"ss":0.0,"used":false,"gnssid":5,"svid":5,"health":1}]}
{"class":"TPV","status":2,"mode":3,"time":"2020-10-04T02:27:44.000Z","leapseconds":18,"ept":0.005,"lat":46.367414504,"lon":-116.963682407,"altHAE":463.1416,"altMSL":478.4481,"alt":478.4481,"epx":2.745,"epy":2.030,"epv":7.672,"track":273.3843,"magtrack":287.2122,"magvar":13.8,"speed":0.013,"climb":0.027,"eps":5.29,"epc":15.34,"ecefx":-1999231.37,"ecefy":-3929868.21,"ecefz":4593858.16,"ecefvx":-0.02,"ecefvy":0.01,"ecefvz":0.01,"ecefpAcc":6.25,"ecefvAcc":0.28,"velN":0.001,"velE":-0.013,"velD":-0.027,"geoidSep":-15.307,"eph":4.114,"sep":7.556}
$GPZDA,022745.00,04,10,2020,00,00*65
$GPGGA,022745.00,4622.0449,N,11657.8209,W,2,10,0.91,478.45,M,-15.307,M,,*59
$GPRMC,022745.00,A,4622.0449,N,11657.8209,W,0.0259,273.384,041020,13.8,E*4A
$GPGSA,A,3,2,3,4,7,9,16,22,26,,,,,1.6,0.9,1.4*01
$GPGBS,022745.00,2.745,2.030,7.672,,,,*46
{"class":"TPV","status":2,"mode":3,"time":"2020-10-04T02:27:45.000Z","leapseconds":18,"ept":0.005,"lat":46.367414504,"lon":-116.963682407,"altHAE":463.1416,"altMSL":478.4481,"alt":478.4481,"epx":2.745,"epy":2.030,"epv":7.672,"track":273.3843,"magtrack":287.2122,"magvar":13.8,"speed":0.013,"climb":0.027,"eps":0.37,"epc":15.34,"ecefx":-1999231.39,"ecefy":-3929868.16,"ecefz":4593858.12,"ecefvx":-0.03,"ecefvy":-0.01,"ecefvz":0.02,"ecefpAcc":6.23,"ecefvAcc":0.37,"velN":0.001,"velE":-0.013,"velD":-0.027,"geoidSep":-15.307,"eph":4.114,"sep":7.556}
$GPGSV,5,1,17,02,06,322,28,03,34,183,28,04,81,068,31,06,12,279,19*72
$GPGSV,5,2,17,07,28,249,30,09,54,302,40,16,55,100,37,22,15,174,19*78
$GPGSV,5,3,17,26,34,054,29,27,04,122,12,29,01,014,14,30,00,246,00*7A
$GPGSV,5,4,17,31,00,064,00,46,35,197,31,48,34,202,00,51,36,167,32*7C
$GPGSV,5,5,17,193,04,304,18*7E
{"class":"SKY","time":"2020-10-04T02:27:45.000Z","xdop":0.73,"ydop":0.54,"vdop":1.36,"tdop":0.87,"hdop":0.91,"gdop":1.86,"pdop":1.64,"nSat":19,"uSat":10,"satellites":[{"PRN":2,"el":6.0,"az":322.0,"ss":28.0,"used":true,"gnssid":0,"svid":2,"health":1},{"PRN":3,"el":34.0,"az":183.0,"ss":28.0,"used":true,"gnssid":0,"svid":3,"health":1},{"PRN":4,"el":81.0,"az":68.0,"ss":31.0,"used":true,"gnssid":0,"svid":4,"health":1},{"PRN":6,"el":12.0,"az":279.0,"ss":19.0,"used":false,"gnssid":0,"svid":6,"health":1},{"PRN":7,"el":28.0,"az":249.0,"ss":30.0,"used":true,"gnssid":0,"svid":7,"health":1},{"PRN":9,"el":54.0,"az":302.0,"ss":40.0,"used":true,"gnssid":0,"svid":9,"health":1},{"PRN":16,"el":55.0,"az":100.0,"ss":37.0,"used":true,"gnssid":0,"svid":16,"health":1},{"PRN":22,"el":15.0,"az":174.0,"ss":19.0,"used":true,"gnssid":0,"svid":22,"health":1},{"PRN":26,"el":34.0,"az":54.0,"ss":29.0,"used":true,"gnssid":0,"svid":26,"health":1},{"PRN":27,"el":4.0,"az":122.0,"ss":12.0,"used":false,"gnssid":0,"svid":27,"health":1},{"PRN":29,"el":1.0,"az":14.0,"ss":14.0,"used":false,"gnssid":0,"svid":29,"health":1},{"PRN":30,"el":0.0,"az":246.0,"ss":0.0,"used":false,"gnssid":0,"svid":30,"health":1},{"PRN":31,"el":0.0,"az":64.0,"ss":0.0,"used":false,"gnssid":0,"svid":31,"health":1},{"PRN":46,"el":35.0,"az":197.0,"ss":31.0,"used":true,"gnssid":1,"svid":133,"health":1},{"PRN":48,"el":34.0,"az":202.0,"ss":0.0,"used":false,"gnssid":1,"svid":135,"health":1},{"PRN":51,"el":36.0,"az":167.0,"ss":32.0,"used":true,"gnssid":1,"svid":138,"health":1},{"PRN":193,"el":4.0,"az":304.0,"ss":18.0,"used":false,"gnssid":5,"svid":1,"health":1},{"PRN":196,"az":0.0,"ss":0.0,"used":false,"gnssid":5,"svid":4,"health":1},{"PRN":197,"az":0.0,"ss":0.0,"used":false,"gnssid":5,"svid":5,"health":1}]}
$GPZDA,022746.00,04,10,2020,00,00*66
$GPGGA,022746.00,4622.0449,N,11657.8209,W,2,10,0.91,478.45,M,-15.307,M,,*5A
$GPRMC,022746.00,A,4622.0449,N,11657.8209,W,0.0259,273.384,041020,13.8,E*49
$GPGSA,A,3,2,3,4,7,9,16,22,26,,,,,1.6,0.9,1.4*01
$GPGBS,022746.00,2.745,2.030,7.672,,,,*45
{"class":"TPV","status":2,"mode":3,"time":"2020-10-04T02:27:46.000Z","leapseconds":18,"ept":0.005,"lat":46.367414504,"lon":-116.963682407,"altHAE":463.1416,"altMSL":478.4481,"alt":478.4481,"epx":2.745,"epy":2.030,"epv":7.672,"track":273.3843,"magtrack":287.2122,"magvar":13.8,"speed":0.013,"climb":0.027,"eps":0.37,"epc":15.34,"ecefx":-1999231.40,"ecefy":-3929868.09,"ecefz":4593858.08,"ecefvx":-0.02,"ecefvy":-0.03,"ecefvz":0.02,"ecefpAcc":6.22,"ecefvAcc":0.37,"velN":0.001,"velE":-0.013,"velD":-0.027,"geoidSep":-15.307,"eph":4.114,"sep":7.556}
$GPGSV,5,1,17,02,06,322,28,03,34,183,28,04,81,068,30,06,12,279,18*72
$GPGSV,5,2,17,07,28,249,29,09,54,302,40,16,55,100,37,22,15,174,19*70
$GPGSV,5,3,17,26,34,054,29,27,04,122,15,29,01,014,15,30,00,246,00*7C
$GPGSV,5,4,17,31,00,064,00,46,35,197,31,48,34,202,00,51,36,167,32*7C
$GPGSV,5,5,17,193,04,304,18*7E
{"class":"SKY","time":"2020-10-04T02:27:46.000Z","xdop":0.73,"ydop":0.54,"vdop":1.36,"tdop":0.87,"hdop":0.91,"gdop":1.86,"pdop":1.64,"nSat":19,"uSat":10,"satellites":[{"PRN":2,"el":6.0,"az":322.0,"ss":28.0,"used":true,"gnssid":0,"svid":2,"health":1},{"PRN":3,"el":34.0,"az":183.0,"ss":28.0,"used":true,"gnssid":0,"svid":3,"health":1},{"PRN":4,"el":81.0,"az":68.0,"ss":30.0,"used":true,"gnssid":0,"svid":4,"health":1},{"PRN":6,"el":12.0,"az":279.0,"ss":18.0,"used":false,"gnssid":0,"svid":6,"health":1},{"PRN":7,"el":28.0,"az":249.0,"ss":29.0,"used":true,"gnssid":0,"svid":7,"health":1},{"PRN":9,"el":54.0,"az":302.0,"ss":40.0,"used":true,"gnssid":0,"svid":9,"health":1},{"PRN":16,"el":55.0,"az":100.0,"ss":37.0,"used":true,"gnssid":0,"svid":16,"health":1},{"PRN":22,"el":15.0,"az":174.0,"ss":19.0,"used":true,"gnssid":0,"svid":22,"health":1},{"PRN":26,"el":34.0,"az":54.0,"ss":29.0,"used":true,"gnssid":0,"svid":26,"health":1},{"PRN":27,"el":4.0,"az":122.0,"ss":15.0,"used":false,"gnssid":0,"svid":27,"health":1},{"PRN":29,"el":1.0,"az":14.0,"ss":15.0,"used":false,"gnssid":0,"svid":29,"health":1},{"PRN":30,"el":0.0,"az":246.0,"ss":0.0,"used":false,"gnssid":0,"svid":30,"health":1},{"PRN":31,"el":0.0,"az":64.0,"ss":0.0,"used":false,"gnssid":0,"svid":31,"health":1},{"PRN":46,"el":35.0,"az":197.0,"ss":31.0,"used":true,"gnssid":1,"svid":133,"health":1},{"PRN":48,"el":34.0,"az":202.0,"ss":0.0,"used":false,"gnssid":1,"svid":135,"health":1},{"PRN":51,"el":36.0,"az":167.0,"ss":32.0,"used":true,"gnssid":1,"svid":138,"health":1},{"PRN":193,"el":4.0,"az":304.0,"ss":18.0,"used":false,"gnssid":5,"svid":1,"health":1},{"PRN":196,"az":0.0,"ss":0.0,"used":false,"gnssid":5,"svid":4,"health":1},{"PRN":197,"az":0.0,"ss":0.0,"used":false,"gnssid":5,"svid":5,"health":1}]}
{"class":"TPV","status":2,"mode":3,"time":"2020-10-04T02:27:46.000Z","leapseconds":18,"ept":0.005,"lat":46.367414504,"lon":-116.963682407,"altHAE":463.1416,"altMSL":478.4481,"alt":478.4481,"epx":2.745,"epy":2.030,"epv":7.672,"track":273.3843,"magtrack":287.2122,"magvar":13.8,"speed":0.013,"climb":0.027,"eps":5.49,"epc":15.34,"ecefx":-1999231.40,"ecefy":-3929868.09,"ecefz":4593858.08,"ecefvx":-0.02,"ecefvy":-0.03,"ecefvz":0.02,"ecefpAcc":6.22,"ecefvAcc":0.37,"velN":0.001,"velE":-0.013,"velD":-0.027,"geoidSep":-15.307,"eph":4.114,"sep":7.556}
$GPZDA,022747.00,04,10,2020,00,00*67
$GPGGA,022747.00,4622.0449,N,11657.8209,W,2,10,0.91,478.45,M,-15.307,M,,*5B
$GPRMC,022747.00,A,4622.0449,N,11657.8209,W,0.0259,273.384,041020,13.8,E*48
$GPGSA,A,3,2,3,4,7,9,16,22,26,,,,,1.6,0.9,1.4*01
$GPGBS,022747.00,2.745,2.030,7.672,,,,*44
{"class":"TPV","status":2,"mode":3,"time":"2020-10-04T02:27:47.000Z","leapseconds":18,"ept":0.005,"lat":46.367414504,"lon":-116.963682407,"altHAE":463.1416,"altMSL":478.4481,"alt":478.4481,"epx":2.745,"epy":2.030,"epv":7.672,"track":273.3843,"magtrack":287.2122,"magvar":13.8,"speed":0.013,"climb":0.027,"eps":0.28,"epc":15.34,"ecefx":-1999231.44,"ecefy":-3929868.03,"ecefz":4593858.07,"ecefvx":0.00,"ecefvy":0.01,"ecefvz":0.02,"ecefpAcc":6.21,"ecefvAcc":0.28,"velN":0.001,"velE":-0.013,"velD":-0.027,"geoidSep":-15.307,"eph":4.114,"sep":7.556}
$GPGSV,5,1,17,02,06,322,28,03,34,183,28,04,81,068,30,06,12,279,00*7B
$GPGSV,5,2,17,07,28,249,29,09,54,302,40,16,55,100,37,22,15,174,18*71
$GPGSV,5,3,17,26,34,054,28,27,04,122,18,29,01,014,15,30,00,246,00*70
$GPGSV,5,4,17,31,00,064,00,46,35,197,31,48,34,202,00,51,36,167,32*7C
$GPGSV,5,5,17,193,04,304,17*71
{"class":"SKY","time":"2020-10-04T02:27:47.000Z","xdop":0.73,"ydop":0.54,"vdop":1.36,"tdop":0.87,"hdop":0.91,"gdop":1.86,"pdop":1.64,"nSat":19,"uSat":10,"satellites":[{"PRN":2,"el":6.0,"az":322.0,"ss":28.0,"used":true,"gnssid":0,"svid":2,"health":1},{"PRN":3,"el":34.0,"az":183.0,"ss":28.0,"used":true,"gnssid":0,"svid":3,"health":1},{"PRN":4,"el":81.0,"az":68.0,"ss":30.0,"used":true,"gnssid":0,"svid":4,"health":1},{"PRN":6,"el":12.0,"az":279.0,"ss":0.0,"used":false,"gnssid":0,"svid":6,"health":1},{"PRN":7,"el":28.0,"az":249.0,"ss":29.0,"used":true,"gnssid":0,"svid":7,"health":1},{"PRN":9,"el":54.0,"az":302.0,"ss":40.0,"used":true,"gnssid":0,"svid":9,"health":1},{"PRN":16,"el":55.0,"az":100.0,"ss":37.0,"used":true,"gnssid":0,"svid":16,"health":1},{"PRN":22,"el":15.0,"az":174.0,"ss":18.0,"used":true,"gnssid":0,"svid":22,"health":1},{"PRN":26,"el":34.0,"az":54.0,"ss":28.0,"used":true,"gnssid":0,"svid":26,"health":1},{"PRN":27,"el":4.0,"az":122.0,"ss":18.0,"used":false,"gnssid":0,"svid":27,"health":1},{"PRN":29,"el":1.0,"az":14.0,"ss":15.0,"used":false,"gnssid":0,"svid":29,"health":1},{"PRN":30,"el":0.0,"az":246.0,"ss":0.0,"used":false,"gnssid":0,"svid":30,"health":1},{"PRN":31,"el":0.0,"az":64.0,"ss":0.0,"used":false,"gnssid":0,"svid":31,"health":1},{"PRN":46,"el":35.0,"az":197.0,"ss":31.0,"used":true,"gnssid":1,"svid":133,"health":1},{"PRN":48,"el":34.0,"az":202.0,"ss":0.0,"used":false,"gnssid":1,"svid":135,"health":1},{"PRN":51,"el":36.0,"az":167.0,"ss":32.0,"used":true,"gnssid":1,"svid":138,"health":1},{"PRN":193,"el":4.0,"az":304.0,"ss":17.0,"used":false,"gnssid":5,"svid":1,"health":1},{"PRN":196,"az":0.0,"ss":0.0,"used":false,"gnssid":5,"svid":4,"health":1},{"PRN":197,"az":0.0,"ss":0.0,"used":false,"gnssid":5,"svid":5,"health":1}]}
$GPZDA,022748.00,04,10,2020,00,00*68
$GPGGA,022748.00,4622.0449,N,11657.8209,W,2,10,0.91,478.45,M,-15.307,M,,*54
$GPRMC,022748.00,A,4622.0449,N,11657.8209,W,0.0259,273.384,041020,13.8,E*47
$GPGSA,A,3,2,3,4,7,9,16,22,26,,,,,1.6,0.9,1.4*01
$GPGBS,022748.00,2.745,2.030,7.672,,,,*4B
{"class":"TPV","status":2,"mode":3,"time":"2020-10-04T02:27:48.000Z","leapseconds":18,"ept":0.005,"lat":46.367414504,"lon":-116.963682407,"altHAE":463.1416,"altMSL":478.4481,"alt":478.4481,"epx":2.745,"epy":2.030,"epv":7.672,"track":273.3843,"magtrack":287.2122,"magvar":13.8,"speed":0.013,"climb":0.027,"eps":0.36,"epc":15.34,"ecefx":-1999231.37,"ecefy":-3929867.92,"ecefz":4593857.94,"ecefvx":0.01,"ecefvy":0.01,"ecefvz":-0.04,"ecefpAcc":6.20,"ecefvAcc":0.36,"velN":0.001,"velE":-0.013,"velD":-0.027,"geoidSep":-15.307,"eph":4.114,"sep":7.556}
$GPGSV,5,1,17,02,06,322,28,03,34,183,28,04,81,068,31,06,12,279,00*7A
$GPGSV,5,2,17,07,28,249,29,09,54,302,40,16,55,100,37,22,15,174,17*7E
$GPGSV,5,3,17,26,34,054,28,27,04,122,19,29,01,014,16,30,00,246,00*72
$GPGSV,5,4,17,31,00,064,00,46,35,197,31,48,34,202,00,51,36,167,32*7C
$GPGSV,5,5,17,193,04,304,17*71
{"class":"SKY","time":"2020-10-04T02:27:48.000Z","xdop":0.73,"ydop":0.54,"vdop":1.36,"tdop":0.87,"hdop":0.91,"gdop":1.86,"pdop":1.64,"nSat":19,"uSat":10,"satellites":[{"PRN":2,"el":6.0,"az":322.0,"ss":28.0,"used":true,"gnssid":0,"svid":2,"health":1},{"PRN":3,"el":34.0,"az":183.0,"ss":28.0,"used":true,"gnssid":0,"svid":3,"health":1},{"PRN":4,"el":81.0,"az":68.0,"ss":31.0,"used":true,"gnssid":0,"svid":4,"health":1},{"PRN":6,"el":12.0,"az":279.0,"ss":0.0,"used":false,"gnssid":0,"svid":6,"health":1},{"PRN":7,"el":28.0,"az":249.0,"ss":29.0,"used":true,"gnssid":0,"svid":7,"health":1},{"PRN":9,"el":54.0,"az":302.0,"ss":40.0,"used":true,"gnssid":0,"svid":9,"health":1},{"PRN":16,"el":55.0,"az":100.0,"ss":37.0,"used":true,"gnssid":0,"svid":16,"health":1},{"PRN":22,"el":15.0,"az":174.0,"ss":17.0,"used":true,"gnssid":0,"svid":22,"health":1},{"PRN":26,"el":34.0,"az":54.0,"ss":28.0,"used":true,"gnssid":0,"svid":26,"health":1},{"PRN":27,"el":4.0,"az":122.0,"ss":19.0,"used":false,"gnssid":0,"svid":27,"health":1},{"PRN":29,"el":1.0,"az":14.0,"ss":16.0,"used":false,"gnssid":0,"svid":29,"health":1},{"PRN":30,"el":0.0,"az":246.0,"ss":0.0,"used":false,"gnssid":0,"svid":30,"health":1},{"PRN":31,"el":0.0,"az":64.0,"ss":0.0,"used":false,"gnssid":0,"svid":31,"health":1},{"PRN":46,"el":35.0,"az":197.0,"ss":31.0,"used":true,"gnssid":1,"svid":133,"health":1},{"PRN":48,"el":34.0,"az":202.0,"ss":0.0,"used":false,"gnssid":1,"svid":135,"health":1},{"PRN":51,"el":36.0,"az":167.0,"ss":32.0,"used":true,"gnssid":1,"svid":138,"health":1},{"PRN":193,"el":4.0,"az":304.0,"ss":17.0,"used":false,"gnssid":5,"svid":1,"health":1},{"PRN":196,"az":0.0,"ss":0.0,"used":false,"gnssid":5,"svid":4,"health":1},{"PRN":197,"az":0.0,"ss":0.0,"used":false,"gnssid":5,"svid":5,"health":1}]}
{"class":"TPV","status":2,"mode":3,"time":"2020-10-04T02:27:48.000Z","leapseconds":18,"ept":0.005,"lat":46.367414504,"lon":-116.963682407,"altHAE":463.1416,"altMSL":478.4481,"alt":478.4481,"epx":2.745,"epy":2.030,"epv":7.672,"track":273.3843,"magtrack":287.2122,"magvar":13.8,"speed":0.013,"climb":0.027,"eps":5.49,"epc":15.34,"ecefx":-1999231.37,"ecefy":-3929867.92,"ecefz":4593857.94,"ecefvx":0.01,"ecefvy":0.01,"ecefvz":-0.04,"ecefpAcc":6.20,"ecefvAcc":0.36,"velN":0.001,"velE":-0.013,"velD":-0.027,"geoidSep":-15.307,"eph":4.114,"sep":7.556}
$GPZDA,022749.00,04,10,2020,00,00*69
$GPGGA,022749.00,4622.0449,N,11657.8209,W,2,10,0.91,478.45,M,-15.307,M,,*55
$GPRMC,022749.00,A,4622.0449,N,11657.8209,W,0.0259,273.384,041020,13.8,E*46
$GPGSA,A,3,2,3,4,7,9,16,22,26,,,,,1.6,0.9,1.4*01
$GPGBS,022749.00,2.745,2.030,7.672,,,,*4A
{"class":"TPV","status":2,"mode":3,"time":"2020-10-04T02:27:49.000Z","leapseconds":18,"ept":0.005,"lat":46.367414504,"lon":-116.963682407,"altHAE":463.1416,"altMSL":478.4481,"alt":478.4481,"epx":2.745,"epy":2.030,"epv":7.672,"track":273.3843,"magtrack":287.2122,"magvar":13.8,"speed":0.013,"climb":0.027,"eps":0.32,"epc":15.34,"ecefx":-1999231.30,"ecefy":-3929867.79,"ecefz":4593857.84,"ecefvx":0.01,"ecefvy":0.03,"ecefvz":0.00,"ecefpAcc":6.19,"ecefvAcc":0.32,"velN":0.001,"velE":-0.013,"velD":-0.027,"geoidSep":-15.307,"eph":4.114,"sep":7.556}
$GPGSV,5,1,17,02,06,322,28,03,34,183,28,04,81,068,31,06,12,279,00*7A
$GPGSV,5,2,17,07,28,249,29,09,54,302,40,16,55,100,37,22,15,174,16*7F
$GPGSV,5,3,17,26,34,054,28,27,04,122,19,29,01,014,16,30,00,246,00*72
$GPGSV,5,4,17,31,00,064,00,46,35,197,31,48,34,202,00,51,36,167,32*7C
$GPGSV,5,5,17,193,04,304,17*71
{"class":"SKY","time":"2020-10-04T02:27:49.000Z","xdop":0.73,"ydop":0.54,"vdop":1.36,"tdop":0.87,"hdop":0.91,"gdop":1.86,"pdop":1.64,"nSat":19,"uSat":10,"satellites":[{"PRN":2,"el":6.0,"az":322.0,"ss":28.0,"used":true,"gnssid":0,"svid":2,"health":1},{"PRN":3,"el":34.0,"az":183.0,"ss":28.0,"used":true,"gnssid":0,"svid":3,"health":1},{"PRN":4,"el":81.0,"az":68.0,"ss":31.0,"used":true,"gnssid":0,"svid":4,"health":1},{"PRN":6,"el":12.0,"az":279.0,"ss":0.0,"used":false,"gnssid":0,"svid":6,"health":1},{"PRN":7,"el":28.0,"az":249.0,"ss":29.0,"used":true,"gnssid":0,"svid":7,"health":1},{"PRN":9,"el":54.0,"az":302.0,"ss":40.0,"used":true,"gnssid":0,"svid":9,"health":1},{"PRN":16,"el":55.0,"az":100.0,"ss":37.0,"used":true,"gnssid":0,"svid":16,"health":1},{"PRN":22,"el":15.0,"az":174.0,"ss":16.0,"used":true,"gnssid":0,"svid":22,"health":1},{"PRN":26,"el":34.0,"az":54.0,"ss":28.0,"used":true,"gnssid":0,"svid":26,"health":1},{"PRN":27,"el":4.0,"az":122.0,"ss":19.0,"used":false,"gnssid":0,"svid":27,"health":1},{"PRN":29,"el":1.0,"az":14.0,"ss":16.0,"used":false,"gnssid":0,"svid":29,"health":1},{"PRN":30,"el":0.0,"az":246.0,"ss":0.0,"used":false,"gnssid":0,"svid":30,"health":1},{"PRN":31,"el":0.0,"az":64.0,"ss":0.0,"used":false,"gnssid":0,"svid":31,"health":1},{"PRN":46,"el":35.0,"az":197.0,"ss":31.0,"used":true,"gnssid":1,"svid":133,"health":1},{"PRN":48,"el":34.0,"az":202.0,"ss":0.0,"used":false,"gnssid":1,"svid":135,"health":1},{"PRN":51,"el":36.0,"az":167.0,"ss":32.0,"used":true,"gnssid":1,"svid":138,"health":1},{"PRN":193,"el":4.0,"az":304.0,"ss":17.0,"used":false,"gnssid":5,"svid":1,"health":1},{"PRN":196,"az":0.0,"ss":0.0,"used":false,"gnssid":5,"svid":4,"health":1},{"PRN":197,"az":0.0,"ss":0.0,"used":false,"gnssid":5,"svid":5,"health":1}]}
$GPZDA,022750.00,04,10,2020,00,00*61
$GPGGA,022750.00,4622.0449,N,11657.8209,W,2,10,0.91,478.45,M,-15.307,M,,*5D
$GPRMC,022750.00,A,4622.0449,N,11657.8209,W,0.0259,273.384,041020,13.8,E*4E
$GPGSA,A,3,2,3,4,7,9,16,22,26,,,,,1.6,0.9,1.4*01
$GPGBS,022750.00,2.745,2.030,7.672,,,,*42
{"class":"TPV","status":2,"mode":3,"time":"2020-10-04T02:27:50.000Z","leapseconds":18,"ept":0.005,"lat":46.367414504,"lon":-116.963682407,"altHAE":463.1416,"altMSL":478.4481,"alt":478.4481,"epx":2.745,"epy":2.030,"epv":7.672,"track":273.3843,"magtrack":287.2122,"magvar":13.8,"speed":0.013,"climb":0.027,"eps":0.26,"epc":15.34,"ecefx":-1999231.24,"ecefy":-3929867.69,"ecefz":4593857.77,"ecefvx":-0.01,"ecefvy":0.01,"ecefvz":0.00,"ecefpAcc":6.19,"ecefvAcc":0.26,"velN":0.001,"velE":-0.013,"velD":-0.027,"geoidSep":-15.307,"eph":4.114,"sep":7.556}
$GPGSV,5,1,17,02,06,322,27,03,34,183,27,04,81,068,31,06,12,279,00*7A
$GPGSV,5,2,17,07,28,249,29,09,54,302,40,16,55,100,37,22,15,174,15*7C
$GPGSV,5,3,17,26,34,054,28,27,04,122,19,29,01,014,17,30,00,246,00*73
$GPGSV,5,4,17,31,00,064,00,46,35,197,31,48,34,202,00,51,36,167,32*7C
$GPGSV,5,5,17,193,04,304,18*7E
{"class":"SKY","time":"2020-10-04T02:27:50.000Z","xdop":0.73,"ydop":0.54,"vdop":1.36,"tdop":0.87,"hdop":0.91,"gdop":1.86,"pdop":1.64,"nSat":19,"uSat":10,"satellites":[{"PRN":2,"el":6.0,"az":322.0,"ss":27.0,"used":true,"gnssid":0,"svid":2,"health":1},{"PRN":3,"el":34.0,"az":183.0,"ss":27.0,"used":true,"gnssid":0,"svid":3,"health":1},{"PRN":4,"el":81.0,"az":68.0,"ss":31.0,"used":true,"gnssid":0,"svid":4,"health":1},{"PRN":6,"el":12.0,"az":279.0,"ss":0.0,"used":false,"gnssid":0,"svid":6,"health":1},{"PRN":7,"el":28.0,"az":249.0,"ss":29.0,"used":true,"gnssid":0,"svid":7,"health":1},{"PRN":9,"el":54.0,"az":302.0,"ss":40.0,"used":true,"gnssid":0,"svid":9,"health":1},{"PRN":16,"el":55.0,"az":100.0,"ss":37.0,"used":true,"gnssid":0,"svid":16,"health":1},{"PRN":22,"el":15.0,"az":174.0,"ss":15.0,"used":true,"gnssid":0,"svid":22,"health":1},{"PRN":26,"el":34.0,"az":54.0,"ss":28.0,"used":true,"gnssid":0,"svid":26,"health":1},{"PRN":27,"el":4.0,"az":122.0,"ss":19.0,"used":false,"gnssid":0,"svid":27,"health":1},{"PRN":29,"el":1.0,"az":14.0,"ss":17.0,"used":false,"gnssid":0,"svid":29,"health":1},{"PRN":30,"el":0.0,"az":246.0,"ss":0.0,"used":false,"gnssid":0,"svid":30,"health":1},{"PRN":31,"el":0.0,"az":64.0,"ss":0.0,"used":false,"gnssid":0,"svid":31,"health":1},{"PRN":46,"el":35.0,"az":197.0,"ss":31.0,"used":true,"gnssid":1,"svid":133,"health":1},{"PRN":48,"el":34.0,"az":202.0,"ss":0.0,"used":false,"gnssid":1,"svid":135,"health":1},{"PRN":51,"el":36.0,"az":167.0,"ss":32.0,"used":true,"gnssid":1,"svid":138,"health":1},{"PRN":193,"el":4.0,"az":304.0,"ss":18.0,"used":false,"gnssid":5,"svid":1,"health":1},{"PRN":196,"az":0.0,"ss":0.0,"used":false,"gnssid":5,"svid":4,"health":1},{"PRN":197,"az":0.0,"ss":0.0,"used":false,"gnssid":5,"svid":5,"health":1}]}
{"class":"TPV","status":2,"mode":3,"time":"2020-10-04T02:27:50.000Z","leapseconds":18,"ept":0.005,"lat":46.367414504,"lon":-116.963682407,"altHAE":463.1416,"altMSL":478.4481,"alt":478.4481,"epx":2.745,"epy":2.030,"epv":7.672,"track":273.3843,"magtrack":287.2122,"magvar":13.8,"speed":0.013,"climb":0.027,"eps":5.49,"epc":15.34,"ecefx":-1999231.24,"ecefy":-3929867.69,"ecefz":4593857.77,"ecefvx":-0.01,"ecefvy":0.01,"ecefvz":0.00,"ecefpAcc":6.19,"ecefvAcc":0.26,"velN":0.001,"velE":-0.013,"velD":-0.027,"geoidSep":-15.307,"eph":4.114,"sep":7.556}
$GPZDA,022751.00,04,10,2020,00,00*60
$GPGGA,022751.00,4622.0449,N,11657.8209,W,2,10,0.91,478.45,M,-15.307,M,,*5C
$GPRMC,022751.00,A,4622.0449,N,11657.8209,W,0.0259,273.384,041020,13.8,E*4F
$GPGSA,A,3,2,3,4,7,9,16,22,26,,,,,1.6,0.9,1.4*01
$GPGBS,022751.00,2.745,2.030,7.672,,,,*43
{"class":"TPV","status":2,"mode":3,"time":"2020-10-04T02:27:51.000Z","leapseconds":18,"ept":0.005,"lat":46.367414504,"lon":-116.963682407,"altHAE":463.1416,"altMSL":478.4481,"alt":478.4481,"epx":2.745,"epy":2.030,"epv":7.672,"track":273.3843,"magtrack":287.2122,"magvar":13.8,"speed":0.013,"climb":0.027,"eps":0.31,"epc":15.34,"ecefx":-1999231.22,"ecefy":-3929867.61,"ecefz":4593857.71,"ecefvx":0.00,"ecefvy":0.00,"ecefvz":-0.01,"ecefpAcc":6.18,"ecefvAcc":0.31,"velN":0.001,"velE":-0.013,"velD":-0.027,"geoidSep":-15.307,"eph":4.114,"sep":7.556}
$GPGSV,5,1,17,02,06,322,28,03,34,183,27,04,81,068,30,06,12,279,00*74
$GPGSV,5,2,17,07,28,249,29,09,54,302,40,16,55,100,37,22,15,174,14*7D
$GPGSV,5,3,17,26,34,054,28,27,04,122,19,29,01,014,17,30,00,246,00*73
$GPGSV,5,4,17,31,00,064,00,46,35,197,31,48,34,202,00,51,36,167,32*7C
$GPGSV,5,5,17,193,04,304,19*7F
{"class":"SKY","time":"2020-10-04T02:27:51.000Z","xdop":0.73,"ydop":0.54,"vdop":1.36,"tdop":0.87,"hdop":0.91,"gdop":1.85,"pdop":1.64,"nSat":19,"uSat":10,"satellites":[{"PRN":2,"el":6.0,"az":322.0,"ss":28.0,"used":true,"gnssid":0,"svid":2,"health":1},{"PRN":3,"el":34.0,"az":183.0,"ss":27.0,"used":true,"gnssid":0,"svid":3,"health":1},{"PRN":4,"el":81.0,"az":68.0,"ss":30.0,"used":true,"gnssid":0,"svid":4,"health":1},{"PRN":6,"el":12.0,"az":279.0,"ss":0.0,"used":false,"gnssid":0,"svid":6,"health":1},{"PRN":7,"el":28.0,"az":249.0,"ss":29.0,"used":true,"gnssid":0,"svid":7,"health":1},{"PRN":9,"el":54.0,"az":302.0,"ss":40.0,"used":true,"gnssid":0,"svid":9,"health":1},{"PRN":16,"el":55.0,"az":100.0,"ss":37.0,"used":true,"gnssid":0,"svid":16,"health":1},{"PRN":22,"el":15.0,"az":174.0,"ss":14.0,"used":true,"gnssid":0,"svid":22,"health":1},{"PRN":26,"el":34.0,"az":54.0,"ss":28.0,"used":true,"gnssid":0,"svid":26,"health":1},{"PRN":27,"el":4.0,"az":122.0,"ss":19.0,"used":false,"gnssid":0,"svid":27,"health":1},{"PRN":29,"el":1.0,"az":14.0,"ss":17.0,"used":false,"gnssid":0,"svid":29,"health":1},{"PRN":30,"el":0.0,"az":246.0,"ss":0.0,"used":false,"gnssid":0,"svid":30,"health":1},{"PRN":31,"el":0.0,"az":64.0,"ss":0.0,"used":false,"gnssid":0,"svid":31,"health":1},{"PRN":46,"el":35.0,"az":197.0,"ss":31.0,"used":true,"gnssid":1,"svid":133,"health":1},{"PRN":48,"el":34.0,"az":202.0,"ss":0.0,"used":false,"gnssid":1,"svid":135,"health":1},{"PRN":51,"el":36.0,"az":167.0,"ss":32.0,"used":true,"gnssid":1,"svid":138,"health":1},{"PRN":193,"el":4.0,"az":304.0,"ss":19.0,"used":false,"gnssid":5,"svid":1,"health":1},{"PRN":196,"az":0.0,"ss":0.0,"used":false,"gnssid":5,"svid":4,"health":1},{"PRN":197,"az":0.0,"ss":0.0,"used":false,"gnssid":5,"svid":5,"health":1}]}
$GPZDA,022752.00,04,10,2020,00,00*63
$GPGGA,022752.00,4622.0449,N,11657.8209,W,2,10,0.91,478.45,M,-15.307,M,,*5F
$GPRMC,022752.00,A,4622.0449,N,11657.8209,W,0.0259,273.384,041020,13.8,E*4C
$GPGSA,A,3,2,3,4,7,9,16,22,26,,,,,1.6,0.9,1.4*01
$GPGBS,022752.00,2.745,2.030,7.672,,,,*40
{"class":"TPV","status":2,"mode":3,"time":"2020-10-04T02:27:52.000Z","leapseconds":18,"ept":0.005,"lat":46.367414504,"lon":-116.963682407,"altHAE":463.1416,"altMSL":478.4481,"alt":478.4481,"epx":2.745,"epy":2.030,"epv":7.672,"track":273.3843,"magtrack":287.2122,"magvar":13.8,"speed":0.013,"climb":0.027,"eps":0.38,"epc":15.34,"ecefx":-1999231.22,"ecefy":-3929867.58,"ecefz":4593857.66,"ecefvx":0.02,"ecefvy":0.03,"ecefvz":-0.03,"ecefpAcc":6.18,"ecefvAcc":0.38,"velN":0.001,"velE":-0.013,"velD":-0.027,"geoidSep":-15.307,"eph":4.114,"sep":7.556}
$GPGSV,5,1,17,02,06,322,27,03,34,183,27,04,81,068,30,06,12,279,00*7B
$GPGSV,5,2,17,07,28,249,29,09,54,302,40,16,55,100,37,22,15,174,13*7A
$GPGSV,5,3,17,26,34,054,28,27,04,122,18,29,01,014,17,30,00,246,00*72
$GPGSV,5,4,17,31,00,064,00,46,35,197,31,48,34,202,00,51,36,167,32*7C
$GPGSV,5,5,17,193,04,304,19*7F
{"class":"SKY","time":"2020-10-04T02:27:52.000Z","xdop":0.73,"ydop":0.54,"vdop":1.36,"tdop":0.87,"hdop":0.91,"gdop":1.85,"pdop":1.64,"nSat":19,"uSat":10,"satellites":[{"PRN":2,"el":6.0,"az":322.0,"ss":27.0,"used":true,"gnssid":0,"svid":2,"health":1},{"PRN":3,"el":34.0,"az":183.0,"ss":27.0,"used":true,"gnssid":0,"svid":3,"health":1},{"PRN":4,"el":81.0,"az":68.0,"ss":30.0,"used":true,"gnssid":0,"svid":4,"health":1},{"PRN":6,"el":12.0,"az":279.0,"ss":0.0,"used":false,"gnssid":0,"svid":6,"health":1},{"PRN":7,"el":28.0,"az":249.0,"ss":29.0,"used":true,"gnssid":0,"svid":7,"health":1},{"PRN":9,"el":54.0,"az":302.0,"ss":40.0,"used":true,"gnssid":0,"svid":9,"health":1},{"PRN":16,"el":55.0,"az":100.0,"ss":37.0,"used":true,"gnssid":0,"svid":16,"health":1},{"PRN":22,"el":15.0,"az":174.0,"ss":13.0,"used":true,"gnssid":0,"svid":22,"health":1},{"PRN":26,"el":34.0,"az":54.0,"ss":28.0,"used":true,"gnssid":0,"svid":26,"health":1},{"PRN":27,"el":4.0,"az":122.0,"ss":18.0,"used":false,"gnssid":0,"svid":27,"health":1},{"PRN":29,"el":1.0,"az":14.0,"ss":17.0,"used":false,"gnssid":0,"svid":29,"health":1},{"PRN":30,"el":0.0,"az":246.0,"ss":0.0,"used":false,"gnssid":0,"svid":30,"health":1},{"PRN":31,"el":0.0,"az":64.0,"ss":0.0,"used":false,"gnssid":0,"svid":31,"health":1},{"PRN":46,"el":35.0,"az":197.0,"ss":31.0,"used":true,"gnssid":1,"svid":133,"health":1},{"PRN":48,"el":34.0,"az":202.0,"ss":0.0,"used":false,"gnssid":1,"svid":135,"health":1},{"PRN":51,"el":36.0,"az":167.0,"ss":32.0,"used":true,"gnssid":1,"svid":138,"health":1},{"PRN":193,"el":4.0,"az":304.0,"ss":19.0,"used":false,"gnssid":5,"svid":1,"health":1},{"PRN":196,"az":0.0,"ss":0.0,"used":false,"gnssid":5,"svid":4,"health":1},{"PRN":197,"az":0.0,"ss":0.0,"used":false,"gnssid":5,"svid":5,"health":1}]}
{"class":"TPV","status":2,"mode":3,"time":"2020-10-04T02:27:52.000Z","leapseconds":18,"ept":0.005,"lat":46.367414504,"lon":-116.963682407,"altHAE":463.1416,"altMSL":478.4481,"alt":478.4481,"epx":2.745,"epy":2.030,"epv":7.672,"track":273.3843,"magtrack":287.2122,"magvar":13.8,"speed":0.013,"climb":0.027,"eps":5.49,"epc":15.34,"ecefx":-1999231.22,"ecefy":-3929867.58,"ecefz":4593857.66,"ecefvx":0.02,"ecefvy":0.03,"ecefvz":-0.03,"ecefpAcc":6.18,"ecefvAcc":0.38,"velN":0.001,"velE":-0.013,"velD":-0.027,"geoidSep":-15.307,"eph":4.114,"sep":7.556}
$GPZDA,022753.00,04,10,2020,00,00*62
$GPGGA,022753.00,4622.0449,N,11657.8209,W,2,10,0.91,478.45,M,-15.307,M,,*5E
$GPRMC,022753.00,A,4622.0449,N,11657.8209,W,0.0259,273.384,041020,13.8,E*4D
$GPGSA,A,3,2,3,4,7,9,16,22,26,,,,,1.6,0.9,1.4*01
$GPGBS,022753.00,2.745,2.030,7.672,,,,*41
{"class":"TPV","status":2,"mode":3,"time":"2020-10-04T02:27:53.000Z","leapseconds":18,"ept":0.005,"lat":46.367414504,"lon":-116.963682407,"altHAE":463.1416,"altMSL":478.4481,"alt":478.4481,"epx":2.745,"epy":2.030,"epv":7.672,"track":273.3843,"magtrack":287.2122,"magvar":13.8,"speed":0.013,"climb":0.027,"eps":0.36,"epc":15.34,"ecefx":-1999231.21,"ecefy":-3929867.52,"ecefz":4593857.56,"ecefvx":0.01,"ecefvy":0.01,"ecefvz":-0.03,"ecefpAcc":6.18,"ecefvAcc":0.36,"velN":0.001,"velE":-0.013,"velD":-0.027,"geoidSep":-15.307,"eph":4.114,"sep":7.556}
$GPGSV,5,1,17,02,06,322,27,03,34,183,27,04,81,068,30,06,12,279,00*7B
$GPGSV,5,2,17,07,28,249,28,09,54,302,40,16,55,100,37,22,15,174,13*7B
$GPGSV,5,3,17,26,34,054,27,27,04,122,18,29,01,014,18,30,00,246,00*72
$GPGSV,5,4,17,31,00,064,00,46,35,197,31,48,34,202,00,51,36,167,32*7C
$GPGSV,5,5,17,193,04,304,17*71
{"class":"SKY","time":"2020-10-04T02:27:53.000Z","xdop":0.73,"ydop":0.54,"vdop":1.36,"tdop":0.87,"hdop":0.91,"gdop":1.85,"pdop":1.64,"nSat":19,"uSat":10,"satellites":[{"PRN":2,"el":6.0,"az":322.0,"ss":27.0,"used":true,"gnssid":0,"svid":2,"health":1},{"PRN":3,"el":34.0,"az":183.0,"ss":27.0,"used":true,"gnssid":0,"svid":3,"health":1},{"PRN":4,"el":81.0,"az":68.0,"ss":30.0,"used":true,"gnssid":0,"svid":4,"health":1},{"PRN":6,"el":12.0,"az":279.0,"ss":0.0,"used":false,"gnssid":0,"svid":6,"health":1},{"PRN":7,"el":28.0,"az":249.0,"ss":28.0,"used":true,"gnssid":0,"svid":7,"health":1},{"PRN":9,"el":54.0,"az":302.0,"ss":40.0,"used":true,"gnssid":0,"svid":9,"health":1},{"PRN":16,"el":55.0,"az":100.0,"ss":37.0,"used":true,"gnssid":0,"svid":16,"health":1},{"PRN":22,"el":15.0,"az":174.0,"ss":13.0,"used":true,"gnssid":0,"svid":22,"health":1},{"PRN":26,"el":34.0,"az":54.0,"ss":27.0,"used":true,"gnssid":0,"svid":26,"health":1},{"PRN":27,"el":4.0,"az":122.0,"ss":18.0,"used":false,"gnssid":0,"svid":27,"health":1},{"PRN":29,"el":1.0,"az":14.0,"ss":18.0,"used":false,"gnssid":0,"svid":29,"health":1},{"PRN":30,"el":0.0,"az":246.0,"ss":0.0,"used":false,"gnssid":0,"svid":30,"health":1},{"PRN":31,"el":0.0,"az":64.0,"ss":0.0,"used":false,"gnssid":0,"svid":31,"health":1},{"PRN":46,"el":35.0,"az":197.0,"ss":31.0,"used":true,"gnssid":1,"svid":133,"health":1},{"PRN":48,"el":34.0,"az":202.0,"ss":0.0,"used":false,"gnssid":1,"svid":135,"health":1},{"PRN":51,"el":36.0,"az":167.0,"ss":32.0,"used":true,"gnssid":1,"svid":138,"health":1},{"PRN":193,"el":4.0,"az":304.0,"ss":17.0,"used":false,"gnssid":5,"svid":1,"health":1},{"PRN":196,"az":0.0,"ss":0.0,"used":false,"gnssid":5,"svid":4,"health":1},{"PRN":197,"az":0.0,"ss":0.0,"used":false,"gnssid":5,"svid":5,"health":1}]}
$GPZDA,022754.00,04,10,2020,00,00*65
$GPGGA,022754.00,4622.0449,N,11657.8209,W,2,10,0.91,478.45,M,-15.307,M,,*59
$GPRMC,022754.00,A,4622.0449,N,11657.8209,W,0.0259,273.384,041020,13.8,E*4A
$GPGSA,A,3,2,3,4,7,9,16,22,26,,,,,1.6,0.9,1.4*01
$GPGBS,022754.00,2.745,2.030,7.672,,,,*46
{"class":"TPV","status":2,"mode":3,"time":"2020-10-04T02:27:54.000Z","leapseconds":18,"ept":0.005,"lat":46.367414504,"lon":-116.963682407,"altHAE":463.1416,"altMSL":478.4481,"alt":478.4481,"epx":2.745,"epy":2.030,"epv":7.672,"track":273.3843,"magtrack":287.2122,"magvar":13.8,"speed":0.013,"climb":0.027,"eps":0.37,"epc":15.34,"ecefx":-1999231.16,"ecefy":-3929867.39,"ecefz":4593857.41,"ecefvx":0.01,"ecefvy":0.02,"ecefvz":-0.02,"ecefpAcc":6.19,"ecefvAcc":0.37,"velN":0.001,"velE":-0.013,"velD":-0.027,"geoidSep":-15.307,"eph":4.114,"sep":7.556}
$GPGSV,5,1,17,02,06,322,27,03,34,183,27,04,81,068,30,06,12,279,00*7B
$GPGSV,5,2,17,07,28,249,28,09,54,302,39,16,55,100,37,22,15,174,13*75
$GPGSV,5,3,17,26,34,054,27,27,04,122,18,29,01,014,18,30,00,246,00*72
$GPGSV,5,4,17,31,00,064,00,46,35,197,31,48,34,202,00,51,36,167,32*7C
$GPGSV,5,5,17,193,04,304,17*71
{"class":"SKY","time":"2020-10-04T02:27:54.000Z","xdop":0.73,"ydop":0.54,"vdop":1.36,"tdop":0.87,"hdop":0.91,"gdop":1.85,"pdop":1.64,"nSat":19,"uSat":10,"satellites":[{"PRN":2,"el":6.0,"az":322.0,"ss":27.0,"used":true,"gnssid":0,"svid":2,"health":1},{"PRN":3,"el":34.0,"az":183.0,"ss":27.0,"used":true,"gnssid":0,"svid":3,"health":1},{"PRN":4,"el":81.0,"az":68.0,"ss":30.0,"used":true,"gnssid":0,"svid":4,"health":1},{"PRN":6,"el":12.0,"az":279.0,"ss":0.0,"used":false,"gnssid":0,"svid":6,"health":1},{"PRN":7,"el":28.0,"az":249.0,"ss":28.0,"used":true,"gnssid":0,"svid":7,"health":1},{"PRN":9,"el":54.0,"az":302.0,"ss":39.0,"used":true,"gnssid":0,"svid":9,"health":1},{"PRN":16,"el":55.0,"az":100.0,"ss":37.0,"used":true,"gnssid":0,"svid":16,"health":1},{"PRN":22,"el":15.0,"az":174.0,"ss":13.0,"used":true,"gnssid":0,"svid":22,"health":1},{"PRN":26,"el":34.0,"az":54.0,"ss":27.0,"used":true,"gnssid":0,"svid":26,"health":1},{"PRN":27,"el":4.0,"az":122.0,"ss":18.0,"used":false,"gnssid":0,"svid":27,"health":1},{"PRN":29,"el":1.0,"az":14.0,"ss":18.0,"used":false,"gnssid":0,"svid":29,"health":1},{"PRN":30,"el":0.0,"az":246.0,"ss":0.0,"used":false,"gnssid":0,"svid":30,"health":1},{"PRN":31,"el":0.0,"az":64.0,"ss":0.0,"used":false,"gnssid":0,"svid":31,"health":1},{"PRN":46,"el":35.0,"az":197.0,"ss":31.0,"used":true,"gnssid":1,"svid":133,"health":1},{"PRN":48,"el":34.0,"az":202.0,"ss":0.0,"used":false,"gnssid":1,"svid":135,"health":1},{"PRN":51,"el":36.0,"az":167.0,"ss":32.0,"used":true,"gnssid":1,"svid":138,"health":1},{"PRN":193,"el":4.0,"az":304.0,"ss":17.0,"used":false,"gnssid":5,"svid":1,"health":1},{"PRN":196,"az":0.0,"ss":0.0,"used":false,"gnssid":5,"svid":4,"health":1},{"PRN":197,"az":0.0,"ss":0.0,"used":false,"gnssid":5,"svid":5,"health":1}]}
{"class":"TPV","status":2,"mode":3,"time":"2020-10-04T02:27:54.000Z","leapseconds":18,"ept":0.005,"lat":46.367414504,"lon":-116.963682407,"altHAE":463.1416,"altMSL":478.4481,"alt":478.4481,"epx":2.745,"epy":2.030,"epv":7.672,"track":273.3843,"magtrack":287.2122,"magvar":13.8,"speed":0.013,"climb":0.027,"eps":5.49,"epc":15.34,"ecefx":-1999231.16,"ecefy":-3929867.39,"ecefz":4593857.41,"ecefvx":0.01,"ecefvy":0.02,"ecefvz":-0.02,"ecefpAcc":6.19,"ecefvAcc":0.37,"velN":0.001,"velE":-0.013,"velD":-0.027,"geoidSep":-15.307,"eph":4.114,"sep":7.556}
$GPZDA,022755.00,04,10,2020,00,00*64
$GPGGA,022755.00,4622.0449,N,11657.8209,W,2,10,0.91,478.45,M,-15.307,M,,*58
$GPRMC,022755.00,A,4622.0449,N,11657.8209,W,0.0259,273.384,041020,13.8,E*4B
$GPGSA,A,3,2,3,4,7,9,16,22,26,,,,,1.6,0.9,1.4*01
$GPGBS,022755.00,2.745,2.030,7.672,,,,*47
{"class":"TPV","status":2,"mode":3,"time":"2020-10-04T02:27:55.000Z","leapseconds":18,"ept":0.005,"lat":46.367414504,"lon":-116.963682407,"altHAE":463.1416,"altMSL":478.4481,"alt":478.4481,"epx":2.745,"epy":2.030,"epv":7.672,"track":273.3843,"magtrack":287.2122,"magvar":13.8,"speed":0.013,"climb":0.027,"eps":0.30,"epc":15.34,"ecefx":-1999231.18,"ecefy":-3929867.36,"ecefz":4593857.40,"ecefvx":0.01,"ecefvy":0.00,"ecefvz":0.01,"ecefpAcc":6.20,"ecefvAcc":0.30,"velN":0.001,"velE":-0.013,"velD":-0.027,"geoidSep":-15.307,"eph":4.114,"sep":7.556}
$GPGSV,5,1,17,02,06,322,27,03,34,183,27,04,81,068,30,06,12,279,00*7B
$GPGSV,5,2,17,07,28,249,28,09,54,302,39,16,55,100,37,22,15,174,12*74
$GPGSV,5,3,17,26,34,054,28,27,04,122,19,29,01,014,18,30,00,246,00*7C
$GPGSV,5,4,17,31,00,064,00,46,35,197,31,48,34,202,00,51,36,167,32*7C
$GPGSV,5,5,17,193,04,304,17*71
{"class":"SKY","time":"2020-10-04T02:27:55.000Z","xdop":0.73,"ydop":0.54,"vdop":1.36,"tdop":0.87,"hdop":0.91,"gdop":1.85,"pdop":1.64,"nSat":19,"uSat":10,"satellites":[{"PRN":2,"el":6.0,"az":322.0,"ss":27.0,"used":true,"gnssid":0,"svid":2,"health":1},{"PRN":3,"el":34.0,"az":183.0,"ss":27.0,"used":true,"gnssid":0,"svid":3,"health":1},{"PRN":4,"el":81.0,"az":68.0,"ss":30.0,"used":true,"gnssid":0,"svid":4,"health":1},{"PRN":6,"el":12.0,"az":279.0,"ss":0.0,"used":false,"gnssid":0,"svid":6,"health":1},{"PRN":7,"el":28.0,"az":249.0,"ss":28.0,"used":true,"gnssid":0,"svid":7,"health":1},{"PRN":9,"el":54.0,"az":302.0,"ss":39.0,"used":true,"gnssid":0,"svid":9,"health":1},{"PRN":16,"el":55.0,"az":100.0,"ss":37.0,"used":true,"gnssid":0,"svid":16,"health":1},{"PRN":22,"el":15.0,"az":174.0,"ss":12.0,"used":true,"gnssid":0,"svid":22,"health":1},{"PRN":26,"el":34.0,"az":54.0,"ss":28.0,"used":true,"gnssid":0,"svid":26,"health":1},{"PRN":27,"el":4.0,"az":122.0,"ss":19.0,"used":false,"gnssid":0,"svid":27,"health":1},{"PRN":29,"el":1.0,"az":14.0,"ss":18.0,"used":false,"gnssid":0,"svid":29,"health":1},{"PRN":30,"el":0.0,"az":246.0,"ss":0.0,"used":false,"gnssid":0,"svid":30,"health":1},{"PRN":31,"el":0.0,"az":64.0,"ss":0.0,"used":false,"gnssid":0,"svid":31,"health":1},{"PRN":46,"el":35.0,"az":197.0,"ss":31.0,"used":true,"gnssid":1,"svid":133,"health":1},{"PRN":48,"el":34.0,"az":202.0,"ss":0.0,"used":false,"gnssid":1,"svid":135,"health":1},{"PRN":51,"el":36.0,"az":167.0,"ss":32.0,"used":true,"gnssid":1,"svid":138,"health":1},{"PRN":193,"el":4.0,"az":304.0,"ss":17.0,"used":false,"gnssid":5,"svid":1,"health":1},{"PRN":196,"az":0.0,"ss":0.0,"used":false,"gnssid":5,"svid":4,"health":1},{"PRN":197,"az":0.0,"ss":0.0,"used":false,"gnssid":5,"svid":5,"health":1}]}
$GPZDA,022756.00,04,10,2020,00,00*67
$GPGGA,022756.00,4622.0449,N,11657.8209,W,2,10,0.91,478.45,M,-15.307,M,,*5B
$GPRMC,022756.00,A,4622.0449,N,11657.8209,W,0.0259,273.384,041020,13.8,E*48
$GPGSA,A,3,2,3,4,7,9,16,22,26,,,,,1.6,0.9,1.4*01
$GPGBS,022756.00,2.745,2.030,7.672,,,,*44
{"class":"TPV","status":2,"mode":3,"time":"2020-10-04T02:27:56.000Z","leapseconds":18,"ept":0.005,"lat":46.367414504,"lon":-116.963682407,"altHAE":463.1416,"altMSL":478.4481,"alt":478.4481,"epx":2.745,"epy":2.030,"epv":7.672,"track":273.3843,"magtrack":287.2122,"magvar":13.8,"speed":0.013,"climb":0.027,"eps":0.36,"epc":15.34,"ecefx":-1999231.26,"ecefy":-3929867.39,"ecefz":4593857.44,"ecefvx":-0.01,"ecefvy":0.02,"ecefvz":-0.04,"ecefpAcc":6.22,"ecefvAcc":0.36,"velN":0.001,"velE":-0.013,"velD":-0.027,"geoidSep":-15.307,"eph":4.114,"sep":7.556}
$GPGSV,5,1,17,02,06,322,27,03,34,183,27,04,81,068,30,06,12,279,00*7B
$GPGSV,5,2,17,07,28,249,28,09,54,302,39,16,55,100,36,22,15,174,10*77
$GPGSV,5,3,17,26,34,054,28,27,04,122,19,29,01,014,18,30,00,246,00*7C
$GPGSV,5,4,17,31,00,064,00,46,35,197,31,48,34,202,00,51,36,167,32*7C
$GPGSV,5,5,17,193,04,304,18*7E
{"class":"SKY","time":"2020-10-04T02:27:56.000Z","xdop":0.73,"ydop":0.54,"vdop":1.36,"tdop":0.87,"hdop":0.91,"gdop":1.85,"pdop":1.64,"nSat":19,"uSat":10,"satellites":[{"PRN":2,"el":6.0,"az":322.0,"ss":27.0,"used":true,"gnssid":0,"svid":2,"health":1},{"PRN":3,"el":34.0,"az":183.0,"ss":27.0,"used":true,"gnssid":0,"svid":3,"health":1},{"PRN":4,"el":81.0,"az":68.0,"ss":30.0,"used":true,"gnssid":0,"svid":4,"health":1},{"PRN":6,"el":12.0,"az":279.0,"ss":0.0,"used":false,"gnssid":0,"svid":6,"health":1},{"PRN":7,"el":28.0,"az":249.0,"ss":28.0,"used":true,"gnssid":0,"svid":7,"health":1},{"PRN":9,"el":54.0,"az":302.0,"ss":39.0,"used":true,"gnssid":0,"svid":9,"health":1},{"PRN":16,"el":55.0,"az":100.0,"ss":36.0,"used":true,"gnssid":0,"svid":16,"health":1},{"PRN":22,"el":15.0,"az":174.0,"ss":10.0,"used":true,"gnssid":0,"svid":22,"health":1},{"PRN":26,"el":34.0,"az":54.0,"ss":28.0,"used":true,"gnssid":0,"svid":26,"health":1},{"PRN":27,"el":4.0,"az":122.0,"ss":19.0,"used":false,"gnssid":0,"svid":27,"health":1},{"PRN":29,"el":1.0,"az":14.0,"ss":18.0,"used":false,"gnssid":0,"svid":29,"health":1},{"PRN":30,"el":0.0,"az":246.0,"ss":0.0,"used":false,"gnssid":0,"svid":30,"health":1},{"PRN":31,"el":0.0,"az":64.0,"ss":0.0,"used":false,"gnssid":0,"svid":31,"health":1},{"PRN":46,"el":35.0,"az":197.0,"ss":31.0,"used":true,"gnssid":1,"svid":133,"health":1},{"PRN":48,"el":34.0,"az":202.0,"ss":0.0,"used":false,"gnssid":1,"svid":135,"health":1},{"PRN":51,"el":36.0,"az":167.0,"ss":32.0,"used":true,"gnssid":1,"svid":138,"health":1},{"PRN":193,"el":4.0,"az":304.0,"ss":18.0,"used":false,"gnssid":5,"svid":1,"health":1},{"PRN":196,"az":0.0,"ss":0.0,"used":false,"gnssid":5,"svid":4,"health":1},{"PRN":197,"az":0.0,"ss":0.0,"used":false,"gnssid":5,"svid":5,"health":1}]}
{"class":"TPV","status":2,"mode":3,"time":"2020-10-04T02:27:56.000Z","leapseconds":18,"ept":0.005,"lat":46.367414504,"lon":-116.963682407,"altHAE":463.1416,"altMSL":478.4481,"alt":478.4481,"epx":2.745,"epy":2.030,"epv":7.672,"track":273.3843,"magtrack":287.2122,"magvar":13.8,"speed":0.013,"climb":0.027,"eps":5.49,"epc":15.34,"ecefx":-1999231.26,"ecefy":-3929867.39,"ecefz":4593857.44,"ecefvx":-0.01,"ecefvy":0.02,"ecefvz":-0.04,"ecefpAcc":6.22,"ecefvAcc":0.36,"velN":0.001,"velE":-0.013,"velD":-0.027,"geoidSep":-15.307,"eph":4.114,"sep":7.556}
$GPZDA,022757.00,04,10,2020,00,00*66
$GPGGA,022757.00,4622.0449,N,11657.8209,W,2,10,0.91,478.45,M,-15.307,M,,*5A
$GPRMC,022757.00,A,4622.0449,N,11657.8209,W,0.0259,273.384,041020,13.8,E*49
$GPGSA,A,3,2,3,4,7,9,16,22,26,,,,,1.6,0.9,1.4*01
$GPGBS,022757.00,2.745,2.030,7.672,,,,*45
{"class":"TPV","status":2,"mode":3,"time":"2020-10-04T02:27:57.000Z","leapseconds":18,"ept":0.005,"lat":46.367414504,"lon":-116.963682407,"altHAE":463.1416,"altMSL":478.4481,"alt":478.4481,"epx":2.745,"epy":2.030,"epv":7.672,"track":273.3843,"magtrack":287.2122,"magvar":13.8,"speed":0.013,"climb":0.027,"eps":0.39,"epc":15.34,"ecefx":-1999231.27,"ecefy":-3929867.42,"ecefz":4593857.45,"ecefvx":0.03,"ecefvy":0.03,"ecefvz":-0.03,"ecefpAcc":6.22,"ecefvAcc":0.39,"velN":0.001,"velE":-0.013,"velD":-0.027,"geoidSep":-15.307,"eph":4.114,"sep":7.556}
$GPGSV,5,1,17,02,06,322,27,03,34,183,27,04,81,068,30,06,12,279,00*7B
$GPGSV,5,2,17,07,28,249,28,09,54,302,39,16,55,100,37,22,15,174,10*76
$GPGSV,5,3,17,26,34,054,28,27,04,122,19,29,01,014,18,30,00,246,00*7C
$GPGSV,5,4,17,31,00,064,00,46,35,197,31,48,34,202,00,51,36,167,32*7C
$GPGSV,5,5,17,193,04,304,19*7F
{"class":"SKY","time":"2020-10-04T02:27:57.000Z","xdop":0.73,"ydop":0.54,"vdop":1.36,"tdop":0.87,"hdop":0.91,"gdop":1.85,"pdop":1.64,"nSat":19,"uSat":10,"satellites":[{"PRN":2,"el":6.0,"az":322.0,"ss":27.0,"used":true,"gnssid":0,"svid":2,"health":1},{"PRN":3,"el":34.0,"az":183.0,"ss":27.0,"used":true,"gnssid":0,"svid":3,"health":1},{"PRN":4,"el":81.0,"az":68.0,"ss":30.0,"used":true,"gnssid":0,"svid":4,"health":1},{"PRN":6,"el":12.0,"az":279.0,"ss":0.0,"used":false,"gnssid":0,"svid":6,"health":1},{"PRN":7,"el":28.0,"az":249.0,"ss":28.0,"used":true,"gnssid":0,"svid":7,"health":1},{"PRN":9,"el":54.0,"az":302.0,"ss":39.0,"used":true,"gnssid":0,"svid":9,"health":1},{"PRN":16,"el":55.0,"az":100.0,"ss":37.0,"used":true,"gnssid":0,"svid":16,"health":1},{"PRN":22,"el":15.0,"az":174.0,"ss":10.0,"used":true,"gnssid":0,"svid":22,"health":1},{"PRN":26,"el":34.0,"az":54.0,"ss":28.0,"used":true,"gnssid":0,"svid":26,"health":1},{"PRN":27,"el":4.0,"az":122.0,"ss":19.0,"used":false,"gnssid":0,"svid":27,"health":1},{"PRN":29,"el":1.0,"az":14.0,"ss":18.0,"used":false,"gnssid":0,"svid":29,"health":1},{"PRN":30,"el":0.0,"az":246.0,"ss":0.0,"used":false,"gnssid":0,"svid":30,"health":1},{"PRN":31,"el":0.0,"az":64.0,"ss":0.0,"used":false,"gnssid":0,"svid":31,"health":1},{"PRN":46,"el":35.0,"az":197.0,"ss":31.0,"used":true,"gnssid":1,"svid":133,"health":1},{"PRN":48,"el":34.0,"az":202.0,"ss":0.0,"used":false,"gnssid":1,"svid":135,"health":1},{"PRN":51,"el":36.0,"az":167.0,"ss":32.0,"used":true,"gnssid":1,"svid":138,"health":1},{"PRN":193,"el":4.0,"az":304.0,"ss":19.0,"used":false,"gnssid":5,"svid":1,"health":1},{"PRN":196,"az":0.0,"ss":0.0,"used":false,"gnssid":5,"svid":4,"health":1},{"PRN":197,"az":0.0,"ss":0.0,"used":false,"gnssid":5,"svid":5,"health":1}]}
$GPZDA,022758.00,04,10,2020,00,00*69
$GPGGA,022758.00,4622.0449,N,11657.8209,W,2,09,0.91,478.45,M,-15.307,M,,*5D
$GPRMC,022758.00,A,4622.0449,N,11657.8209,W,0.0259,273.384,041020,13.8,E*46
$GPGSA,A,3,2,3,4,7,9,16,22,26,,,,,1.6,0.9,1.4*01
$GPGBS,022758.00,2.745,2.030,7.672,,,,*4A
{"class":"TPV","status":2,"mode":3,"time":"2020-10-04T02:27:58.000Z","leapseconds":18,"ept":0.005,"lat":46.367414504,"lon":-116.963682407,"altHAE":463.1416,"altMSL":478.4481,"alt":478.4481,"epx":2.745,"epy":2.030,"epv":7.672,"track":273.3843,"magtrack":287.2122,"magvar":13.8,"speed":0.013,"climb":0.027,"eps":0.38,"epc":15.34,"ecefx":-1999231.26,"ecefy":-3929867.38,"ecefz":4593857.46,"ecefvx":0.03,"ecefvy":0.03,"ecefvz":-0.01,"ecefpAcc":6.24,"ecefvAcc":0.38,"velN":0.001,"velE":-0.013,"velD":-0.027,"geoidSep":-15.307,"eph":4.114,"sep":7.556}
$GPGSV,5,1,17,02,06,322,26,03,34,183,27,04,81,068,30,06,12,279,00*7A
$GPGSV,5,2,17,07,28,249,28,09,54,302,39,16,55,100,36,22,15,174,00*76
$GPGSV,5,3,17,26,34,054,28,27,04,122,19,29,01,014,17,30,00,246,00*73
$GPGSV,5,4,17,31,00,064,00,46,35,197,30,48,34,202,00,51,36,167,32*7D
$GPGSV,5,5,17,193,04,304,19*7F
{"class":"SKY","time":"2020-10-04T02:27:58.000Z","xdop":0.77,"ydop":0.61,"vdop":1.36,"tdop":0.87,"hdop":0.91,"gdop":1.85,"pdop":1.64,"nSat":19,"uSat":9,"satellites":[{"PRN":2,"el":6.0,"az":322.0,"ss":26.0,"used":true,"gnssid":0,"svid":2,"health":1},{"PRN":3,"el":34.0,"az":183.0,"ss":27.0,"used":true,"gnssid":0,"svid":3,"health":1},{"PRN":4,"el":81.0,"az":68.0,"ss":30.0,"used":true,"gnssid":0,"svid":4,"health":1},{"PRN":6,"el":12.0,"az":279.0,"ss":0.0,"used":false,"gnssid":0,"svid":6,"health":1},{"PRN":7,"el":28.0,"az":249.0,"ss":28.0,"used":true,"gnssid":0,"svid":7,"health":1},{"PRN":9,"el":54.0,"az":302.0,"ss":39.0,"used":true,"gnssid":0,"svid":9,"health":1},{"PRN":16,"el":55.0,"az":100.0,"ss":36.0,"used":true,"gnssid":0,"svid":16,"health":1},{"PRN":22,"el":15.0,"az":174.0,"ss":0.0,"used":false,"gnssid":0,"svid":22,"health":1},{"PRN":26,"el":34.0,"az":54.0,"ss":28.0,"used":true,"gnssid":0,"svid":26,"health":1},{"PRN":27,"el":4.0,"az":122.0,"ss":19.0,"used":false,"gnssid":0,"svid":27,"health":1},{"PRN":29,"el":1.0,"az":14.0,"ss":17.0,"used":false,"gnssid":0,"svid":29,"health":1},{"PRN":30,"el":0.0,"az":246.0,"ss":0.0,"used":false,"gnssid":0,"svid":30,"health":1},{"PRN":31,"el":0.0,"az":64.0,"ss":0.0,"used":false,"gnssid":0,"svid":31,"health":1},{"PRN":46,"el":35.0,"az":197.0,"ss":30.0,"used":true,"gnssid":1,"svid":133,"health":1},{"PRN":48,"el":34.0,"az":202.0,"ss":0.0,"used":false,"gnssid":1,"svid":135,"health":1},{"PRN":51,"el":36.0,"az":167.0,"ss":32.0,"used":true,"gnssid":1,"svid":138,"health":1},{"PRN":193,"el":4.0,"az":304.0,"ss":19.0,"used":false,"gnssid":5,"svid":1,"health":1},{"PRN":196,"az":0.0,"ss":0.0,"used":false,"gnssid":5,"svid":4,"health":1},{"PRN":197,"az":0.0,"ss":0.0,"used":false,"gnssid":5,"svid":5,"health":1}]}
{"class":"TPV","status":2,"mode":3,"time":"2020-10-04T02:27:58.000Z","leapseconds":18,"ept":0.005,"lat":46.367414504,"lon":-116.963682407,"altHAE":463.1416,"altMSL":478.4481,"alt":478.4481,"epx":2.878,"epy":2.274,"epv":7.672,"track":273.3843,"magtrack":287.2122,"magvar":13.8,"speed":0.013,"climb":0.027,"eps":5.62,"epc":15.34,"ecefx":-1999231.26,"ecefy":-3929867.38,"ecefz":4593857.46,"ecefvx":0.03,"ecefvy":0.03,"ecefvz":-0.01,"ecefpAcc":6.24,"ecefvAcc":0.38,"velN":0.001,"velE":-0.013,"velD":-0.027,"geoidSep":-15.307,"eph":4.114,"sep":7.556}
$GPZDA,022759.00,04,10,2020,00,00*68
$GPGGA,022759.00,4622.0449,N,11657.8209,W,2,09,0.97,478.45,M,-15.307,M,,*5A
$GPRMC,022759.00,A,4622.0449,N,11657.8209,W,0.0259,273.384,041020,13.8,E*47
$GPGSA,A,3,2,3,4,7,9,16,26,,,,,,1.9,1.0,1.6*04
$GPGBS,022759.00,2.878,2.274,7.672,,,,*48
{"class":"TPV","status":2,"mode":3,"time":"2020-10-04T02:27:59.000Z","leapseconds":18,"ept":0.005,"lat":46.367414504,"lon":-116.963682407,"altHAE":463.1416,"altMSL":478.4481,"alt":478.4481,"epx":2.878,"epy":2.274,"epv":7.672,"track":273.3843,"magtrack":287.2122,"magvar":13.8,"speed":0.013,"climb":0.027,"eps":0.37,"epc":15.34,"ecefx":-1999231.24,"ecefy":-3929867.35,"ecefz":4593857.46,"ecefvx":0.01,"ecefvy":0.02,"ecefvz":-0.01,"ecefpAcc":6.25,"ecefvAcc":0.37,"velN":0.001,"velE":-0.013,"velD":-0.027,"geoidSep":-15.307,"eph":4.114,"sep":7.556}
$GPGSV,5,1,17,02,06,322,26,03,34,183,26,04,81,068,30,06,12,279,00*7B
$GPGSV,5,2,17,07,28,249,28,09,54,302,39,16,55,100,36,22,15,174,00*76
$GPGSV,5,3,17,26,34,054,28,27,04,122,19,29,01,014,17,30,00,246,00*73
$GPGSV,5,4,17,31,00,064,00,46,35,197,31,48,34,202,00,51,36,167,32*7C
$GPGSV,5,5,17,193,04,304,19*7F
{"class":"SKY","time":"2020-10-04T02:27:59.000Z","xdop":0.77,"ydop":0.61,"vdop":1.60,"tdop":1.04,"hdop":0.97,"gdop":2.14,"pdop":1.87,"nSat":19,"uSat":9,"satellites":[{"PRN":2,"el":6.0,"az":322.0,"ss":26.0,"used":true,"gnssid":0,"svid":2,"health":1},{"PRN":3,"el":34.0,"az":183.0,"ss":26.0,"used":true,"gnssid":0,"svid":3,"health":1},{"PRN":4,"el":81.0,"az":68.0,"ss":30.0,"used":true,"gnssid":0,"svid":4,"health":1},{"PRN":6,"el":12.0,"az":279.0,"ss":0.0,"used":false,"gnssid":0,"svid":6,"health":1},{"PRN":7,"el":28.0,"az":249.0,"ss":28.0,"used":true,"gnssid":0,"svid":7,"health":1},{"PRN":9,"el":54.0,"az":302.0,"ss":39.0,"used":true,"gnssid":0,"svid":9,"health":1},{"PRN":16,"el":55.0,"az":100.0,"ss":36.0,"used":true,"gnssid":0,"svid":16,"health":1},{"PRN":22,"el":15.0,"az":174.0,"ss":0.0,"used":false,"gnssid":0,"svid":22,"health":1},{"PRN":26,"el":34.0,"az":54.0,"ss":28.0,"used":true,"gnssid":0,"svid":26,"health":1},{"PRN":27,"el":4.0,"az":122.0,"ss":19.0,"used":false,"gnssid":0,"svid":27,"health":1},{"PRN":29,"el":1.0,"az":14.0,"ss":17.0,"used":false,"gnssid":0,"svid":29,"health":1},{"PRN":30,"el":0.0,"az":246.0,"ss":0.0,"used":false,"gnssid":0,"svid":30,"health":1},{"PRN":31,"el":0.0,"az":64.0,"ss":0.0,"used":false,"gnssid":0,"svid":31,"health":1},{"PRN":46,"el":35.0,"az":197.0,"ss":31.0,"used":true,"gnssid":1,"svid":133,"health":1},{"PRN":48,"el":34.0,"az":202.0,"ss":0.0,"used":false,"gnssid":1,"svid":135,"health":1},{"PRN":51,"el":36.0,"az":167.0,"ss":32.0,"used":true,"gnssid":1,"svid":138,"health":1},{"PRN":193,"el":4.0,"az":304.0,"ss":19.0,"used":false,"gnssid":5,"svid":1,"health":1},{"PRN":196,"az":0.0,"ss":0.0,"used":false,"gnssid":5,"svid":4,"health":1},{"PRN":197,"az":0.0,"ss":0.0,"used":false,"gnssid":5,"svid":5,"health":1}]}
$GPZDA,022800.00,04,10,2020,00,00*6B
$GPGGA,022800.00,4622.0449,N,11657.8209,W,2,09,0.97,478.45,M,-15.307,M,,*59
$GPRMC,022800.00,A,4622.0449,N,11657.8209,W,0.0259,273.384,041020,13.8,E*44
$GPGSA,A,3,2,3,4,7,9,16,26,,,,,,1.9,1.0,1.6*04
$GPGBS,022800.00,2.878,2.274,7.672,,,,*4B
