$GPGGA,110518.000,5709.8067,N,00207.2822,W,1,08,1.0,59.3,M,48.2,M,,0000*77
{"class":"TPV","mode":3,"lat":57.163445000,"lon":-2.121370000,"altHAE":107.5000,"altMSL":59.3000,"alt":59.3000,"magvar":-1.6,"geoidSep":48.200,"eph":19.000}
{"class":"SKY","hdop":1.00,"uSat":8}
$GPGLL,5709.8067,N,00207.2822,W,110518.000,A,A*4A
{"class":"TPV","mode":3,"lat":57.163445000,"lon":-2.121370000,"altHAE":107.5000,"altMSL":59.3000,"alt":59.3000,"magvar":-1.6,"geoidSep":48.200,"eph":19.000}
$GPGSA,A,3,23,04,20,31,32,17,13,24,,,,,2.1,1.0,1.8*3F
{"class":"TPV","mode":3,"lat":57.163445000,"lon":-2.121370000,"altHAE":107.5000,"altMSL":59.3000,"alt":59.3000,"epv":41.400,"magvar":-1.6,"geoidSep":48.200,"eph":19.000,"sep":39.900}
{"class":"SKY","hdop":1.00,"pdop":2.10,"vdop":1.80,"uSat":8}
$GPRMC,110518.000,A,5709.8067,N,00207.2822,W,0.00,,140311,,,A*65
{"class":"TPV","mode":3,"time":"2030-10-28T11:05:18.000Z","ept":0.005,"lat":57.163445000,"lon":-2.121370000,"altHAE":107.5000,"altMSL":59.3000,"alt":59.3000,"epv":41.400,"magvar":-1.6,"speed":0.000,"geoidSep":48.200,"eph":19.000,"sep":39.900}
$GPVTG,,T,,M,0.00,N,0.0,K,A*13
$GPGGA,110519.000,5709.8067,N,00207.2822,W,1,08,1.0,59.3,M,48.2,M,,0000*76
{"class":"SKY","hdop":1.00,"pdop":2.10,"vdop":1.80,"uSat":8}
$GPGLL,5709.8067,N,00207.2822,W,110519.000,A,A*4B
$GPGSA,A,3,23,04,20,31,32,17,13,24,,,,,2.1,1.0,1.8*3F
{"class":"SKY","hdop":1.00,"pdop":2.10,"vdop":1.80,"uSat":8}
$GPRMC,110519.000,A,5709.8067,N,00207.2822,W,0.00,,140311,,,A*64
{"class":"TPV","mode":3,"time":"2030-10-28T11:05:19.000Z","ept":0.005,"lat":57.163445000,"lon":-2.121370000,"altHAE":107.5000,"altMSL":59.3000,"alt":59.3000,"epv":41.400,"magvar":-1.6,"speed":0.000,"climb":0.000,"epc":82.80,"geoidSep":48.200,"eph":19.000,"sep":39.900}
$GPVTG,,T,,M,0.00,N,0.0,K,A*13
$GPGGA,110520.000,5709.8067,N,00207.2822,W,1,08,1.0,59.3,M,48.2,M,,0000*7C
{"class":"SKY","hdop":1.00,"pdop":2.10,"vdop":1.80,"uSat":8}
$GPGLL,5709.8067,N,00207.2822,W,110520.000,A,A*41
$GPGSA,A,3,23,04,20,31,32,17,13,24,,,,,2.1,1.0,1.8*3F
{"class":"SKY","hdop":1.00,"pdop":2.10,"vdop":1.80,"uSat":8}
$GPGSV,3,1,12,23,65,147,33,20,59,095,27,04,46,290,20,13,37,191,24*79
$GPGSV,3,2,12,32,32,083,33,17,30,227,20,31,23,042,22,24,16,136,21*73
$GPGSV,3,3,12,10,14,262,,02,11,306,,25,08,,,12,07,321,15*40
{"class":"SKY","gdop":2.37,"hdop":1.00,"pdop":2.10,"tdop":1.18,"xdop":0.68,"ydop":0.77,"vdop":1.80,"nSat":12,"uSat":8,"satellites":[{"PRN":23,"gnssid":0,"svid":23,"az":147.0,"el":65.0,"ss":33.0,"used":true},{"PRN":20,"gnssid":0,"svid":20,"az":95.0,"el":59.0,"ss":27.0,"used":true},{"PRN":4,"gnssid":0,"svid":4,"az":290.0,"el":46.0,"ss":20.0,"used":true},{"PRN":13,"gnssid":0,"svid":13,"az":191.0,"el":37.0,"ss":24.0,"used":true},{"PRN":32,"gnssid":0,"svid":32,"az":83.0,"el":32.0,"ss":33.0,"used":true},{"PRN":17,"gnssid":0,"svid":17,"az":227.0,"el":30.0,"ss":20.0,"used":true},{"PRN":31,"gnssid":0,"svid":31,"az":42.0,"el":23.0,"ss":22.0,"used":true},{"PRN":24,"gnssid":0,"svid":24,"az":136.0,"el":16.0,"ss":21.0,"used":true},{"PRN":10,"gnssid":0,"svid":10,"az":262.0,"el":14.0,"ss":0.0,"used":false},{"PRN":2,"gnssid":0,"svid":2,"az":306.0,"el":11.0,"ss":0.0,"used":false},{"PRN":25,"gnssid":0,"svid":25,"az":0.0,"el":8.0,"ss":0.0,"used":false},{"PRN":12,"gnssid":0,"svid":12,"az":321.0,"el":7.0,"ss":15.0,"used":false}]}
$GPRMC,110520.000,A,5709.8067,N,00207.2822,W,0.00,,140311,,,A*6E
{"class":"TPV","mode":3,"time":"2030-10-28T11:05:20.000Z","ept":0.005,"lat":57.163445000,"lon":-2.121370000,"altHAE":107.5000,"altMSL":59.3000,"alt":59.3000,"epx":10.256,"epy":11.488,"epv":41.400,"magvar":-1.6,"speed":0.000,"climb":0.000,"epc":82.80,"geoidSep":48.200,"eph":19.000,"sep":39.900}
$GPVTG,,T,,M,0.00,N,0.0,K,A*13
$GPGGA,110521.000,5709.8067,N,00207.2822,W,1,08,1.0,59.3,M,48.2,M,,0000*7D
{"class":"SKY","gdop":2.37,"hdop":1.00,"pdop":2.10,"tdop":1.18,"xdop":0.68,"ydop":0.77,"vdop":1.80,"uSat":8}
$GPGLL,5709.8067,N,00207.2822,W,110521.000,A,A*40
$GPGSA,A,3,23,04,20,31,32,17,13,24,,,,,2.1,1.0,1.8*3F
{"class":"SKY","gdop":2.37,"hdop":1.00,"pdop":2.10,"tdop":1.18,"xdop":0.68,"ydop":0.77,"vdop":1.80,"uSat":8}
$GPRMC,110521.000,A,5709.8067,N,00207.2822,W,0.00,,140311,,,A*6F
{"class":"TPV","mode":3,"time":"2030-10-28T11:05:21.000Z","ept":0.005,"lat":57.163445000,"lon":-2.121370000,"altHAE":107.5000,"altMSL":59.3000,"alt":59.3000,"epx":10.256,"epy":11.488,"epv":41.400,"magvar":-1.6,"speed":0.000,"climb":0.000,"eps":22.98,"epc":82.80,"geoidSep":48.200,"eph":19.000,"sep":39.900}
$GPVTG,,T,,M,0.00,N,0.0,K,A*13
$GPGGA,110522.000,5709.8067,N,00207.2822,W,1,08,1.0,59.3,M,48.2,M,,0000*7E
{"class":"SKY","gdop":2.37,"hdop":1.00,"pdop":2.10,"tdop":1.18,"xdop":0.68,"ydop":0.77,"vdop":1.80,"uSat":8}
$GPGLL,5709.8067,N,00207.2822,W,110522.000,A,A*43
$GPGSA,A,3,23,04,20,31,32,17,13,24,,,,,2.1,1.0,1.8*3F
{"class":"SKY","gdop":2.37,"hdop":1.00,"pdop":2.10,"tdop":1.18,"xdop":0.68,"ydop":0.77,"vdop":1.80,"uSat":8}
$GPRMC,110522.000,A,5709.8067,N,00207.2822,W,0.00,,140311,,,A*6C
{"class":"TPV","mode":3,"time":"2030-10-28T11:05:22.000Z","ept":0.005,"lat":57.163445000,"lon":-2.121370000,"altHAE":107.5000,"altMSL":59.3000,"alt":59.3000,"epx":10.256,"epy":11.488,"epv":41.400,"magvar":-1.6,"speed":0.000,"climb":0.000,"eps":22.98,"epc":82.80,"geoidSep":48.200,"eph":19.000,"sep":39.900}
$GPVTG,,T,,M,0.00,N,0.0,K,A*13
$GPGGA,110523.000,5709.8067,N,00207.2822,W,1,08,1.0,59.3,M,48.2,M,,0000*7F
{"class":"SKY","gdop":2.37,"hdop":1.00,"pdop":2.10,"tdop":1.18,"xdop":0.68,"ydop":0.77,"vdop":1.80,"uSat":8}
$GPGLL,5709.8067,N,00207.2822,W,110523.000,A,A*42
$GPGSA,A,3,23,04,20,31,32,17,13,24,,,,,2.1,1.0,1.8*3F
{"class":"SKY","gdop":2.37,"hdop":1.00,"pdop":2.10,"tdop":1.18,"xdop":0.68,"ydop":0.77,"vdop":1.80,"uSat":8}
$GPRMC,110523.000,A,5709.8067,N,00207.2822,W,0.00,,140311,,,A*6D
{"class":"TPV","mode":3,"time":"2030-10-28T11:05:23.000Z","ept":0.005,"lat":57.163445000,"lon":-2.121370000,"altHAE":107.5000,"altMSL":59.3000,"alt":59.3000,"epx":10.256,"epy":11.488,"epv":41.400,"magvar":-1.6,"speed":0.000,"climb":0.000,"eps":22.98,"epc":82.80,"geoidSep":48.200,"eph":19.000,"sep":39.900}
$GPVTG,,T,,M,0.00,N,0.0,K,A*13
$GPGGA,110524.000,5709.8067,N,00207.2822,W,1,08,1.0,59.3,M,48.2,M,,0000*78
{"class":"SKY","gdop":2.37,"hdop":1.00,"pdop":2.10,"tdop":1.18,"xdop":0.68,"ydop":0.77,"vdop":1.80,"uSat":8}
$GPGLL,5709.8067,N,00207.2822,W,110524.000,A,A*45
$GPGSA,A,3,23,04,20,31,32,17,13,24,,,,,2.1,1.0,1.8*3F
{"class":"SKY","gdop":2.37,"hdop":1.00,"pdop":2.10,"tdop":1.18,"xdop":0.68,"ydop":0.77,"vdop":1.80,"uSat":8}
$GPRMC,110524.000,A,5709.8067,N,00207.2822,W,0.00,,140311,,,A*6A
{"class":"TPV","mode":3,"time":"2030-10-28T11:05:24.000Z","ept":0.005,"lat":57.163445000,"lon":-2.121370000,"altHAE":107.5000,"altMSL":59.3000,"alt":59.3000,"epx":10.256,"epy":11.488,"epv":41.400,"magvar":-1.6,"speed":0.000,"climb":0.000,"eps":22.98,"epc":82.80,"geoidSep":48.200,"eph":19.000,"sep":39.900}
$GPVTG,,T,,M,0.00,N,0.0,K,A*13
$GPGGA,110525.000,5709.8067,N,00207.2822,W,1,08,1.0,59.3,M,48.2,M,,0000*79
{"class":"SKY","gdop":2.37,"hdop":1.00,"pdop":2.10,"tdop":1.18,"xdop":0.68,"ydop":0.77,"vdop":1.80,"uSat":8}
$GPGLL,5709.8067,N,00207.2822,W,110525.000,A,A*44
$GPGSA,A,3,23,04,20,31,32,17,13,24,,,,,2.1,1.0,1.8*3F
{"class":"SKY","gdop":2.37,"hdop":1.00,"pdop":2.10,"tdop":1.18,"xdop":0.68,"ydop":0.77,"vdop":1.80,"uSat":8}
$GPGSV,3,1,12,23,65,147,32,20,59,095,27,04,46,290,20,13,37,191,24*78
$GPGSV,3,2,12,32,32,083,32,17,30,227,19,31,23,042,22,24,16,136,20*79
$GPGSV,3,3,12,10,14,262,,02,11,306,,25,08,,,12,07,321,15*40
{"class":"SKY","gdop":2.37,"hdop":1.00,"pdop":2.10,"tdop":1.18,"xdop":0.68,"ydop":0.77,"vdop":1.80,"nSat":12,"uSat":8,"satellites":[{"PRN":23,"gnssid":0,"svid":23,"az":147.0,"el":65.0,"ss":32.0,"used":true},{"PRN":20,"gnssid":0,"svid":20,"az":95.0,"el":59.0,"ss":27.0,"used":true},{"PRN":4,"gnssid":0,"svid":4,"az":290.0,"el":46.0,"ss":20.0,"used":true},{"PRN":13,"gnssid":0,"svid":13,"az":191.0,"el":37.0,"ss":24.0,"used":true},{"PRN":32,"gnssid":0,"svid":32,"az":83.0,"el":32.0,"ss":32.0,"used":true},{"PRN":17,"gnssid":0,"svid":17,"az":227.0,"el":30.0,"ss":19.0,"used":true},{"PRN":31,"gnssid":0,"svid":31,"az":42.0,"el":23.0,"ss":22.0,"used":true},{"PRN":24,"gnssid":0,"svid":24,"az":136.0,"el":16.0,"ss":20.0,"used":true},{"PRN":10,"gnssid":0,"svid":10,"az":262.0,"el":14.0,"ss":0.0,"used":false},{"PRN":2,"gnssid":0,"svid":2,"az":306.0,"el":11.0,"ss":0.0,"used":false},{"PRN":25,"gnssid":0,"svid":25,"az":0.0,"el":8.0,"ss":0.0,"used":false},{"PRN":12,"gnssid":0,"svid":12,"az":321.0,"el":7.0,"ss":15.0,"used":false}]}
$GPRMC,110525.000,A,5709.8067,N,00207.2822,W,0.00,,140311,,,A*6B
{"class":"TPV","mode":3,"time":"2030-10-28T11:05:25.000Z","ept":0.005,"lat":57.163445000,"lon":-2.121370000,"altHAE":107.5000,"altMSL":59.3000,"alt":59.3000,"epx":10.256,"epy":11.488,"epv":41.400,"magvar":-1.6,"speed":0.000,"climb":0.000,"eps":22.98,"epc":82.80,"geoidSep":48.200,"eph":19.000,"sep":39.900}
$GPVTG,,T,,M,0.00,N,0.0,K,A*13
$GPGGA,110526.000,5709.8067,N,00207.2822,W,1,08,1.0,59.3,M,48.2,M,,0000*7A
{"class":"SKY","gdop":2.37,"hdop":1.00,"pdop":2.10,"tdop":1.18,"xdop":0.68,"ydop":0.77,"vdop":1.80,"uSat":8}
$GPGLL,5709.8067,N,00207.2822,W,110526.000,A,A*47
$GPGSA,A,3,23,04,20,31,32,17,13,24,,,,,2.1,1.0,1.8*3F
{"class":"SKY","gdop":2.37,"hdop":1.00,"pdop":2.10,"tdop":1.18,"xdop":0.68,"ydop":0.77,"vdop":1.80,"uSat":8}
$GPRMC,110526.000,A,5709.8067,N,00207.2822,W,0.00,,140311,,,A*68
{"class":"TPV","mode":3,"time":"2030-10-28T11:05:26.000Z","ept":0.005,"lat":57.163445000,"lon":-2.121370000,"altHAE":107.5000,"altMSL":59.3000,"alt":59.3000,"epx":10.256,"epy":11.488,"epv":41.400,"magvar":-1.6,"speed":0.000,"climb":0.000,"eps":22.98,"epc":82.80,"geoidSep":48.200,"eph":19.000,"sep":39.900}
$GPVTG,,T,,M,0.00,N,0.0,K,A*13
$GPGGA,110527.000,5709.8067,N,00207.2822,W,1,08,1.0,59.3,M,48.2,M,,0000*7B
{"class":"SKY","gdop":2.37,"hdop":1.00,"pdop":2.10,"tdop":1.18,"xdop":0.68,"ydop":0.77,"vdop":1.80,"uSat":8}
$GPGLL,5709.8067,N,00207.2822,W,110527.000,A,A*46
$GPGSA,A,3,23,04,20,31,32,17,13,24,,,,,2.1,1.0,1.8*3F
{"class":"SKY","gdop":2.37,"hdop":1.00,"pdop":2.10,"tdop":1.18,"xdop":0.68,"ydop":0.77,"vdop":1.80,"uSat":8}
$GPRMC,110527.000,A,5709.8067,N,00207.2822,W,0.00,,140311,,,A*69
{"class":"TPV","mode":3,"time":"2030-10-28T11:05:27.000Z","ept":0.005,"lat":57.163445000,"lon":-2.121370000,"altHAE":107.5000,"altMSL":59.3000,"alt":59.3000,"epx":10.256,"epy":11.488,"epv":41.400,"magvar":-1.6,"speed":0.000,"climb":0.000,"eps":22.98,"epc":82.80,"geoidSep":48.200,"eph":19.000,"sep":39.900}
$GPVTG,,T,,M,0.00,N,0.0,K,A*13
$GPGGA,110528.000,5709.8067,N,00207.2822,W,1,08,1.0,59.3,M,48.2,M,,0000*74
{"class":"SKY","gdop":2.37,"hdop":1.00,"pdop":2.10,"tdop":1.18,"xdop":0.68,"ydop":0.77,"vdop":1.80,"uSat":8}
$GPGLL,5709.8067,N,00207.2822,W,110528.000,A,A*49
$GPGSA,A,3,23,04,20,31,32,17,13,24,,,,,2.1,1.0,1.8*3F
{"class":"SKY","gdop":2.37,"hdop":1.00,"pdop":2.10,"tdop":1.18,"xdop":0.68,"ydop":0.77,"vdop":1.80,"uSat":8}
$GPRMC,110528.000,A,5709.8067,N,00207.2822,W,0.00,,140311,,,A*66
{"class":"TPV","mode":3,"time":"2030-10-28T11:05:28.000Z","ept":0.005,"lat":57.163445000,"lon":-2.121370000,"altHAE":107.5000,"altMSL":59.3000,"alt":59.3000,"epx":10.256,"epy":11.488,"epv":41.400,"magvar":-1.6,"speed":0.000,"climb":0.000,"eps":22.98,"epc":82.80,"geoidSep":48.200,"eph":19.000,"sep":39.900}
$GPVTG,,T,,M,0.00,N,0.0,K,A*13
$GPGGA,110529.000,5709.8067,N,00207.2822,W,1,08,1.0,59.3,M,48.2,M,,0000*75
{"class":"SKY","gdop":2.37,"hdop":1.00,"pdop":2.10,"tdop":1.18,"xdop":0.68,"ydop":0.77,"vdop":1.80,"uSat":8}
$GPGLL,5709.8067,N,00207.2822,W,110529.000,A,A*48
$GPGSA,A,3,23,04,20,31,32,17,13,24,,,,,2.1,1.0,1.8*3F
{"class":"SKY","gdop":2.37,"hdop":1.00,"pdop":2.10,"tdop":1.18,"xdop":0.68,"ydop":0.77,"vdop":1.80,"uSat":8}
$GPRMC,110529.000,A,5709.8067,N,00207.2822,W,0.00,,140311,,,A*67
{"class":"TPV","mode":3,"time":"2030-10-28T11:05:29.000Z","ept":0.005,"lat":57.163445000,"lon":-2.121370000,"altHAE":107.5000,"altMSL":59.3000,"alt":59.3000,"epx":10.256,"epy":11.488,"epv":41.400,"magvar":-1.6,"speed":0.000,"climb":0.000,"eps":22.98,"epc":82.80,"geoidSep":48.200,"eph":19.000,"sep":39.900}
$GPVTG,,T,,M,0.00,N,0.0,K,A*13
$GPGGA,110530.000,5709.8067,N,00207.2822,W,1,08,1.0,59.3,M,48.2,M,,0000*7D
{"class":"SKY","gdop":2.37,"hdop":1.00,"pdop":2.10,"tdop":1.18,"xdop":0.68,"ydop":0.77,"vdop":1.80,"uSat":8}
$GPGLL,5709.8067,N,00207.2822,W,110530.000,A,A*40
$GPGSA,A,3,23,04,20,31,32,17,13,24,,,,,2.1,1.0,1.8*3F
{"class":"SKY","gdop":2.37,"hdop":1.00,"pdop":2.10,"tdop":1.18,"xdop":0.68,"ydop":0.77,"vdop":1.80,"uSat":8}
$GPGSV,3,1,12,23,65,147,32,20,59,095,26,04,46,290,19,13,37,191,24*73
$GPGSV,3,2,12,32,32,083,32,17,30,227,18,31,23,042,21,24,16,136,19*71
$GPGSV,3,3,12,10,14,262,,02,11,306,,25,08,,,12,07,321,15*40
{"class":"SKY","gdop":2.37,"hdop":1.00,"pdop":2.10,"tdop":1.18,"xdop":0.68,"ydop":0.77,"vdop":1.80,"nSat":12,"uSat":8,"satellites":[{"PRN":23,"gnssid":0,"svid":23,"az":147.0,"el":65.0,"ss":32.0,"used":true},{"PRN":20,"gnssid":0,"svid":20,"az":95.0,"el":59.0,"ss":26.0,"used":true},{"PRN":4,"gnssid":0,"svid":4,"az":290.0,"el":46.0,"ss":19.0,"used":true},{"PRN":13,"gnssid":0,"svid":13,"az":191.0,"el":37.0,"ss":24.0,"used":true},{"PRN":32,"gnssid":0,"svid":32,"az":83.0,"el":32.0,"ss":32.0,"used":true},{"PRN":17,"gnssid":0,"svid":17,"az":227.0,"el":30.0,"ss":18.0,"used":true},{"PRN":31,"gnssid":0,"svid":31,"az":42.0,"el":23.0,"ss":21.0,"used":true},{"PRN":24,"gnssid":0,"svid":24,"az":136.0,"el":16.0,"ss":19.0,"used":true},{"PRN":10,"gnssid":0,"svid":10,"az":262.0,"el":14.0,"ss":0.0,"used":false},{"PRN":2,"gnssid":0,"svid":2,"az":306.0,"el":11.0,"ss":0.0,"used":false},{"PRN":25,"gnssid":0,"svid":25,"az":0.0,"el":8.0,"ss":0.0,"used":false},{"PRN":12,"gnssid":0,"svid":12,"az":321.0,"el":7.0,"ss":15.0,"used":false}]}
$GPRMC,110530.000,A,5709.8067,N,00207.2822,W,0.00,,140311,,,A*6F
{"class":"TPV","mode":3,"time":"2030-10-28T11:05:30.000Z","ept":0.005,"lat":57.163445000,"lon":-2.121370000,"altHAE":107.5000,"altMSL":59.3000,"alt":59.3000,"epx":10.256,"epy":11.488,"epv":41.400,"magvar":-1.6,"speed":0.000,"climb":0.000,"eps":22.98,"epc":82.80,"geoidSep":48.200,"eph":19.000,"sep":39.900}
$GPVTG,,T,,M,0.00,N,0.0,K,A*13
$GPGGA,110531.000,5709.8067,N,00207.2822,W,1,08,1.0,59.3,M,48.2,M,,0000*7C
{"class":"SKY","gdop":2.37,"hdop":1.00,"pdop":2.10,"tdop":1.18,"xdop":0.68,"ydop":0.77,"vdop":1.80,"uSat":8}
$GPGLL,5709.8067,N,00207.2822,W,110531.000,A,A*41
$GPGSA,A,3,23,04,20,31,32,17,13,24,,,,,2.1,1.0,1.8*3F
{"class":"SKY","gdop":2.37,"hdop":1.00,"pdop":2.10,"tdop":1.18,"xdop":0.68,"ydop":0.77,"vdop":1.80,"uSat":8}
$GPRMC,110531.000,A,5709.8067,N,00207.2822,W,0.00,,140311,,,A*6E
{"class":"TPV","mode":3,"time":"2030-10-28T11:05:31.000Z","ept":0.005,"lat":57.163445000,"lon":-2.121370000,"altHAE":107.5000,"altMSL":59.3000,"alt":59.3000,"epx":10.256,"epy":11.488,"epv":41.400,"magvar":-1.6,"speed":0.000,"climb":0.000,"eps":22.98,"epc":82.80,"geoidSep":48.200,"eph":19.000,"sep":39.900}
$GPVTG,,T,,M,0.00,N,0.0,K,A*13
$GPGGA,110532.000,5709.8067,N,00207.2822,W,1,08,1.0,59.3,M,48.2,M,,0000*7F
{"class":"SKY","gdop":2.37,"hdop":1.00,"pdop":2.10,"tdop":1.18,"xdop":0.68,"ydop":0.77,"vdop":1.80,"uSat":8}
$GPGLL,5709.8067,N,00207.2822,W,110532.000,A,A*42
$GPGSA,A,3,23,04,20,31,32,17,13,24,,,,,2.1,1.0,1.8*3F
{"class":"SKY","gdop":2.37,"hdop":1.00,"pdop":2.10,"tdop":1.18,"xdop":0.68,"ydop":0.77,"vdop":1.80,"uSat":8}
$GPRMC,110532.000,A,5709.8067,N,00207.2822,W,0.00,,140311,,,A*6D
{"class":"TPV","mode":3,"time":"2030-10-28T11:05:32.000Z","ept":0.005,"lat":57.163445000,"lon":-2.121370000,"altHAE":107.5000,"altMSL":59.3000,"alt":59.3000,"epx":10.256,"epy":11.488,"epv":41.400,"magvar":-1.6,"speed":0.000,"climb":0.000,"eps":22.98,"epc":82.80,"geoidSep":48.200,"eph":19.000,"sep":39.900}
$GPVTG,,T,,M,0.00,N,0.0,K,A*13
$GPGGA,110533.000,5709.8067,N,00207.2822,W,1,08,1.0,59.3,M,48.2,M,,0000*7E
{"class":"SKY","gdop":2.37,"hdop":1.00,"pdop":2.10,"tdop":1.18,"xdop":0.68,"ydop":0.77,"vdop":1.80,"uSat":8}
$GPGLL,5709.8067,N,00207.2822,W,110533.000,A,A*43
$GPGSA,A,3,23,04,20,31,32,17,13,24,,,,,2.1,1.0,1.8*3F
{"class":"SKY","gdop":2.37,"hdop":1.00,"pdop":2.10,"tdop":1.18,"xdop":0.68,"ydop":0.77,"vdop":1.80,"uSat":8}
$GPRMC,110533.000,A,5709.8067,N,00207.2822,W,0.00,,140311,,,A*6C
{"class":"TPV","mode":3,"time":"2030-10-28T11:05:33.000Z","ept":0.005,"lat":57.163445000,"lon":-2.121370000,"altHAE":107.5000,"altMSL":59.3000,"alt":59.3000,"epx":10.256,"epy":11.488,"epv":41.400,"magvar":-1.6,"speed":0.000,"climb":0.000,"eps":22.98,"epc":82.80,"geoidSep":48.200,"eph":19.000,"sep":39.900}
$GPVTG,,T,,M,0.00,N,0.0,K,A*13
