$GPGGA,132820.60,4134.49821229,N,09345.03351845,W,2,09,1.0,278.020,M,-31.442,M,7.6,0133*7E
{"class":"TPV","status":2,"mode":3,"lat":41.574970205,"lon":-93.750558641,"altHAE":246.578,"altMSL":278.020,"alt":278.020,"magvar":0.7,"geoidSep":-31.442,"eph":4.750,"dgpsAge":7.6,"dgpsSta":133}
$GPRMC,132820.60,A,4134.49821229,N,09345.03351845,W,3.252,92.308,180320,11.5985,E,D*1A
{"class":"TPV","status":2,"mode":3,"time":"2020-03-18T13:28:20.600Z","ept":0.005,"lat":41.574970205,"lon":-93.750558641,"altHAE":246.578,"altMSL":278.020,"alt":278.020,"track":92.3080,"magtrack":103.9065,"magvar":11.6,"speed":1.673,"geoidSep":-31.442,"eph":4.750,"dgpsAge":7.6,"dgpsSta":133}
$GPGGA,132820.70,4134.49822493,N,09345.03347183,W,2,09,1.0,277.995,M,-31.442,M,7.6,0133*77
$GPRMC,132820.70,A,4134.49822493,N,09345.03347183,W,3.019,89.298,180320,11.5985,E,D*14
{"class":"TPV","status":2,"mode":3,"time":"2020-03-18T13:28:20.700Z","ept":0.005,"lat":41.574970416,"lon":-93.750557864,"altHAE":246.553,"altMSL":277.995,"alt":277.995,"track":89.2980,"magtrack":100.8965,"magvar":11.6,"speed":1.553,"climb":-0.250,"geoidSep":-31.442,"eph":4.750,"dgpsAge":7.6,"dgpsSta":133}
$GPGGA,132821.50,4134.49834733,N,09345.03335569,W,2,09,1.0,278.655,M,-31.442,M,8.4,0133*7E
$GPRMC,132821.50,A,4134.49834733,N,09345.03335569,W,0.963,69.197,180320,11.5985,E,D*19
{"class":"TPV","status":2,"mode":3,"time":"2020-03-18T13:28:21.500Z","ept":0.005,"lat":41.574972455,"lon":-93.750555928,"altHAE":247.213,"altMSL":278.655,"alt":278.655,"track":69.1970,"magtrack":80.7955,"magvar":11.6,"speed":0.495,"climb":0.825,"geoidSep":-31.442,"eph":4.750,"dgpsAge":8.4,"dgpsSta":133}
$GPGGA,132822.10,4134.49865454,N,09345.03316077,W,2,09,1.0,278.799,M,-31.442,M,9.0,0133*70
$GPRMC,132822.10,A,4134.49865454,N,09345.03316077,W,1.895,8.248,180320,11.5985,E,D*2C
{"class":"TPV","status":2,"mode":3,"time":"2020-03-18T13:28:22.100Z","ept":0.005,"lat":41.574977576,"lon":-93.750552680,"altHAE":247.357,"altMSL":278.799,"alt":278.799,"track":8.2480,"magtrack":19.8465,"magvar":11.6,"speed":0.975,"climb":0.240,"geoidSep":-31.442,"eph":4.750,"dgpsAge":9.0,"dgpsSta":133}
$GPGGA,132823.30,4134.49925615,N,09345.03415818,W,2,09,1.0,278.845,M,-31.442,M,10.2,0133*40
$GPRMC,132823.30,A,4134.49925615,N,09345.03415818,W,1.881,281.754,180320,11.5985,E,D*26
{"class":"TPV","status":2,"mode":3,"time":"2020-03-18T13:28:23.300Z","ept":0.005,"lat":41.574987602,"lon":-93.750569303,"altHAE":247.403,"altMSL":278.845,"alt":278.845,"track":281.7540,"magtrack":293.3525,"magvar":11.6,"speed":0.968,"climb":0.038,"geoidSep":-31.442,"eph":4.750,"dgpsAge":10.2,"dgpsSta":133}
$GPGGA,132826.20,4134.49953515,N,09345.03481479,W,2,09,1.0,280.213,M,-31.442,M,13.2,0133*4D
$GPRMC,132826.20,A,4134.49953515,N,09345.03481479,W,0.553,333.728,180320,11.5985,E,D*26
{"class":"TPV","status":2,"mode":3,"time":"2020-03-18T13:28:26.200Z","ept":0.005,"lat":41.574992253,"lon":-93.750580247,"altHAE":248.771,"altMSL":280.213,"alt":280.213,"track":333.7280,"magtrack":345.3265,"magvar":11.6,"speed":0.284,"climb":0.472,"geoidSep":-31.442,"eph":4.750,"dgpsAge":13.2,"dgpsSta":133}
$GNGGA,132827.20,4134.49941239,N,09345.03495785,W,2,10,0.9,280.340,M,-31.442,M,13.2,0133*5A
$GNRMC,132827.20,A,4134.49941239,N,09345.03495785,W,0.482,33.532,180320,11.5985,E,D*01
{"class":"TPV","status":2,"mode":3,"time":"2020-03-18T13:28:27.200Z","ept":0.005,"lat":41.574990207,"lon":-93.750582631,"altHAE":248.898,"altMSL":280.340,"alt":280.340,"track":33.5320,"magtrack":45.1305,"magvar":11.6,"speed":0.248,"climb":0.127,"geoidSep":-31.442,"eph":4.275,"dgpsAge":13.2,"dgpsSta":133}
$GNGGA,132827.60,4134.49945049,N,09345.03503394,W,2,10,0.9,280.181,M,-31.442,M,12.6,0133*5F
$GNRMC,132827.60,A,4134.49945049,N,09345.03503394,W,0.771,12.921,180320,11.5985,E,D*0C
{"class":"TPV","status":2,"mode":3,"time":"2020-03-18T13:28:27.600Z","ept":0.005,"lat":41.574990842,"lon":-93.750583899,"altHAE":248.739,"altMSL":280.181,"alt":280.181,"track":12.9210,"magtrack":24.5195,"magvar":11.6,"speed":0.397,"climb":-0.397,"geoidSep":-31.442,"eph":4.275,"dgpsAge":12.6,"dgpsSta":133}
$GNGGA,132827.80,4134.49946093,N,09345.03498927,W,2,10,0.9,280.136,M,-31.442,M,12.8,0133*56
$GNRMC,132827.80,A,4134.49946093,N,09345.03498927,W,0.903,26.807,180320,11.5985,E,D*0E
{"class":"TPV","status":2,"mode":3,"time":"2020-03-18T13:28:27.800Z","ept":0.005,"lat":41.574991016,"lon":-93.750583154,"altHAE":248.694,"altMSL":280.136,"alt":280.136,"track":26.8070,"magtrack":38.4055,"magvar":11.6,"speed":0.465,"climb":-0.225,"geoidSep":-31.442,"eph":4.275,"dgpsAge":12.8,"dgpsSta":133}
$GPGGA,132829.90,4134.49950965,N,09345.03456915,W,2,09,1.0,279.275,M,-31.442,M,14.8,0133*47
$GPRMC,132829.90,A,4134.49950965,N,09345.03456915,W,0.306,242.975,180320,11.5985,E,D*20
{"class":"TPV","status":2,"mode":3,"time":"2020-03-18T13:28:29.900Z","ept":0.005,"lat":41.574991827,"lon":-93.750576152,"altHAE":247.833,"altMSL":279.275,"alt":279.275,"track":242.9750,"magtrack":254.5735,"magvar":11.6,"speed":0.157,"climb":-0.410,"geoidSep":-31.442,"eph":4.750,"dgpsAge":14.8,"dgpsSta":133}
$GNGGA,133900.00,4134.50180323,N,09345.03586581,W,4,19,0.7,280.827,M,-31.442,M,6.0,0002*61
$GNRMC,133900.00,A,4134.50180323,N,09345.03586581,W,0.008,0.000,180320,11.5982,E,D*31
{"class":"TPV","status":3,"mode":3,"time":"2020-03-18T13:39:00.000Z","ept":0.005,"lat":41.575030054,"lon":-93.750597764,"altHAE":249.385,"altMSL":280.827,"alt":280.827,"track":0.0000,"magtrack":11.5982,"magvar":11.6,"speed":0.004,"climb":0.002,"geoidSep":-31.442,"eph":13.300,"dgpsAge":6.0,"dgpsSta":2}
$GNGGA,133900.10,4134.50180243,N,09345.03586611,W,4,19,0.7,280.828,M,-31.442,M,6.1,0002*63
$GNRMC,133900.10,A,4134.50180243,N,09345.03586611,W,0.005,0.000,180320,11.5982,E,D*30
{"class":"TPV","status":3,"mode":3,"time":"2020-03-18T13:39:00.100Z","ept":0.005,"lat":41.575030041,"lon":-93.750597769,"altHAE":249.386,"altMSL":280.828,"alt":280.828,"track":0.0000,"magtrack":11.5982,"magvar":11.6,"speed":0.003,"climb":0.010,"geoidSep":-31.442,"eph":13.300,"dgpsAge":6.1,"dgpsSta":2}
$GNGGA,133900.70,4134.50180273,N,09345.03586804,W,4,19,0.7,280.830,M,-31.442,M,6.7,0002*63
$GNRMC,133900.70,A,4134.50180273,N,09345.03586804,W,0.004,0.000,180320,11.5982,E,D*3E
{"class":"TPV","status":3,"mode":3,"time":"2020-03-18T13:39:00.700Z","ept":0.005,"lat":41.575030045,"lon":-93.750597801,"altHAE":249.388,"altMSL":280.830,"alt":280.830,"track":0.0000,"magtrack":11.5982,"magvar":11.6,"speed":0.002,"climb":0.003,"geoidSep":-31.442,"eph":13.300,"dgpsAge":6.7,"dgpsSta":2}
$GNGGA,133900.90,4134.50180291,N,09345.03586858,W,4,19,0.7,280.833,M,-31.442,M,6.9,0002*65
$GNRMC,133900.90,A,4134.50180291,N,09345.03586858,W,0.006,0.000,180320,11.5982,E,D*37
{"class":"TPV","status":3,"mode":3,"time":"2020-03-18T13:39:00.900Z","ept":0.005,"lat":41.575030049,"lon":-93.750597810,"altHAE":249.391,"altMSL":280.833,"alt":280.833,"track":0.0000,"magtrack":11.5982,"magvar":11.6,"speed":0.003,"climb":0.015,"geoidSep":-31.442,"eph":13.300,"dgpsAge":6.9,"dgpsSta":2}
