# Name: Trimble NMEA with RTK-4 fix.
# Chipset: Trimble
# Submitter: "pisymbol ." <pisymbol@gmail.com>
# Date: 18 March 2020
# Note: Part of the file is just 3D Fix.  Part is RTK fix.
#
# This file is Copyright 2020 by the GPSD project
# SPDX-License-Identifier: BSD-2-clause
#
$GNGGA,132819.60,4134.49795459,N,09345.03431408,W,2,10,0.9,278.161,M,-31.442,M,6.6,0133*6A
$GNRMC,132819.60,A,4134.49795459,N,09345.03431408,W,0.148,124.888,180320,11.5985,E,D*3F
$GNGGA,132819.70,4134.49795443,N,09345.03431421,W,2,10,0.9,278.161,M,-31.442,M,6.6,0133*6B
$GNRMC,132819.70,A,4134.49795443,N,09345.03431421,W,0.355,139.060,180320,11.5985,E,D*32
$GNGGA,132819.80,4134.49721169,N,09345.03452630,W,2,10,1.2,279.884,M,-31.442,M,6.8,0133*66
$GNRMC,132819.80,A,4134.49721169,N,09345.03452630,W,0.513,126.965,180320,11.5985,E,D*3E
$GNGGA,132819.90,4134.49792708,N,09345.03426671,W,2,10,1.2,278.214,M,-31.442,M,6.8,0133*6A
$GNRMC,132819.90,A,4134.49792708,N,09345.03426671,W,0.912,124.020,180320,11.5985,E,D*37
$GNGGA,132820.00,4134.49802199,N,09345.03419022,W,2,10,0.9,278.254,M,-31.442,M,7.0,0133*6A
$GNRMC,132820.00,A,4134.49802199,N,09345.03419022,W,1.114,127.194,180320,11.5985,E,D*32
$GNGGA,132820.10,4134.49800566,N,09345.03411940,W,2,09,0.9,278.255,M,-31.442,M,7.0,0133*61
$GNRMC,132820.10,A,4134.49800566,N,09345.03411940,W,1.447,118.806,180320,11.5985,E,D*3D
$GNGGA,132820.20,4134.49807884,N,09345.03400297,W,2,10,0.9,278.230,M,-31.442,M,7.2,0133*6C
$GNRMC,132820.20,A,4134.49807884,N,09345.03400297,W,1.870,113.057,180320,11.5985,E,D*36
$GNGGA,132820.30,4134.49808679,N,09345.03390744,W,2,10,0.9,278.188,M,-31.442,M,7.2,0133*6B
$GNRMC,132820.30,A,4134.49808679,N,09345.03390744,W,2.194,102.985,180320,11.5985,E,D*37
$GNGGA,132820.40,4134.49821522,N,09345.03375619,W,2,10,0.9,278.122,M,-31.442,M,7.4,0133*6E
$GNRMC,132820.40,A,4134.49821522,N,09345.03375619,W,2.627,91.414,180320,11.5985,E,D*05
$GNGGA,132820.50,4134.49819100,N,09345.03363938,W,2,10,0.9,278.071,M,-31.442,M,7.4,0133*6C
$GNRMC,132820.50,A,4134.49819100,N,09345.03363938,W,2.973,94.772,180320,11.5985,E,D*08
$GPGGA,132820.60,4134.49821229,N,09345.03351845,W,2,09,1.0,278.020,M,-31.442,M,7.6,0133*7E
$GPRMC,132820.60,A,4134.49821229,N,09345.03351845,W,3.252,92.308,180320,11.5985,E,D*1A
$GPGGA,132820.70,4134.49822493,N,09345.03347183,W,2,09,1.0,277.995,M,-31.442,M,7.6,0133*77
$GPRMC,132820.70,A,4134.49822493,N,09345.03347183,W,3.019,89.298,180320,11.5985,E,D*14
$GPGGA,132820.80,4134.49824549,N,09345.03341957,W,2,09,1.0,278.029,M,-31.442,M,7.8,0133*70
$GPRMC,132820.80,A,4134.49824549,N,09345.03341957,W,2.770,87.163,180320,11.5985,E,D*1C
$GPGGA,132820.90,4134.49825089,N,09345.03336021,W,2,09,1.0,278.001,M,-31.442,M,7.8,0133*7B
$GPRMC,132820.90,A,4134.49825089,N,09345.03336021,W,2.537,85.520,180320,11.5985,E,D*1D
$GPGGA,132821.00,4134.49827211,N,09345.03332539,W,2,09,1.0,278.067,M,-31.442,M,8.0,0133*7D
$GPRMC,132821.00,A,4134.49827211,N,09345.03332539,W,2.219,82.467,180320,11.5985,E,D*12
$GPGGA,132821.10,4134.49826795,N,09345.03326414,W,2,09,1.0,278.052,M,-31.442,M,8.0,0133*79
$GPRMC,132821.10,A,4134.49826795,N,09345.03326414,W,2.024,83.329,180320,11.5985,E,D*10
$GPGGA,132821.20,4134.49831528,N,09345.03346592,W,2,09,1.0,278.731,M,-31.442,M,8.2,0133*71
$GPRMC,132821.20,A,4134.49831528,N,09345.03346592,W,1.599,78.642,180320,11.5985,E,D*14
$GPGGA,132821.30,4134.49832406,N,09345.03344279,W,2,09,1.0,278.654,M,-31.442,M,8.2,0133*7C
$GPRMC,132821.30,A,4134.49832406,N,09345.03344279,W,1.246,71.152,180320,11.5985,E,D*11
$GPGGA,132821.40,4134.49834162,N,09345.03340036,W,2,09,1.0,278.674,M,-31.442,M,8.4,0133*73
$GPRMC,132821.40,A,4134.49834162,N,09345.03340036,W,1.007,67.429,180320,11.5985,E,D*13
$GPGGA,132821.50,4134.49834733,N,09345.03335569,W,2,09,1.0,278.655,M,-31.442,M,8.4,0133*7E
$GPRMC,132821.50,A,4134.49834733,N,09345.03335569,W,0.963,69.197,180320,11.5985,E,D*19
$GPGGA,132821.60,4134.49839895,N,09345.03329213,W,2,09,1.0,278.707,M,-31.442,M,8.6,0133*70
$GPRMC,132821.60,A,4134.49839895,N,09345.03329213,W,1.061,56.828,180320,11.5985,E,D*18
$GPGGA,132821.70,4134.49842231,N,09345.03323646,W,2,09,1.0,278.726,M,-31.442,M,8.6,0133*74
$GPRMC,132821.70,A,4134.49842231,N,09345.03323646,W,1.317,55.392,180320,11.5985,E,D*14
$GPGGA,132821.80,4134.49847906,N,09345.03318196,W,2,09,1.0,278.773,M,-31.442,M,8.8,0133*7D
$GPRMC,132821.80,A,4134.49847906,N,09345.03318196,W,1.522,49.139,180320,11.5985,E,D*1D
$GPGGA,132821.90,4134.49853139,N,09345.03316002,W,2,09,1.0,278.795,M,-31.442,M,8.8,0133*77
$GPRMC,132821.90,A,4134.49853139,N,09345.03316002,W,1.536,33.505,180320,11.5985,E,D*1C
$GPGGA,132822.00,4134.49859940,N,09345.03315370,W,2,09,1.0,278.804,M,-31.442,M,9.0,0133*7A
$GPRMC,132822.00,A,4134.49859940,N,09345.03315370,W,1.835,22.670,180320,11.5985,E,D*10
$GPGGA,132822.10,4134.49865454,N,09345.03316077,W,2,09,1.0,278.799,M,-31.442,M,9.0,0133*70
$GPRMC,132822.10,A,4134.49865454,N,09345.03316077,W,1.895,8.248,180320,11.5985,E,D*2C
$GPGGA,132822.20,4134.49871369,N,09345.03320118,W,2,09,1.0,278.780,M,-31.442,M,9.2,0133*78
$GPRMC,132822.20,A,4134.49871369,N,09345.03320118,W,1.923,348.511,180320,11.5985,E,D*2E
$GPGGA,132822.30,4134.49875778,N,09345.03324099,W,2,09,1.0,278.838,M,-31.442,M,9.2,0133*79
$GPRMC,132822.30,A,4134.49875778,N,09345.03324099,W,2.030,335.429,180320,11.5985,E,D*2B
$GPGGA,132822.40,4134.49882154,N,09345.03335769,W,2,09,1.0,278.796,M,-31.442,M,9.4,0133*7B
$GPRMC,132822.40,A,4134.49882154,N,09345.03335769,W,2.173,319.642,180320,11.5985,E,D*23
$GPGGA,132822.50,4134.49886748,N,09345.03342546,W,2,09,1.0,278.764,M,-31.442,M,9.4,0133*77
$GPRMC,132822.50,A,4134.49886748,N,09345.03342546,W,2.496,312.313,180320,11.5985,E,D*26
$GPGGA,132822.60,4134.49894531,N,09345.03356466,W,2,09,1.0,278.714,M,-31.442,M,9.6,0133*78
$GPRMC,132822.60,A,4134.49894531,N,09345.03356466,W,2.842,305.536,180320,11.5985,E,D*2E
$GPGGA,132822.70,4134.49897534,N,09345.03364993,W,2,09,1.0,278.688,M,-31.442,M,9.6,0133*7D
$GPRMC,132822.70,A,4134.49897534,N,09345.03364993,W,3.005,299.704,180320,11.5985,E,D*22
$GPGGA,132822.80,4134.49904170,N,09345.03383506,W,2,09,1.0,278.704,M,-31.442,M,9.8,0133*7F
$GPRMC,132822.80,A,4134.49904170,N,09345.03383506,W,3.191,292.968,180320,11.5985,E,D*28
$GPGGA,132822.90,4134.49906180,N,09345.03388960,W,2,09,1.0,278.768,M,-31.442,M,9.8,0133*7E
$GPRMC,132822.90,A,4134.49906180,N,09345.03388960,W,2.907,291.320,180320,11.5985,E,D*20
$GPGGA,132823.00,4134.49920267,N,09345.03400414,W,2,09,1.0,278.801,M,-31.442,M,10.0,0133*41
$GPRMC,132823.00,A,4134.49920267,N,09345.03400414,W,2.720,285.641,180320,11.5985,E,D*23
$GPGGA,132823.10,4134.49922024,N,09345.03404379,W,2,09,1.0,278.783,M,-31.442,M,10.0,0133*4A
$GPRMC,132823.10,A,4134.49922024,N,09345.03404379,W,2.342,284.986,180320,11.5985,E,D*28
$GPGGA,132823.20,4134.49924391,N,09345.03410458,W,2,09,1.0,278.849,M,-31.442,M,10.2,0133*48
$GPRMC,132823.20,A,4134.49924391,N,09345.03410458,W,2.034,283.252,180320,11.5985,E,D*26
$GPGGA,132823.30,4134.49925615,N,09345.03415818,W,2,09,1.0,278.845,M,-31.442,M,10.2,0133*40
$GPRMC,132823.30,A,4134.49925615,N,09345.03415818,W,1.881,281.754,180320,11.5985,E,D*26
$GPGGA,132823.40,4134.49928012,N,09345.03426889,W,2,09,1.0,279.220,M,-31.442,M,10.4,0133*4D
$GPRMC,132823.40,A,4134.49928012,N,09345.03426889,W,1.548,278.604,180320,11.5985,E,D*2F
$GPGGA,132823.50,4134.49927587,N,09345.03430045,W,2,09,1.0,279.217,M,-31.442,M,10.4,0133*41
$GPRMC,132823.50,A,4134.49927587,N,09345.03430045,W,1.295,271.868,180320,11.5985,E,D*2D
$GPGGA,132823.60,4134.49930359,N,09345.03454078,W,2,09,1.0,279.623,M,-31.442,M,10.6,0133*4C
$GPRMC,132823.60,A,4134.49930359,N,09345.03454078,W,1.209,267.313,180320,11.5985,E,D*24
$GPGGA,132823.70,4134.49931702,N,09345.03457314,W,2,09,1.0,279.593,M,-31.442,M,10.6,0133*44
$GPRMC,132823.70,A,4134.49931702,N,09345.03457314,W,1.038,269.505,180320,11.5985,E,D*2B
$GPGGA,132823.80,4134.49953075,N,09345.03474716,W,2,09,1.0,279.760,M,-31.442,M,10.8,0133*4F
$GPRMC,132823.80,A,4134.49953075,N,09345.03474716,W,1.014,263.344,180320,11.5985,E,D*27
$GPGGA,132823.90,4134.49953034,N,09345.03478201,W,2,08,1.0,279.749,M,-31.442,M,10.8,0133*4E
$GPRMC,132823.90,A,4134.49953034,N,09345.03478201,W,0.939,259.928,180320,11.5985,E,D*22
$GPGGA,132824.00,4134.49952762,N,09345.03474124,W,2,09,1.0,279.812,M,-31.442,M,11.0,0133*44
$GPRMC,132824.00,A,4134.49952762,N,09345.03474124,W,0.809,257.044,180320,11.5985,E,D*2E
$GPGGA,132824.10,4134.49953703,N,09345.03475715,W,2,09,1.0,279.824,M,-31.442,M,11.0,0133*43
$GPRMC,132824.10,A,4134.49953703,N,09345.03475715,W,0.645,258.767,180320,11.5985,E,D*23
$GPGGA,132824.20,4134.49952557,N,09345.03472913,W,2,09,1.0,279.797,M,-31.442,M,11.2,0133*48
$GPRMC,132824.20,A,4134.49952557,N,09345.03472913,W,0.535,246.376,180320,11.5985,E,D*22
$GPGGA,132824.30,4134.49953441,N,09345.03472114,W,2,08,1.0,279.798,M,-31.442,M,11.2,0133*4F
$GPRMC,132824.30,A,4134.49953441,N,09345.03472114,W,0.277,229.577,180320,11.5985,E,D*24
$GPGGA,132824.40,4134.49953629,N,09345.03469536,W,2,09,1.0,279.764,M,-31.442,M,11.4,0133*4E
$GPRMC,132824.40,A,4134.49953629,N,09345.03469536,W,0.166,175.679,180320,11.5985,E,D*25
$GPGGA,132824.50,4134.49953694,N,09345.03469328,W,2,09,1.0,279.767,M,-31.442,M,11.4,0133*43
$GPRMC,132824.50,A,4134.49953694,N,09345.03469328,W,0.194,140.563,180320,11.5985,E,D*28
$GPGGA,132824.60,4134.49954023,N,09345.03468876,W,2,09,1.0,279.783,M,-31.442,M,11.6,0133*44
$GPRMC,132824.60,A,4134.49954023,N,09345.03468876,W,0.288,118.479,180320,11.5985,E,D*2E
$GPGGA,132824.70,4134.49953903,N,09345.03468533,W,2,09,1.0,279.758,M,-31.442,M,11.6,0133*43
$GPRMC,132824.70,A,4134.49953903,N,09345.03468533,W,0.312,111.977,180320,11.5985,E,D*27
$GPGGA,132824.80,4134.49955325,N,09345.03468026,W,2,09,1.0,279.884,M,-31.442,M,11.8,0133*45
$GPRMC,132824.80,A,4134.49955325,N,09345.03468026,W,0.332,119.235,180320,11.5985,E,D*26
$GPGGA,132824.90,4134.49956033,N,09345.03467383,W,2,09,1.0,279.864,M,-31.442,M,11.8,0133*4E
$GPRMC,132824.90,A,4134.49956033,N,09345.03467383,W,0.311,102.699,180320,11.5985,E,D*2A
$GPGGA,132825.00,4134.49964143,N,09345.03455996,W,2,09,1.0,280.037,M,-31.442,M,12.0,0133*4D
$GPRMC,132825.00,A,4134.49964143,N,09345.03455996,W,0.347,81.295,180320,11.5985,E,D*1B
$GPGGA,132825.10,4134.49963015,N,09345.03456808,W,2,09,1.0,279.994,M,-31.442,M,12.0,0133*4A
$GPRMC,132825.10,A,4134.49963015,N,09345.03456808,W,0.198,97.264,180320,11.5985,E,D*13
$GPGGA,132825.20,4134.49961531,N,09345.03456353,W,2,09,1.0,280.128,M,-31.442,M,12.2,0133*46
$GPRMC,132825.20,A,4134.49961531,N,09345.03456353,W,0.165,93.004,180320,11.5985,E,D*16
$GPGGA,132825.30,4134.49962874,N,09345.03456550,W,2,09,1.0,280.155,M,-31.442,M,12.2,0133*47
$GPRMC,132825.30,A,4134.49962874,N,09345.03456550,W,0.130,55.158,180320,11.5985,E,D*1F
$GPGGA,132825.40,4134.49960246,N,09345.03458432,W,2,09,1.0,280.221,M,-31.442,M,12.4,0133*44
$GPRMC,132825.40,A,4134.49960246,N,09345.03458432,W,0.024,34.104,180320,11.5985,E,D*10
$GPGGA,132825.50,4134.49961906,N,09345.03458596,W,2,09,1.0,280.184,M,-31.442,M,12.4,0133*48
$GPRMC,132825.50,A,4134.49961906,N,09345.03458596,W,0.172,355.799,180320,11.5985,E,D*24
$GPGGA,132825.60,4134.49959836,N,09345.03463672,W,2,09,1.0,280.232,M,-31.442,M,12.6,0133*4F
$GPRMC,132825.60,A,4134.49959836,N,09345.03463672,W,0.317,342.161,180320,11.5985,E,D*29
$GPGGA,132825.70,4134.49961288,N,09345.03463591,W,2,09,1.0,280.199,M,-31.442,M,12.6,0133*46
$GPRMC,132825.70,A,4134.49961288,N,09345.03463591,W,0.456,349.091,180320,11.5985,E,D*25
$GPGGA,132825.80,4134.49958386,N,09345.03470321,W,2,09,1.0,280.217,M,-31.442,M,12.8,0133*48
$GPRMC,132825.80,A,4134.49958386,N,09345.03470321,W,0.596,356.395,180320,11.5985,E,D*24
$GPGGA,132825.90,4134.49958913,N,09345.03470616,W,2,09,1.0,280.189,M,-31.442,M,12.8,0133*4A
$GPRMC,132825.90,A,4134.49958913,N,09345.03470616,W,0.561,352.442,180320,11.5985,E,D*23
$GPGGA,132826.00,4134.49955849,N,09345.03472871,W,2,09,1.0,280.222,M,-31.442,M,13.0,0133*45
$GPRMC,132826.00,A,4134.49955849,N,09345.03472871,W,0.576,349.897,180320,11.5985,E,D*2F
$GPGGA,132826.10,4134.49957324,N,09345.03474068,W,2,09,1.0,280.225,M,-31.442,M,13.0,0133*47
$GPRMC,132826.10,A,4134.49957324,N,09345.03474068,W,0.605,341.523,180320,11.5985,E,D*27
$GPGGA,132826.20,4134.49953515,N,09345.03481479,W,2,09,1.0,280.213,M,-31.442,M,13.2,0133*4D
$GPRMC,132826.20,A,4134.49953515,N,09345.03481479,W,0.553,333.728,180320,11.5985,E,D*26
$GPGGA,132826.30,4134.49954287,N,09345.03481928,W,2,09,1.0,280.186,M,-31.442,M,13.2,0133*41
$GPRMC,132826.30,A,4134.49954287,N,09345.03481928,W,0.511,334.110,180320,11.5985,E,D*29
$GNGGA,132826.40,4134.49947849,N,09345.03487106,W,2,10,0.9,280.213,M,-31.442,M,13.4,0133*59
$GNRMC,132826.40,A,4134.49947849,N,09345.03487106,W,0.458,324.905,180320,11.5985,E,D*39
$GNGGA,132826.50,4134.49949019,N,09345.03488202,W,2,10,0.9,280.186,M,-31.442,M,13.4,0133*5C
$GNRMC,132826.50,A,4134.49949019,N,09345.03488202,W,0.500,322.601,180320,11.5985,E,D*32
$GNGGA,132826.60,4134.49943898,N,09345.03492847,W,2,10,0.9,280.200,M,-31.442,M,12.6,0133*5A
$GNRMC,132826.60,A,4134.49943898,N,09345.03492847,W,0.484,324.257,180320,11.5985,E,D*36
$GNGGA,132826.70,4134.49944797,N,09345.03493266,W,2,09,0.9,280.204,M,-31.442,M,12.6,0133*58
$GNRMC,132826.70,A,4134.49944797,N,09345.03493266,W,0.446,328.543,180320,11.5985,E,D*38
$GNGGA,132826.80,4134.49941770,N,09345.03496077,W,2,10,0.9,280.253,M,-31.442,M,12.8,0133*58
$GNRMC,132826.80,A,4134.49941770,N,09345.03496077,W,0.413,336.448,180320,11.5985,E,D*39
$GNGGA,132826.90,4134.49942794,N,09345.03495286,W,2,10,0.9,280.231,M,-31.442,M,12.8,0133*5B
$GNRMC,132826.90,A,4134.49942794,N,09345.03495286,W,0.389,355.681,180320,11.5985,E,D*38
$GNGGA,132827.00,4134.49941381,N,09345.03496613,W,2,10,0.9,280.299,M,-31.442,M,13.0,0133*50
$GNRMC,132827.00,A,4134.49941381,N,09345.03496613,W,0.379,15.324,180320,11.5985,E,D*0A
$GNGGA,132827.10,4134.49942386,N,09345.03495638,W,2,10,0.9,280.316,M,-31.442,M,13.0,0133*59
$GNRMC,132827.10,A,4134.49942386,N,09345.03495638,W,0.415,24.804,180320,11.5985,E,D*03
$GNGGA,132827.20,4134.49941239,N,09345.03495785,W,2,10,0.9,280.340,M,-31.442,M,13.2,0133*5A
$GNRMC,132827.20,A,4134.49941239,N,09345.03495785,W,0.482,33.532,180320,11.5985,E,D*01
$GNGGA,132827.30,4134.49943065,N,09345.03495577,W,2,10,0.9,280.331,M,-31.442,M,13.2,0133*5B
$GNRMC,132827.30,A,4134.49943065,N,09345.03495577,W,0.521,28.676,180320,11.5985,E,D*07
$GNGGA,132827.40,4134.49944348,N,09345.03498169,W,2,10,0.9,280.332,M,-31.442,M,13.4,0133*54
$GNRMC,132827.40,A,4134.49944348,N,09345.03498169,W,0.611,14.047,180320,11.5985,E,D*06
$GNGGA,132827.50,4134.49946050,N,09345.03497071,W,2,10,0.9,280.300,M,-31.442,M,13.4,0133*5B
$GNRMC,132827.50,A,4134.49946050,N,09345.03497071,W,0.662,20.632,180320,11.5985,E,D*0F
$GNGGA,132827.60,4134.49945049,N,09345.03503394,W,2,10,0.9,280.181,M,-31.442,M,12.6,0133*5F
$GNRMC,132827.60,A,4134.49945049,N,09345.03503394,W,0.771,12.921,180320,11.5985,E,D*0C
$GNGGA,132827.70,4134.49947054,N,09345.03501709,W,2,10,0.9,280.150,M,-31.442,M,12.6,0133*5E
$GNRMC,132827.70,A,4134.49947054,N,09345.03501709,W,0.829,20.080,180320,11.5985,E,D*00
$GNGGA,132827.80,4134.49946093,N,09345.03498927,W,2,10,0.9,280.136,M,-31.442,M,12.8,0133*56
$GNRMC,132827.80,A,4134.49946093,N,09345.03498927,W,0.903,26.807,180320,11.5985,E,D*0E
$GNGGA,132827.90,4134.49944988,N,09345.03497674,W,2,10,0.9,280.127,M,-31.442,M,12.8,0133*50
$GNRMC,132827.90,A,4134.49944988,N,09345.03497674,W,0.695,36.581,180320,11.5985,E,D*0A
$GNGGA,132828.00,4134.49942945,N,09345.03491876,W,2,10,0.9,280.108,M,-31.442,M,13.0,0133*5F
$GNRMC,132828.00,A,4134.49942945,N,09345.03491876,W,0.853,55.562,180320,11.5985,E,D*0D
$GNGGA,132828.10,4134.49944306,N,09345.03487885,W,2,10,0.9,280.086,M,-31.442,M,13.0,0133*59
$GNRMC,132828.10,A,4134.49944306,N,09345.03487885,W,0.989,60.029,180320,11.5985,E,D*06
$GNGGA,132828.20,4134.49942457,N,09345.03483124,W,2,10,0.9,280.068,M,-31.442,M,13.2,0133*5B
$GNRMC,132828.20,A,4134.49942457,N,09345.03483124,W,1.090,67.354,180320,11.5985,E,D*08
$GNGGA,132828.30,4134.49942411,N,09345.03479417,W,2,10,0.9,280.004,M,-31.442,M,13.2,0133*52
$GNRMC,132828.30,A,4134.49942411,N,09345.03479417,W,1.092,73.148,180320,11.5985,E,D*03
$GNGGA,132828.40,4134.49940185,N,09345.03475213,W,2,10,0.9,279.969,M,-31.442,M,13.4,0133*53
$GNRMC,132828.40,A,4134.49940185,N,09345.03475213,W,1.127,78.922,180320,11.5985,E,D*00
$GNGGA,132828.50,4134.49941168,N,09345.03473837,W,2,10,0.9,279.903,M,-31.442,M,13.4,0133*56
$GNRMC,132828.50,A,4134.49941168,N,09345.03473837,W,0.985,75.709,180320,11.5985,E,D*02
$GPGGA,132828.60,4134.49941735,N,09345.03468530,W,2,09,1.0,279.805,M,-31.442,M,13.6,0133*40
$GPRMC,132828.60,A,4134.49941735,N,09345.03468530,W,0.979,76.348,180320,11.5985,E,D*10
$GPGGA,132828.70,4134.49941785,N,09345.03469506,W,2,09,1.0,279.798,M,-31.442,M,13.6,0133*45
$GPRMC,132828.70,A,4134.49941785,N,09345.03469506,W,0.713,71.579,180320,11.5985,E,D*1F
$GPGGA,132828.80,4134.49939256,N,09345.03473054,W,2,09,1.0,279.703,M,-31.442,M,13.8,0133*4B
$GPRMC,132828.80,A,4134.49939256,N,09345.03473054,W,0.150,66.847,180320,11.5985,E,D*1A
$GPGGA,132828.90,4134.49939963,N,09345.03473422,W,2,08,1.0,279.673,M,-31.442,M,13.8,0133*45
$GPRMC,132828.90,A,4134.49939963,N,09345.03473422,W,0.091,7.370,180320,11.5985,E,D*27
$GPGGA,132829.00,4134.49937074,N,09345.03476188,W,2,09,1.0,279.625,M,-31.442,M,14.0,0133*41
$GPRMC,132829.00,A,4134.49937074,N,09345.03476188,W,0.310,259.245,180320,11.5985,E,D*2A
$GPGGA,132829.10,4134.49937224,N,09345.03476727,W,2,09,1.0,279.597,M,-31.442,M,14.0,0133*4E
$GPRMC,132829.10,A,4134.49937224,N,09345.03476727,W,0.364,259.597,180320,11.5985,E,D*24
$GPGGA,132829.20,4134.49937241,N,09345.03475352,W,2,09,1.0,279.592,M,-31.442,M,14.2,0133*4C
$GPRMC,132829.20,A,4134.49937241,N,09345.03475352,W,0.329,263.192,180320,11.5985,E,D*20
$GPGGA,132829.30,4134.49937028,N,09345.03477333,W,2,09,1.0,279.525,M,-31.442,M,14.2,0133*49
$GPRMC,132829.30,A,4134.49937028,N,09345.03477333,W,0.435,257.154,180320,11.5985,E,D*2E
$GPGGA,132829.40,4134.49942735,N,09345.03470756,W,2,09,1.0,279.493,M,-31.442,M,14.4,0133*4D
$GPRMC,132829.40,A,4134.49942735,N,09345.03470756,W,0.479,256.897,180320,11.5985,E,D*2F
$GPGGA,132829.50,4134.49943427,N,09345.03471554,W,2,09,1.0,279.477,M,-31.442,M,14.4,0133*46
$GPRMC,132829.50,A,4134.49943427,N,09345.03471554,W,0.440,262.667,180320,11.5985,E,D*22
$GPGGA,132829.60,4134.49947323,N,09345.03463826,W,2,09,1.0,279.411,M,-31.442,M,14.6,0133*4B
$GPRMC,132829.60,A,4134.49947323,N,09345.03463826,W,0.403,249.431,180320,11.5985,E,D*22
$GPGGA,132829.70,4134.49947246,N,09345.03464241,W,2,09,1.0,279.376,M,-31.442,M,14.6,0133*42
$GPRMC,132829.70,A,4134.49947246,N,09345.03464241,W,0.380,250.032,180320,11.5985,E,D*2E
$GPGGA,132829.80,4134.49952744,N,09345.03457139,W,2,09,1.0,279.314,M,-31.442,M,14.8,0133*48
$GPRMC,132829.80,A,4134.49952744,N,09345.03457139,W,0.297,263.123,180320,11.5985,E,D*28
$GPGGA,132829.90,4134.49950965,N,09345.03456915,W,2,09,1.0,279.275,M,-31.442,M,14.8,0133*47
$GPRMC,132829.90,A,4134.49950965,N,09345.03456915,W,0.306,242.975,180320,11.5985,E,D*20
$GNGGA,133859.80,4134.50180205,N,09345.03586649,W,4,19,0.7,280.827,M,-31.442,M,5.8,0002*6D
$GNRMC,133859.80,A,4134.50180205,N,09345.03586649,W,0.008,0.000,180320,11.5982,E,D*36
$GNGGA,133859.90,4134.50180209,N,09345.03586633,W,4,19,0.7,280.828,M,-31.442,M,5.9,0002*63
$GNRMC,133859.90,A,4134.50180209,N,09345.03586633,W,0.005,0.000,180320,11.5982,E,D*3B
$GNGGA,133900.00,4134.50180323,N,09345.03586581,W,4,19,0.7,280.827,M,-31.442,M,6.0,0002*61
$GNRMC,133900.00,A,4134.50180323,N,09345.03586581,W,0.008,0.000,180320,11.5982,E,D*31
$GNGGA,133900.10,4134.50180243,N,09345.03586611,W,4,19,0.7,280.828,M,-31.442,M,6.1,0002*63
$GNRMC,133900.10,A,4134.50180243,N,09345.03586611,W,0.005,0.000,180320,11.5982,E,D*30
$GNGGA,133900.20,4134.50180214,N,09345.03586519,W,4,19,0.7,280.829,M,-31.442,M,6.2,0002*6B
$GNRMC,133900.20,A,4134.50180214,N,09345.03586519,W,0.002,0.000,180320,11.5982,E,D*3D
$GNGGA,133900.30,4134.50180342,N,09345.03586681,W,4,19,0.7,280.827,M,-31.442,M,6.3,0002*65
$GNRMC,133900.30,A,4134.50180342,N,09345.03586681,W,0.010,279.304,180320,11.5982,E,D*34
$GNGGA,133900.40,4134.50180236,N,09345.03586722,W,4,19,0.7,280.828,M,-31.442,M,6.4,0002*60
$GNRMC,133900.40,A,4134.50180236,N,09345.03586722,W,0.009,0.000,180320,11.5982,E,D*3A
$GNGGA,133900.50,4134.50180356,N,09345.03586757,W,4,19,0.7,280.828,M,-31.442,M,6.5,0002*65
$GNRMC,133900.50,A,4134.50180356,N,09345.03586757,W,0.017,298.911,180320,11.5982,E,D*3B
$GNGGA,133900.60,4134.50180294,N,09345.03586790,W,4,19,0.7,280.829,M,-31.442,M,6.6,0002*60
$GNRMC,133900.60,A,4134.50180294,N,09345.03586790,W,0.020,288.900,180320,11.5982,E,D*39
$GNGGA,133900.70,4134.50180273,N,09345.03586804,W,4,19,0.7,280.830,M,-31.442,M,6.7,0002*63
$GNRMC,133900.70,A,4134.50180273,N,09345.03586804,W,0.004,0.000,180320,11.5982,E,D*3E
$GNGGA,133900.80,4134.50180383,N,09345.03586776,W,4,19,0.7,280.826,M,-31.442,M,6.8,0002*60
$GNRMC,133900.80,A,4134.50180383,N,09345.03586776,W,0.007,0.000,180320,11.5982,E,D*36
$GNGGA,133900.90,4134.50180291,N,09345.03586858,W,4,19,0.7,280.833,M,-31.442,M,6.9,0002*65
$GNRMC,133900.90,A,4134.50180291,N,09345.03586858,W,0.006,0.000,180320,11.5982,E,D*37
$GNGGA,133901.00,4134.50180286,N,09345.03586742,W,4,19,0.7,280.830,M,-31.442,M,7.0,0002*64
$GNRMC,133901.00,A,4134.50180286,N,09345.03586742,W,0.007,0.000,180320,11.5982,E,D*3C
$GNGGA,133901.10,4134.50180401,N,09345.03586718,W,4,19,0.7,280.830,M,-31.442,M,7.1,0002*62
$GNRMC,133901.10,A,4134.50180401,N,09345.03586718,W,0.007,0.000,180320,11.5982,E,D*3B
$GNGGA,133901.20,4134.50180330,N,09345.03586755,W,4,19,0.7,280.829,M,-31.442,M,7.2,0002*66
$GNRMC,133901.20,A,4134.50180330,N,09345.03586755,W,0.003,0.000,180320,11.5982,E,D*30
$GNGGA,133901.30,4134.50180402,N,09345.03586654,W,4,19,0.7,280.828,M,-31.442,M,7.3,0002*61
$GNRMC,133901.30,A,4134.50180402,N,09345.03586654,W,0.012,273.566,180320,11.5982,E,D*34
$GNGGA,133901.40,4134.50180419,N,09345.03586868,W,4,19,0.7,280.833,M,-31.442,M,7.4,0002*60
$GNRMC,133901.40,A,4134.50180419,N,09345.03586868,W,0.013,271.217,180320,11.5982,E,D*3A
$GNGGA,133901.50,4134.50180366,N,09345.03586734,W,4,19,0.7,280.829,M,-31.442,M,7.5,0002*62
$GNRMC,133901.50,A,4134.50180366,N,09345.03586734,W,0.018,273.328,180320,11.5982,E,D*36
