$GPZDA,045000.00,25,08,2000,00,00*6A
$GPGGA,045000.00,5742.7698,N,01201.3554,E,1,04,,49.40,M,37.042,M,,*4D
$GPRMC,045000.00,A,5742.7698,N,01201.3554,E,0.3110,32.000,250800,3.9,E*5F
$GPGSA,A,3,9,7,21,27,,,,,,,,,,,*14
{"class":"TPV","mode":3,"time":"2000-08-25T04:50:00.000Z","leapseconds":18,"ept":0.005,"lat":57.712830556,"lon":12.022590278,"altHAE":86.4400,"altMSL":49.3981,"alt":49.3981,"track":32.0000,"magtrack":35.9470,"magvar":3.9,"speed":0.160,"geoidSep":37.042}
{"class":"SKY","time":"2000-08-25T04:50:00.000Z","nSat":4,"uSat":4,"satellites":[{"PRN":9,"ss":36.0,"used":true},{"PRN":7,"ss":56.0,"used":true},{"PRN":21,"ss":42.0,"used":true},{"PRN":27,"ss":48.0,"used":true}]}
$GPZDA,045001.00,25,08,2000,00,00*6B
$GPGGA,045001.00,5742.7699,N,01201.3554,E,1,04,,49.18,M,37.042,M,,*40
$GPRMC,045001.00,A,5742.7699,N,01201.3554,E,0.2916,0.000,250800,3.9,E*61
$GPGSA,A,3,9,7,21,27,,,,,,,,,,,*14
{"class":"TPV","mode":3,"time":"2000-08-25T04:50:01.000Z","leapseconds":18,"ept":0.005,"lat":57.712831944,"lon":12.022590278,"altHAE":86.2200,"altMSL":49.1781,"alt":49.1781,"track":0.0000,"magtrack":3.9470,"magvar":3.9,"speed":0.150,"climb":-0.220,"geoidSep":37.042}
{"class":"SKY","time":"2000-08-25T04:50:01.000Z","nSat":4,"uSat":4,"satellites":[{"PRN":9,"ss":38.0,"used":true},{"PRN":7,"ss":56.0,"used":true},{"PRN":21,"ss":42.0,"used":true},{"PRN":27,"ss":47.0,"used":true}]}
$GPZDA,045002.00,25,08,2000,00,00*68
$GPGGA,045002.00,5742.7700,N,01201.3555,E,1,04,2.54,49.47,M,37.042,M,,*54
$GPRMC,045002.00,A,5742.7700,N,01201.3555,E,0.2916,24.200,250800,3.9,E*56
$GPGSA,A,3,9,7,21,27,,,,,,,,,3.4,2.5,2.3*3B
$GPGBS,045002.00,24.097,29.606,53.020,,,,*75
$GPGSV,3,1,12,09,20,104,38,07,62,082,55,21,12,337,43,27,11,041,48*78
{"class":"TPV","mode":3,"time":"2000-08-25T04:50:02.000Z","leapseconds":18,"ept":0.005,"lat":57.712832778,"lon":12.022591944,"altHAE":86.5100,"altMSL":49.4681,"alt":49.4681,"epx":24.097,"epy":29.606,"epv":53.020,"track":24.2000,"magtrack":28.1470,"magvar":3.9,"speed":0.150,"climb":0.290,"geoidSep":37.042,"eph":48.353,"sep":65.241}
{"class":"SKY","time":"2000-08-25T04:50:02.000Z","xdop":1.61,"ydop":1.97,"vdop":2.31,"tdop":2.03,"hdop":2.54,"gdop":3.99,"pdop":3.43,"nSat":12,"uSat":4,"satellites":[{"PRN":9,"el":20.0,"az":104.0,"ss":38.0,"used":true},{"PRN":7,"el":62.0,"az":82.0,"ss":55.0,"used":true},{"PRN":21,"el":12.0,"az":337.0,"ss":43.0,"used":true},{"PRN":27,"el":11.0,"az":41.0,"ss":48.0,"used":true},{"PRN":2,"el":4.0,"az":227.0,"used":false},{"PRN":5,"el":60.0,"az":249.0,"used":false},{"PRN":8,"el":5.0,"az":70.0,"used":false},{"PRN":13,"el":33.0,"az":273.0,"used":false},{"PRN":15,"el":5.0,"az":283.0,"used":false},{"PRN":16,"el":3.0,"az":17.0,"used":false},{"PRN":18,"el":18.0,"az":324.0,"used":false},{"PRN":28,"el":10.0,"az":161.0,"used":false}]}
$GPZDA,045003.00,25,08,2000,00,00*69
$GPGGA,045003.00,5742.7700,N,01201.3556,E,1,04,2.54,49.47,M,37.042,M,,*56
$GPRMC,045003.00,A,5742.7700,N,01201.3556,E,0.2138,30.200,250800,3.9,E*55
$GPGSA,A,3,9,7,21,27,,,,,,,,,3.4,2.5,2.3*3B
$GPGBS,045003.00,24.097,29.606,53.020,,,,*74
$GPGSV,3,1,12,09,20,104,37,07,62,082,55,21,12,337,42,27,11,041,49*77
{"class":"TPV","mode":3,"time":"2000-08-25T04:50:03.001Z","leapseconds":18,"ept":0.005,"lat":57.712833889,"lon":12.022593333,"altHAE":86.5100,"altMSL":49.4681,"alt":49.4681,"epx":24.097,"epy":29.606,"epv":53.020,"track":30.2000,"magtrack":34.1470,"magvar":3.9,"speed":0.110,"climb":0.000,"eps":59.21,"epc":106.03,"geoidSep":37.042,"eph":48.353,"sep":65.241}
{"class":"SKY","time":"2000-08-25T04:50:03.001Z","xdop":1.61,"ydop":1.97,"vdop":2.31,"tdop":2.03,"hdop":2.54,"gdop":3.99,"pdop":3.43,"nSat":12,"uSat":4,"satellites":[{"PRN":9,"el":20.0,"az":104.0,"ss":37.0,"used":true},{"PRN":7,"el":62.0,"az":82.0,"ss":55.0,"used":true},{"PRN":21,"el":12.0,"az":337.0,"ss":42.0,"used":true},{"PRN":27,"el":11.0,"az":41.0,"ss":49.0,"used":true},{"PRN":2,"el":4.0,"az":227.0,"used":false},{"PRN":5,"el":60.0,"az":249.0,"used":false},{"PRN":8,"el":5.0,"az":70.0,"used":false},{"PRN":13,"el":33.0,"az":273.0,"used":false},{"PRN":15,"el":5.0,"az":283.0,"used":false},{"PRN":16,"el":3.0,"az":17.0,"used":false},{"PRN":18,"el":18.0,"az":324.0,"used":false},{"PRN":28,"el":10.0,"az":161.0,"used":false}]}
$GPZDA,045004.00,25,08,2000,00,00*6E
$GPGGA,045004.00,5742.7701,N,01201.3556,E,1,04,2.54,49.65,M,37.042,M,,*50
$GPRMC,045004.00,A,5742.7701,N,01201.3556,E,0.2527,344.400,250800,3.9,E*6F
$GPGSA,A,3,9,7,21,27,,,,,,,,,3.4,2.5,2.3*3B
$GPGBS,045004.00,24.097,29.606,53.020,,,,*73
$GPGSV,3,1,12,09,20,104,38,07,62,082,55,21,12,337,42,27,11,041,47*76
{"class":"TPV","mode":3,"time":"2000-08-25T04:50:04.001Z","leapseconds":18,"ept":0.005,"lat":57.712834722,"lon":12.022592778,"altHAE":86.6900,"altMSL":49.6481,"alt":49.6481,"epx":24.097,"epy":29.606,"epv":53.020,"track":344.4000,"magtrack":348.3470,"magvar":3.9,"speed":0.130,"climb":0.180,"eps":59.21,"epc":106.03,"geoidSep":37.042,"eph":48.353,"sep":65.241}
{"class":"SKY","time":"2000-08-25T04:50:04.001Z","xdop":1.61,"ydop":1.97,"vdop":2.31,"tdop":2.03,"hdop":2.54,"gdop":3.99,"pdop":3.43,"nSat":12,"uSat":4,"satellites":[{"PRN":9,"el":20.0,"az":104.0,"ss":38.0,"used":true},{"PRN":7,"el":62.0,"az":82.0,"ss":55.0,"used":true},{"PRN":21,"el":12.0,"az":337.0,"ss":42.0,"used":true},{"PRN":27,"el":11.0,"az":41.0,"ss":47.0,"used":true},{"PRN":2,"el":4.0,"az":227.0,"used":false},{"PRN":5,"el":60.0,"az":249.0,"used":false},{"PRN":8,"el":5.0,"az":70.0,"used":false},{"PRN":13,"el":33.0,"az":273.0,"used":false},{"PRN":15,"el":5.0,"az":283.0,"used":false},{"PRN":16,"el":3.0,"az":17.0,"used":false},{"PRN":18,"el":18.0,"az":324.0,"used":false},{"PRN":28,"el":10.0,"az":161.0,"used":false}]}
$GPZDA,045005.00,25,08,2000,00,00*6F
$GPGGA,045005.00,5742.7702,N,01201.3557,E,1,04,2.54,49.76,M,37.042,M,,*51
$GPRMC,045005.00,A,5742.7702,N,01201.3557,E,0.2916,29.900,250800,3.9,E*57
$GPGSA,A,3,9,7,21,27,,,,,,,,,3.4,2.5,2.3*3B
$GPGBS,045005.00,24.097,29.606,53.020,,,,*72
$GPGSV,3,1,12,09,20,104,38,07,62,082,55,21,12,337,40,27,11,041,48*7B
{"class":"TPV","mode":3,"time":"2000-08-25T04:50:05.001Z","leapseconds":18,"ept":0.005,"lat":57.712835833,"lon":12.022595000,"altHAE":86.8000,"altMSL":49.7581,"alt":49.7581,"epx":24.097,"epy":29.606,"epv":53.020,"track":29.9000,"magtrack":33.8470,"magvar":3.9,"speed":0.150,"climb":0.110,"eps":59.21,"epc":106.03,"geoidSep":37.042,"eph":48.353,"sep":65.241}
{"class":"SKY","time":"2000-08-25T04:50:05.001Z","xdop":1.61,"ydop":1.97,"vdop":2.31,"tdop":2.03,"hdop":2.54,"gdop":3.99,"pdop":3.43,"nSat":12,"uSat":4,"satellites":[{"PRN":9,"el":20.0,"az":104.0,"ss":38.0,"used":true},{"PRN":7,"el":62.0,"az":82.0,"ss":55.0,"used":true},{"PRN":21,"el":12.0,"az":337.0,"ss":40.0,"used":true},{"PRN":27,"el":11.0,"az":41.0,"ss":48.0,"used":true},{"PRN":2,"el":4.0,"az":227.0,"used":false},{"PRN":5,"el":60.0,"az":249.0,"used":false},{"PRN":8,"el":5.0,"az":70.0,"used":false},{"PRN":13,"el":33.0,"az":273.0,"used":false},{"PRN":15,"el":5.0,"az":283.0,"used":false},{"PRN":16,"el":3.0,"az":17.0,"used":false},{"PRN":18,"el":18.0,"az":324.0,"used":false},{"PRN":28,"el":10.0,"az":161.0,"used":false}]}
$GPZDA,045006.00,25,08,2000,00,00*6C
$GPGGA,045006.00,5742.7702,N,01201.3558,E,1,04,2.54,49.62,M,37.042,M,,*58
$GPRMC,045006.00,A,5742.7702,N,01201.3558,E,0.1749,38.100,250800,3.9,E*54
$GPGSA,A,3,9,7,21,27,,,,,,,,,3.4,2.5,2.3*3B
$GPGBS,045006.00,24.097,29.606,53.020,,,,*71
$GPGSV,3,1,12,09,20,104,38,07,62,082,53,21,12,337,42,27,11,041,48*7F
{"class":"TPV","mode":3,"time":"2000-08-25T04:50:06.001Z","leapseconds":18,"ept":0.005,"lat":57.712836389,"lon":12.022596111,"altHAE":86.6600,"altMSL":49.6181,"alt":49.6181,"epx":24.097,"epy":29.606,"epv":53.020,"track":38.1000,"magtrack":42.0470,"magvar":3.9,"speed":0.090,"climb":-0.140,"eps":59.21,"epc":106.03,"geoidSep":37.042,"eph":48.353,"sep":65.241}
{"class":"SKY","time":"2000-08-25T04:50:06.001Z","xdop":1.61,"ydop":1.97,"vdop":2.31,"tdop":2.03,"hdop":2.54,"gdop":3.99,"pdop":3.43,"nSat":12,"uSat":4,"satellites":[{"PRN":9,"el":20.0,"az":104.0,"ss":38.0,"used":true},{"PRN":7,"el":62.0,"az":82.0,"ss":53.0,"used":true},{"PRN":21,"el":12.0,"az":337.0,"ss":42.0,"used":true},{"PRN":27,"el":11.0,"az":41.0,"ss":48.0,"used":true},{"PRN":2,"el":4.0,"az":227.0,"used":false},{"PRN":5,"el":60.0,"az":249.0,"used":false},{"PRN":8,"el":5.0,"az":70.0,"used":false},{"PRN":13,"el":33.0,"az":273.0,"used":false},{"PRN":15,"el":5.0,"az":283.0,"used":false},{"PRN":16,"el":3.0,"az":17.0,"used":false},{"PRN":18,"el":18.0,"az":324.0,"used":false},{"PRN":28,"el":10.0,"az":161.0,"used":false}]}
$GPZDA,045007.00,25,08,2000,00,00*6D
$GPGGA,045007.00,5742.7702,N,01201.3557,E,1,04,2.54,49.53,M,37.042,M,,*54
$GPRMC,045007.00,A,5742.7702,N,01201.3557,E,0.1749,308.600,250800,3.9,E*6D
$GPGSA,A,3,9,7,21,27,,,,,,,,,3.4,2.5,2.3*3B
$GPGBS,045007.00,24.097,29.606,53.020,,,,*70
$GPGSV,3,1,12,09,20,104,38,07,62,082,55,21,12,337,43,27,11,041,51*70
{"class":"TPV","mode":3,"time":"2000-08-25T04:50:07.001Z","leapseconds":18,"ept":0.005,"lat":57.712836389,"lon":12.022595556,"altHAE":86.5700,"altMSL":49.5281,"alt":49.5281,"epx":24.097,"epy":29.606,"epv":53.020,"track":308.6000,"magtrack":312.5470,"magvar":3.9,"speed":0.090,"climb":-0.090,"eps":59.21,"epc":106.03,"geoidSep":37.042,"eph":48.353,"sep":65.241}
{"class":"SKY","time":"2000-08-25T04:50:07.001Z","xdop":1.61,"ydop":1.97,"vdop":2.31,"tdop":2.03,"hdop":2.54,"gdop":3.99,"pdop":3.43,"nSat":12,"uSat":4,"satellites":[{"PRN":9,"el":20.0,"az":104.0,"ss":38.0,"used":true},{"PRN":7,"el":62.0,"az":82.0,"ss":55.0,"used":true},{"PRN":21,"el":12.0,"az":337.0,"ss":43.0,"used":true},{"PRN":27,"el":11.0,"az":41.0,"ss":51.0,"used":true},{"PRN":2,"el":4.0,"az":227.0,"used":false},{"PRN":5,"el":60.0,"az":249.0,"used":false},{"PRN":8,"el":5.0,"az":70.0,"used":false},{"PRN":13,"el":33.0,"az":273.0,"used":false},{"PRN":15,"el":5.0,"az":283.0,"used":false},{"PRN":16,"el":3.0,"az":17.0,"used":false},{"PRN":18,"el":18.0,"az":324.0,"used":false},{"PRN":28,"el":10.0,"az":161.0,"used":false}]}
$GPZDA,045008.00,25,08,2000,00,00*62
$GPGGA,045008.00,5742.7702,N,01201.3559,E,1,04,2.54,49.72,M,37.042,M,,*56
$GPRMC,045008.00,A,5742.7702,N,01201.3559,E,0.1944,110.500,250800,3.9,E*67
$GPGSA,A,3,9,7,21,27,,,,,,,,,3.4,2.5,2.3*3B
$GPGBS,045008.00,24.097,29.606,53.020,,,,*7F
$GPGSV,3,1,12,09,20,104,37,07,62,082,55,21,12,337,42,27,11,041,48*76
{"class":"TPV","mode":3,"time":"2000-08-25T04:50:08.001Z","leapseconds":18,"ept":0.005,"lat":57.712836111,"lon":12.022597778,"altHAE":86.7600,"altMSL":49.7181,"alt":49.7181,"epx":24.097,"epy":29.606,"epv":53.020,"track":110.5000,"magtrack":114.4470,"magvar":3.9,"speed":0.100,"climb":0.190,"eps":59.21,"epc":106.03,"geoidSep":37.042,"eph":48.353,"sep":65.241}
{"class":"SKY","time":"2000-08-25T04:50:08.001Z","xdop":1.61,"ydop":1.97,"vdop":2.31,"tdop":2.03,"hdop":2.54,"gdop":3.99,"pdop":3.43,"nSat":12,"uSat":4,"satellites":[{"PRN":9,"el":20.0,"az":104.0,"ss":37.0,"used":true},{"PRN":7,"el":62.0,"az":82.0,"ss":55.0,"used":true},{"PRN":21,"el":12.0,"az":337.0,"ss":42.0,"used":true},{"PRN":27,"el":11.0,"az":41.0,"ss":48.0,"used":true},{"PRN":2,"el":4.0,"az":227.0,"used":false},{"PRN":5,"el":60.0,"az":249.0,"used":false},{"PRN":8,"el":5.0,"az":70.0,"used":false},{"PRN":13,"el":33.0,"az":273.0,"used":false},{"PRN":15,"el":5.0,"az":283.0,"used":false},{"PRN":16,"el":3.0,"az":17.0,"used":false},{"PRN":18,"el":18.0,"az":324.0,"used":false},{"PRN":28,"el":10.0,"az":161.0,"used":false}]}
$GPZDA,045009.00,25,08,2000,00,00*63
$GPGGA,045009.00,5742.7702,N,01201.3559,E,1,04,2.54,49.77,M,37.042,M,,*52
$GPRMC,045009.00,A,5742.7702,N,01201.3559,E,0.1361,19.600,250800,3.9,E*50
$GPGSA,A,3,9,7,21,27,,,,,,,,,3.4,2.5,2.3*3B
$GPGBS,045009.00,24.097,29.606,53.020,,,,*7E
$GPGSV,3,1,12,09,20,104,38,07,62,082,55,21,12,337,40,27,11,041,47*74
{"class":"TPV","mode":3,"time":"2000-08-25T04:50:09.001Z","leapseconds":18,"ept":0.005,"lat":57.712837222,"lon":12.022598056,"altHAE":86.8100,"altMSL":49.7681,"alt":49.7681,"epx":24.097,"epy":29.606,"epv":53.020,"track":19.6000,"magtrack":23.5470,"magvar":3.9,"speed":0.070,"climb":0.050,"eps":59.21,"epc":106.03,"geoidSep":37.042,"eph":48.353,"sep":65.241}
{"class":"SKY","time":"2000-08-25T04:50:09.001Z","xdop":1.61,"ydop":1.97,"vdop":2.31,"tdop":2.03,"hdop":2.54,"gdop":3.99,"pdop":3.43,"nSat":12,"uSat":4,"satellites":[{"PRN":9,"el":20.0,"az":104.0,"ss":38.0,"used":true},{"PRN":7,"el":62.0,"az":82.0,"ss":55.0,"used":true},{"PRN":21,"el":12.0,"az":337.0,"ss":40.0,"used":true},{"PRN":27,"el":11.0,"az":41.0,"ss":47.0,"used":true},{"PRN":2,"el":4.0,"az":227.0,"used":false},{"PRN":5,"el":60.0,"az":249.0,"used":false},{"PRN":8,"el":5.0,"az":70.0,"used":false},{"PRN":13,"el":33.0,"az":273.0,"used":false},{"PRN":15,"el":5.0,"az":283.0,"used":false},{"PRN":16,"el":3.0,"az":17.0,"used":false},{"PRN":18,"el":18.0,"az":324.0,"used":false},{"PRN":28,"el":10.0,"az":161.0,"used":false}]}
$GPZDA,045010.00,25,08,2000,00,00*6B
$GPGGA,045010.00,5742.7703,N,01201.3559,E,1,04,2.54,49.68,M,37.042,M,,*55
$GPRMC,045010.00,A,5742.7703,N,01201.3559,E,0.1944,28.800,250800,3.9,E*58
$GPGSA,A,3,9,7,21,27,,,,,,,,,3.4,2.5,2.3*3B
$GPGBS,045010.00,24.097,29.606,53.020,,,,*76
$GPGSV,3,1,12,09,20,104,38,07,62,082,54,21,12,337,40,27,11,041,49*7B
{"class":"TPV","mode":3,"time":"2000-08-25T04:50:10.001Z","leapseconds":18,"ept":0.005,"lat":57.712838333,"lon":12.022599167,"altHAE":86.7200,"altMSL":49.6781,"alt":49.6781,"epx":24.097,"epy":29.606,"epv":53.020,"track":28.8000,"magtrack":32.7470,"magvar":3.9,"speed":0.100,"climb":-0.090,"eps":59.21,"epc":106.03,"geoidSep":37.042,"eph":48.353,"sep":65.241}
{"class":"SKY","time":"2000-08-25T04:50:10.001Z","xdop":1.61,"ydop":1.97,"vdop":2.31,"tdop":2.03,"hdop":2.54,"gdop":3.99,"pdop":3.43,"nSat":12,"uSat":4,"satellites":[{"PRN":9,"el":20.0,"az":104.0,"ss":38.0,"used":true},{"PRN":7,"el":62.0,"az":82.0,"ss":54.0,"used":true},{"PRN":21,"el":12.0,"az":337.0,"ss":40.0,"used":true},{"PRN":27,"el":11.0,"az":41.0,"ss":49.0,"used":true},{"PRN":2,"el":4.0,"az":227.0,"used":false},{"PRN":5,"el":60.0,"az":249.0,"used":false},{"PRN":8,"el":5.0,"az":70.0,"used":false},{"PRN":13,"el":33.0,"az":273.0,"used":false},{"PRN":15,"el":5.0,"az":283.0,"used":false},{"PRN":16,"el":3.0,"az":18.0,"used":false},{"PRN":18,"el":18.0,"az":324.0,"used":false},{"PRN":28,"el":10.0,"az":161.0,"used":false}]}
$GPZDA,045011.00,25,08,2000,00,00*6A
$GPGGA,045011.00,5742.7704,N,01201.3560,E,1,04,2.54,49.97,M,37.042,M,,*59
$GPRMC,045011.00,A,5742.7704,N,01201.3560,E,0.3499,19.000,250800,3.9,E*51
$GPGSA,A,3,9,7,21,27,,,,,,,,,3.4,2.5,2.3*3B
$GPGBS,045011.00,24.097,29.606,53.020,,,,*77
$GPGSV,3,1,12,09,20,104,38,07,62,082,56,21,12,337,40,27,11,041,47*77
{"class":"TPV","mode":3,"time":"2000-08-25T04:50:11.000Z","leapseconds":18,"ept":0.005,"lat":57.712839444,"lon":12.022600000,"altHAE":87.0100,"altMSL":49.9681,"alt":49.9681,"epx":24.097,"epy":29.606,"epv":53.020,"track":19.0000,"magtrack":22.9470,"magvar":3.9,"speed":0.180,"climb":0.290,"eps":59.27,"epc":106.14,"geoidSep":37.042,"eph":48.353,"sep":65.241}
{"class":"SKY","time":"2000-08-25T04:50:11.000Z","xdop":1.61,"ydop":1.97,"vdop":2.31,"tdop":2.03,"hdop":2.54,"gdop":3.99,"pdop":3.43,"nSat":12,"uSat":4,"satellites":[{"PRN":9,"el":20.0,"az":104.0,"ss":38.0,"used":true},{"PRN":7,"el":62.0,"az":82.0,"ss":56.0,"used":true},{"PRN":21,"el":12.0,"az":337.0,"ss":40.0,"used":true},{"PRN":27,"el":11.0,"az":41.0,"ss":47.0,"used":true},{"PRN":2,"el":4.0,"az":227.0,"used":false},{"PRN":5,"el":60.0,"az":249.0,"used":false},{"PRN":8,"el":5.0,"az":70.0,"used":false},{"PRN":13,"el":33.0,"az":273.0,"used":false},{"PRN":15,"el":5.0,"az":283.0,"used":false},{"PRN":16,"el":3.0,"az":18.0,"used":false},{"PRN":18,"el":18.0,"az":324.0,"used":false},{"PRN":28,"el":10.0,"az":161.0,"used":false}]}
