$GPRMC,051250.00,V,,S,,W,,,250800,,*17
$GPGSA,A,1,7,13,30,,,,,,,,,,,,,*04
{"class":"TPV","mode":1,"time":"2000-08-25T05:12:50.000Z","leapseconds":18,"ept":0.005}
{"class":"SKY","time":"2000-08-25T05:12:50.000Z","nSat":3,"uSat":3,"satellites":[{"PRN":7,"ss":43.0,"used":true},{"PRN":13,"ss":37.0,"used":true},{"PRN":30,"ss":37.0,"used":true}]}
$GPZDA,051251.00,25,08,2000,00,00*69
$GPGGA,051251.00,5742.7698833,N,1201.3559333,E,7,03,,48.07,M,37.042,M,,*7B
$GPRMC,051251.00,A,5742.7698833,N,1201.3559333,E,0.0000,0.000,250800,3.9,E*58
$GPGSA,A,3,7,13,30,,,,,,,,,,,,*2A
{"class":"TPV","status":7,"mode":3,"time":"2000-08-25T05:12:51.001Z","leapseconds":18,"ept":0.005,"lat":57.712831389,"lon":12.022598889,"altHAE":85.1100,"altMSL":48.0681,"alt":48.0681,"track":0.0000,"magtrack":3.9470,"magvar":3.9,"speed":0.000,"geoidSep":37.042}
{"class":"SKY","time":"2000-08-25T05:12:51.001Z","nSat":3,"uSat":3,"satellites":[{"PRN":7,"ss":43.0,"used":true},{"PRN":13,"ss":37.0,"used":true},{"PRN":30,"ss":36.0,"used":true}]}
$GPZDA,051252.00,25,08,2000,00,00*6A
$GPGGA,051252.00,5742.7698833,N,1201.3559333,E,7,03,,48.07,M,37.042,M,,*78
$GPRMC,051252.00,A,5742.7698833,N,1201.3559333,E,0.0000,0.000,250800,3.9,E*5B
$GPGSA,A,3,7,13,30,,,,,,,,,,,,*2A
$GPGSV,3,1,11,07,53,074,43,13,43,276,37,30,76,152,37{"class":"TPV","status":7,"mode":3,"time":"2000-08-25T05:12:52.001Z","leapseconds":18,"ept":0.005,"lat":57.712831389,"lon":12.022598889,"altHAE":85.1100,"altMSL":48.0681,"alt":48.0681,"track":0.0000,"magtrack":3.9470,"magvar":3.9,"speed":0.000,"climb":0.000,"geoidSep":37.042}
{"class":"SKY","time":"2000-08-25T05:12:52.001Z","nSat":11,"uSat":3,"satellites":[{"PRN":7,"az":74.0,"el":53.0,"ss":43.0,"used":true},{"PRN":13,"az":276.0,"el":43.0,"ss":37.0,"used":true},{"PRN":30,"az":152.0,"el":76.0,"ss":37.0,"used":true},{"PRN":5,"az":229.0,"el":56.0,"used":false},{"PRN":8,"az":63.0,"el":11.0,"used":false},{"PRN":9,"az":108.0,"el":12.0,"used":false},{"PRN":15,"az":286.0,"el":14.0,"used":false},{"PRN":18,"az":314.0,"el":20.0,"used":false},{"PRN":21,"az":330.0,"el":15.0,"used":false},{"PRN":27,"az":31.0,"el":13.0,"used":false},{"PRN":28,"az":158.0,"el":20.0,"used":false}]}
$GPZDA,051253.00,25,08,2000,00,00*6B
$GPGGA,051253.00,5742.7698833,N,1201.3559333,E,7,03,,48.07,M,37.042,M,,*79
$GPRMC,051253.00,A,5742.7698833,N,1201.3559333,E,0.0000,0.000,250800,3.9,E*5A
$GPGSA,A,3,7,13,30,,,,,,,,,,,,*2A
$GPGSV,3,1,11,07,53,074,42,13,43,276,36,30,76,152,37{"class":"TPV","status":7,"mode":3,"time":"2000-08-25T05:12:53.001Z","leapseconds":18,"ept":0.005,"lat":57.712831389,"lon":12.022598889,"altHAE":85.1100,"altMSL":48.0681,"alt":48.0681,"track":0.0000,"magtrack":3.9470,"magvar":3.9,"speed":0.000,"climb":0.000,"geoidSep":37.042}
{"class":"SKY","time":"2000-08-25T05:12:53.001Z","nSat":11,"uSat":3,"satellites":[{"PRN":7,"az":74.0,"el":53.0,"ss":42.0,"used":true},{"PRN":13,"az":276.0,"el":43.0,"ss":36.0,"used":true},{"PRN":30,"az":152.0,"el":76.0,"ss":37.0,"used":true},{"PRN":5,"az":229.0,"el":56.0,"used":false},{"PRN":8,"az":63.0,"el":11.0,"used":false},{"PRN":9,"az":108.0,"el":12.0,"used":false},{"PRN":15,"az":286.0,"el":14.0,"used":false},{"PRN":18,"az":314.0,"el":20.0,"used":false},{"PRN":21,"az":330.0,"el":15.0,"used":false},{"PRN":27,"az":31.0,"el":13.0,"used":false},{"PRN":28,"az":158.0,"el":20.0,"used":false}]}
$GPZDA,051254.00,25,08,2000,00,00*6C
$GPGGA,051254.00,5742.7698833,N,1201.3559333,E,7,03,,48.07,M,37.042,M,,*7E
$GPRMC,051254.00,A,5742.7698833,N,1201.3559333,E,0.0000,0.000,250800,3.9,E*5D
$GPGSA,A,3,7,13,30,,,,,,,,,,,,*2A
$GPGSV,3,1,11,07,53,074,43,13,43,276,36,30,76,152,36{"class":"TPV","status":7,"mode":3,"time":"2000-08-25T05:12:54.001Z","leapseconds":18,"ept":0.005,"lat":57.712831389,"lon":12.022598889,"altHAE":85.1100,"altMSL":48.0681,"alt":48.0681,"track":0.0000,"magtrack":3.9470,"magvar":3.9,"speed":0.000,"climb":0.000,"geoidSep":37.042}
{"class":"SKY","time":"2000-08-25T05:12:54.001Z","nSat":11,"uSat":3,"satellites":[{"PRN":7,"az":74.0,"el":53.0,"ss":43.0,"used":true},{"PRN":13,"az":276.0,"el":43.0,"ss":36.0,"used":true},{"PRN":30,"az":152.0,"el":76.0,"ss":36.0,"used":true},{"PRN":5,"az":229.0,"el":56.0,"used":false},{"PRN":8,"az":63.0,"el":11.0,"used":false},{"PRN":9,"az":108.0,"el":12.0,"used":false},{"PRN":15,"az":286.0,"el":14.0,"used":false},{"PRN":18,"az":314.0,"el":20.0,"used":false},{"PRN":21,"az":330.0,"el":15.0,"used":false},{"PRN":27,"az":31.0,"el":13.0,"used":false},{"PRN":28,"az":158.0,"el":20.0,"used":false}]}
$GPZDA,051255.00,25,08,2000,00,00*6D
$GPGGA,051255.00,5742.7698833,N,1201.3559333,E,7,03,,48.07,M,37.042,M,,*7F
$GPRMC,051255.00,A,5742.7698833,N,1201.3559333,E,0.0000,0.000,250800,3.9,E*5C
$GPGSA,A,3,7,13,30,,,,,,,,,,,,*2A
$GPGSV,3,1,11,07,53,074,42,13,43,276,36,05,56,229,31,30,76,152,36*70
{"class":"TPV","status":7,"mode":3,"time":"2000-08-25T05:12:55.001Z","leapseconds":18,"ept":0.005,"lat":57.712831389,"lon":12.022598889,"altHAE":85.1100,"altMSL":48.0681,"alt":48.0681,"track":0.0000,"magtrack":3.9470,"magvar":3.9,"speed":0.000,"climb":0.000,"geoidSep":37.042}
{"class":"SKY","time":"2000-08-25T05:12:55.001Z","nSat":11,"uSat":3,"satellites":[{"PRN":7,"az":74.0,"el":53.0,"ss":42.0,"used":true},{"PRN":13,"az":276.0,"el":43.0,"ss":36.0,"used":true},{"PRN":5,"az":229.0,"el":56.0,"ss":31.0,"used":false},{"PRN":30,"az":152.0,"el":76.0,"ss":36.0,"used":true},{"PRN":8,"az":63.0,"el":11.0,"used":false},{"PRN":9,"az":108.0,"el":12.0,"used":false},{"PRN":15,"az":286.0,"el":14.0,"used":false},{"PRN":18,"az":314.0,"el":20.0,"used":false},{"PRN":21,"az":330.0,"el":15.0,"used":false},{"PRN":27,"az":31.0,"el":13.0,"used":false},{"PRN":28,"az":158.0,"el":20.0,"used":false}]}
$GPZDA,051256.00,25,08,2000,00,00*6E
$GPGGA,051256.00,5742.7698833,N,1201.3559333,E,7,03,,48.07,M,37.042,M,,*7C
$GPRMC,051256.00,A,5742.7698833,N,1201.3559333,E,0.0000,0.000,250800,3.9,E*5F
$GPGSA,A,3,7,13,30,,,,,,,,,,,,*2A
$GPGSV,3,1,11,07,53,074,42,13,43,276,38,05,56,229,38,30,76,152,37*76
{"class":"TPV","status":7,"mode":3,"time":"2000-08-25T05:12:56.001Z","leapseconds":18,"ept":0.005,"lat":57.712831389,"lon":12.022598889,"altHAE":85.1100,"altMSL":48.0681,"alt":48.0681,"track":0.0000,"magtrack":3.9470,"magvar":3.9,"speed":0.000,"climb":0.000,"geoidSep":37.042}
{"class":"SKY","time":"2000-08-25T05:12:56.001Z","nSat":11,"uSat":3,"satellites":[{"PRN":7,"az":74.0,"el":53.0,"ss":42.0,"used":true},{"PRN":13,"az":276.0,"el":43.0,"ss":38.0,"used":true},{"PRN":5,"az":229.0,"el":56.0,"ss":38.0,"used":false},{"PRN":30,"az":152.0,"el":76.0,"ss":37.0,"used":true},{"PRN":8,"az":63.0,"el":11.0,"used":false},{"PRN":9,"az":108.0,"el":12.0,"used":false},{"PRN":15,"az":286.0,"el":14.0,"used":false},{"PRN":18,"az":314.0,"el":20.0,"used":false},{"PRN":21,"az":330.0,"el":15.0,"used":false},{"PRN":27,"az":31.0,"el":13.0,"used":false},{"PRN":28,"az":158.0,"el":20.0,"used":false}]}
$GPZDA,051257.00,25,08,2000,00,00*6F
$GPGGA,051257.00,5742.7698833,N,1201.3559333,E,7,03,,48.07,M,37.042,M,,*7D
$GPRMC,051257.00,A,5742.7698833,N,1201.3559333,E,0.0000,0.000,250800,3.9,E*5E
$GPGSA,A,3,7,13,30,,,,,,,,,,,,*2A
$GPGSV,3,1,11,07,53,074,43,13,43,276,37,05,56,229,39,30,76,152,38*76
{"class":"TPV","status":7,"mode":3,"time":"2000-08-25T05:12:57.001Z","leapseconds":18,"ept":0.005,"lat":57.712831389,"lon":12.022598889,"altHAE":85.1100,"altMSL":48.0681,"alt":48.0681,"track":0.0000,"magtrack":3.9470,"magvar":3.9,"speed":0.000,"climb":0.000,"geoidSep":37.042}
{"class":"SKY","time":"2000-08-25T05:12:57.001Z","nSat":11,"uSat":3,"satellites":[{"PRN":7,"az":74.0,"el":53.0,"ss":43.0,"used":true},{"PRN":13,"az":276.0,"el":43.0,"ss":37.0,"used":true},{"PRN":5,"az":229.0,"el":56.0,"ss":39.0,"used":false},{"PRN":30,"az":152.0,"el":76.0,"ss":38.0,"used":true},{"PRN":8,"az":63.0,"el":11.0,"used":false},{"PRN":9,"az":108.0,"el":11.0,"used":false},{"PRN":15,"az":286.0,"el":14.0,"used":false},{"PRN":18,"az":314.0,"el":20.0,"used":false},{"PRN":21,"az":330.0,"el":15.0,"used":false},{"PRN":27,"az":31.0,"el":13.0,"used":false},{"PRN":28,"az":158.0,"el":20.0,"used":false}]}
$GPZDA,051258.00,25,08,2000,00,00*60
$GPGGA,051258.00,5742.7698833,N,1201.3559333,E,7,03,,48.07,M,37.042,M,,*72
$GPRMC,051258.00,A,5742.7698833,N,1201.3559333,E,0.0000,0.000,250800,3.9,E*51
$GPGSA,A,3,7,13,30,,,,,,,,,,,,*2A
$GPGSV,3,1,11,07,53,074,43,13,43,276,37,05,56,229,38,30,76,152,36*79
{"class":"TPV","status":7,"mode":3,"time":"2000-08-25T05:12:58.001Z","leapseconds":18,"ept":0.005,"lat":57.712831389,"lon":12.022598889,"altHAE":85.1100,"altMSL":48.0681,"alt":48.0681,"track":0.0000,"magtrack":3.9470,"magvar":3.9,"speed":0.000,"climb":0.000,"geoidSep":37.042}
{"class":"SKY","time":"2000-08-25T05:12:58.001Z","nSat":11,"uSat":3,"satellites":[{"PRN":7,"az":74.0,"el":53.0,"ss":43.0,"used":true},{"PRN":13,"az":276.0,"el":43.0,"ss":37.0,"used":true},{"PRN":5,"az":229.0,"el":56.0,"ss":38.0,"used":false},{"PRN":30,"az":152.0,"el":76.0,"ss":36.0,"used":true},{"PRN":8,"az":63.0,"el":11.0,"used":false},{"PRN":9,"az":108.0,"el":11.0,"used":false},{"PRN":15,"az":286.0,"el":14.0,"used":false},{"PRN":18,"az":314.0,"el":20.0,"used":false},{"PRN":21,"az":330.0,"el":15.0,"used":false},{"PRN":27,"az":31.0,"el":13.0,"used":false},{"PRN":28,"az":158.0,"el":20.0,"used":false}]}
$GPZDA,051259.00,25,08,2000,00,00*61
$GPGGA,051259.00,5742.7698833,N,1201.3559333,E,7,03,,48.07,M,37.042,M,,*73
$GPRMC,051259.00,A,5742.7698833,N,1201.3559333,E,0.0000,0.000,250800,3.9,E*50
$GPGSA,A,3,7,13,30,,,,,,,,,,,,*2A
$GPGSV,3,1,11,07,53,074,43,13,43,276,37,05,56,229,39,30,76,152,37*79
{"class":"TPV","status":7,"mode":3,"time":"2000-08-25T05:12:59.000Z","leapseconds":18,"ept":0.005,"lat":57.712831389,"lon":12.022598889,"altHAE":85.1100,"altMSL":48.0681,"alt":48.0681,"track":0.0000,"magtrack":3.9470,"magvar":3.9,"speed":0.000,"climb":0.000,"geoidSep":37.042}
{"class":"SKY","time":"2000-08-25T05:12:59.000Z","nSat":11,"uSat":3,"satellites":[{"PRN":7,"az":74.0,"el":53.0,"ss":43.0,"used":true},{"PRN":13,"az":276.0,"el":43.0,"ss":37.0,"used":true},{"PRN":5,"az":229.0,"el":56.0,"ss":39.0,"used":false},{"PRN":30,"az":152.0,"el":76.0,"ss":37.0,"used":true},{"PRN":8,"az":63.0,"el":11.0,"used":false},{"PRN":9,"az":108.0,"el":11.0,"used":false},{"PRN":15,"az":286.0,"el":14.0,"used":false},{"PRN":18,"az":314.0,"el":20.0,"used":false},{"PRN":21,"az":330.0,"el":15.0,"used":false},{"PRN":27,"az":31.0,"el":13.0,"used":false},{"PRN":28,"az":158.0,"el":20.0,"used":false}]}
$GPZDA,051300.00,25,08,2000,00,00*6C
$GPGGA,051300.00,5742.7698833,N,1201.3559333,E,7,03,,48.07,M,37.042,M,,*7E
$GPRMC,051300.00,A,5742.7698833,N,1201.3559333,E,0.0000,0.000,250800,3.9,E*5D
$GPGSA,A,3,7,13,30,,,,,,,,,,,,*2A
$GPGSV,3,1,11,07,53,074,42,13,43,276,37,05,56,229,39,30,76,152,39*76
{"class":"TPV","status":7,"mode":3,"time":"2000-08-25T05:13:00.000Z","leapseconds":18,"ept":0.005,"lat":57.712831389,"lon":12.022598889,"altHAE":85.1100,"altMSL":48.0681,"alt":48.0681,"track":0.0000,"magtrack":3.9470,"magvar":3.9,"speed":0.000,"climb":0.000,"geoidSep":37.042}
{"class":"SKY","time":"2000-08-25T05:13:00.000Z","nSat":11,"uSat":3,"satellites":[{"PRN":7,"az":74.0,"el":53.0,"ss":42.0,"used":true},{"PRN":13,"az":276.0,"el":43.0,"ss":37.0,"used":true},{"PRN":5,"az":229.0,"el":56.0,"ss":39.0,"used":false},{"PRN":30,"az":152.0,"el":76.0,"ss":39.0,"used":true},{"PRN":8,"az":63.0,"el":11.0,"used":false},{"PRN":9,"az":108.0,"el":11.0,"used":false},{"PRN":15,"az":286.0,"el":14.0,"used":false},{"PRN":18,"az":314.0,"el":20.0,"used":false},{"PRN":21,"az":330.0,"el":15.0,"used":false},{"PRN":27,"az":31.0,"el":13.0,"used":false},{"PRN":28,"az":158.0,"el":20.0,"used":false}]}
