$GPRMC,,V,,S,,W,,,,,*35
$GPGSA,A,1,14,23,24,17,13,15,22,,,,,,,,,*30
{"class":"TPV","mode":1}
{"class":"SKY","nSat":7,"uSat":7,"satellites":[{"PRN":14,"ss":49.0,"used":true},{"PRN":23,"ss":46.0,"used":true},{"PRN":24,"ss":47.0,"used":true},{"PRN":17,"ss":45.0,"used":true},{"PRN":13,"ss":50.0,"used":true},{"PRN":15,"ss":49.0,"used":true},{"PRN":22,"ss":49.0,"used":true}]}
$GPZDA,073330.00,21,01,2026,00,00*66
$GPGGA,073330.00,5254.6188167,N,00652.0024000,E,7,07,1.59,12.45,M,43.456,M,,*50
$GPRMC,073330.00,A,5254.6188167,N,0652.0024000,E,0.0000,0.000,210126,2.1,E*5F
$GPGSA,A,3,14,23,24,17,13,15,22,,,,,,3.1,1.6,2.7*30
$GPGBS,073330.00,9.506,21.898,60.982,,,,*40
$GPGSV,2,1,07,14,41,060,47,23,34,292,46,24,46,272,47,17,26,101,46*75
$GPGSV,2,2,07,13,55,138,51,15,69,213,48,22,55,073,49*4C
{"class":"TPV","status":7,"mode":3,"time":"2026-01-21T07:33:30.000Z","leapseconds":18,"ept":0.005,"lat":52.910313611,"lon":6.866706667,"altHAE":55.9100,"altMSL":12.4538,"alt":12.4538,"epx":9.506,"epy":21.898,"epv":60.982,"track":0.0000,"magtrack":2.0642,"magvar":2.1,"speed":0.000,"geoidSep":43.456,"eph":30.239,"sep":58.755}
{"class":"SKY","time":"2026-01-21T07:33:30.000Z","gdop":3.64,"hdop":1.59,"pdop":3.09,"tdop":1.93,"xdop":0.63,"ydop":1.46,"vdop":2.65,"nSat":7,"uSat":7,"satellites":[{"PRN":14,"az":60.0,"el":41.0,"ss":47.0,"used":true},{"PRN":23,"az":292.0,"el":34.0,"ss":46.0,"used":true},{"PRN":24,"az":272.0,"el":46.0,"ss":47.0,"used":true},{"PRN":17,"az":101.0,"el":26.0,"ss":46.0,"used":true},{"PRN":13,"az":138.0,"el":55.0,"ss":51.0,"used":true},{"PRN":15,"az":213.0,"el":69.0,"ss":48.0,"used":true},{"PRN":22,"az":73.0,"el":55.0,"ss":49.0,"used":true}]}
$GPZDA,073331.00,21,01,2026,00,00*67
$GPGGA,073331.00,5254.6188167,N,00652.0024000,E,7,07,1.59,12.45,M,43.456,M,,*51
$GPRMC,073331.00,A,5254.6188167,N,0652.0024000,E,0.0000,0.000,210126,2.1,E*5E
$GPGSA,A,3,14,23,24,17,13,15,22,,,,,,3.1,1.6,2.7*30
$GPGBS,073331.00,9.506,21.898,60.982,,,,*41
$GPGSV,2,1,07,14,41,060,47,23,34,292,46,24,46,272,47,17,26,101,46*75
$GPGSV,2,2,07,13,55,138,50,15,69,213,46,22,55,073,50*4B
{"class":"TPV","status":7,"mode":3,"time":"2026-01-21T07:33:31.000Z","leapseconds":18,"ept":0.005,"lat":52.910313611,"lon":6.866706667,"altHAE":55.9100,"altMSL":12.4538,"alt":12.4538,"epx":9.506,"epy":21.898,"epv":60.982,"track":0.0000,"magtrack":2.0642,"magvar":2.1,"speed":0.000,"climb":0.000,"eps":43.79,"epc":121.96,"geoidSep":43.456,"eph":30.239,"sep":58.755}
{"class":"SKY","time":"2026-01-21T07:33:31.000Z","gdop":3.64,"hdop":1.59,"pdop":3.09,"tdop":1.93,"xdop":0.63,"ydop":1.46,"vdop":2.65,"nSat":7,"uSat":7,"satellites":[{"PRN":14,"az":60.0,"el":41.0,"ss":47.0,"used":true},{"PRN":23,"az":292.0,"el":34.0,"ss":46.0,"used":true},{"PRN":24,"az":272.0,"el":46.0,"ss":47.0,"used":true},{"PRN":17,"az":101.0,"el":26.0,"ss":46.0,"used":true},{"PRN":13,"az":138.0,"el":55.0,"ss":50.0,"used":true},{"PRN":15,"az":213.0,"el":69.0,"ss":46.0,"used":true},{"PRN":22,"az":73.0,"el":55.0,"ss":50.0,"used":true}]}
$GPZDA,073332.00,21,01,2026,00,00*64
$GPGGA,073332.00,5254.6188167,N,00652.0024000,E,7,07,1.59,12.45,M,43.456,M,,*52
$GPRMC,073332.00,A,5254.6188167,N,0652.0024000,E,0.0000,0.000,210126,2.1,E*5D
$GPGSA,A,3,14,23,24,17,13,15,22,,,,,,3.1,1.6,2.7*30
$GPGBS,073332.00,9.506,21.898,60.982,,,,*42
$GPGSV,2,1,07,14,41,060,46,23,34,292,47,24,46,272,45,17,26,101,45*74
$GPGSV,2,2,07,13,55,138,49,15,69,213,48,22,55,073,50*4D
{"class":"TPV","status":7,"mode":3,"time":"2026-01-21T07:33:32.001Z","leapseconds":18,"ept":0.005,"lat":52.910313611,"lon":6.866706667,"altHAE":55.9100,"altMSL":12.4538,"alt":12.4538,"epx":9.506,"epy":21.898,"epv":60.982,"track":0.0000,"magtrack":2.0642,"magvar":2.1,"speed":0.000,"climb":0.000,"eps":43.79,"epc":121.96,"geoidSep":43.456,"eph":30.239,"sep":58.755}
{"class":"SKY","time":"2026-01-21T07:33:32.001Z","gdop":3.64,"hdop":1.59,"pdop":3.09,"tdop":1.93,"xdop":0.63,"ydop":1.46,"vdop":2.65,"nSat":7,"uSat":7,"satellites":[{"PRN":14,"az":60.0,"el":41.0,"ss":46.0,"used":true},{"PRN":23,"az":292.0,"el":34.0,"ss":47.0,"used":true},{"PRN":24,"az":272.0,"el":46.0,"ss":45.0,"used":true},{"PRN":17,"az":101.0,"el":26.0,"ss":45.0,"used":true},{"PRN":13,"az":138.0,"el":55.0,"ss":49.0,"used":true},{"PRN":15,"az":213.0,"el":69.0,"ss":48.0,"used":true},{"PRN":22,"az":73.0,"el":55.0,"ss":50.0,"used":true}]}
$GPZDA,073333.00,21,01,2026,00,00*65
$GPGGA,073333.00,5254.6188167,N,00652.0024000,E,7,07,1.59,12.45,M,43.456,M,,*53
$GPRMC,073333.00,A,5254.6188167,N,0652.0024000,E,0.0000,0.000,210126,2.1,E*5C
$GPGSA,A,3,14,23,24,17,13,15,22,,,,,,3.1,1.6,2.7*30
$GPGBS,073333.00,9.506,21.898,60.982,,,,*43
$GPGSV,2,1,07,14,41,060,47,23,34,292,46,24,46,272,46,17,26,101,47*75
$GPGSV,2,2,07,13,55,138,52,15,69,213,49,22,55,073,49*4E
{"class":"TPV","status":7,"mode":3,"time":"2026-01-21T07:33:33.001Z","leapseconds":18,"ept":0.005,"lat":52.910313611,"lon":6.866706667,"altHAE":55.9100,"altMSL":12.4538,"alt":12.4538,"epx":9.506,"epy":21.898,"epv":60.982,"track":0.0000,"magtrack":2.0642,"magvar":2.1,"speed":0.000,"climb":0.000,"eps":43.79,"epc":121.96,"geoidSep":43.456,"eph":30.239,"sep":58.755}
{"class":"SKY","time":"2026-01-21T07:33:33.001Z","gdop":3.64,"hdop":1.59,"pdop":3.09,"tdop":1.93,"xdop":0.63,"ydop":1.46,"vdop":2.65,"nSat":7,"uSat":7,"satellites":[{"PRN":14,"az":60.0,"el":41.0,"ss":47.0,"used":true},{"PRN":23,"az":292.0,"el":34.0,"ss":46.0,"used":true},{"PRN":24,"az":272.0,"el":46.0,"ss":46.0,"used":true},{"PRN":17,"az":101.0,"el":26.0,"ss":47.0,"used":true},{"PRN":13,"az":138.0,"el":55.0,"ss":52.0,"used":true},{"PRN":15,"az":213.0,"el":69.0,"ss":49.0,"used":true},{"PRN":22,"az":73.0,"el":55.0,"ss":49.0,"used":true}]}
$GPZDA,073334.00,21,01,2026,00,00*62
$GPGGA,073334.00,5254.6188167,N,00652.0024000,E,7,07,1.59,12.45,M,43.456,M,,*54
$GPRMC,073334.00,A,5254.6188167,N,0652.0024000,E,0.0000,0.000,210126,2.1,E*5B
$GPGSA,A,3,14,23,24,17,13,15,22,,,,,,3.1,1.6,2.7*30
$GPGBS,073334.00,9.506,21.898,60.982,,,,*44
$GPGSV,2,1,07,14,41,060,47,23,34,292,46,24,46,272,45,17,26,101,45*74
$GPGSV,2,2,07,13,55,138,51,15,69,213,47,22,55,073,50*4B
{"class":"TPV","status":7,"mode":3,"time":"2026-01-21T07:33:34.001Z","leapseconds":18,"ept":0.005,"lat":52.910313611,"lon":6.866706667,"altHAE":55.9100,"altMSL":12.4538,"alt":12.4538,"epx":9.506,"epy":21.898,"epv":60.982,"track":0.0000,"magtrack":2.0642,"magvar":2.1,"speed":0.000,"climb":0.000,"eps":43.79,"epc":121.96,"geoidSep":43.456,"eph":30.239,"sep":58.755}
{"class":"SKY","time":"2026-01-21T07:33:34.001Z","gdop":3.64,"hdop":1.59,"pdop":3.09,"tdop":1.93,"xdop":0.63,"ydop":1.46,"vdop":2.65,"nSat":7,"uSat":7,"satellites":[{"PRN":14,"az":60.0,"el":41.0,"ss":47.0,"used":true},{"PRN":23,"az":292.0,"el":34.0,"ss":46.0,"used":true},{"PRN":24,"az":272.0,"el":46.0,"ss":45.0,"used":true},{"PRN":17,"az":101.0,"el":26.0,"ss":45.0,"used":true},{"PRN":13,"az":138.0,"el":55.0,"ss":51.0,"used":true},{"PRN":15,"az":213.0,"el":69.0,"ss":47.0,"used":true},{"PRN":22,"az":73.0,"el":55.0,"ss":50.0,"used":true}]}
$GPZDA,073335.00,21,01,2026,00,00*63
$GPGGA,073335.00,5254.6188167,N,00652.0024000,E,7,07,1.59,12.45,M,43.456,M,,*55
$GPRMC,073335.00,A,5254.6188167,N,0652.0024000,E,0.0000,0.000,210126,2.1,E*5A
$GPGSA,A,3,14,23,24,17,13,15,22,,,,,,3.1,1.6,2.7*30
$GPGBS,073335.00,9.506,21.898,60.982,,,,*45
$GPGSV,2,1,07,14,41,060,47,23,34,292,46,24,46,272,46,17,26,101,44*76
$GPGSV,2,2,07,13,55,138,50,15,69,213,47,22,55,073,48*43
{"class":"TPV","status":7,"mode":3,"time":"2026-01-21T07:33:35.001Z","leapseconds":18,"ept":0.005,"lat":52.910313611,"lon":6.866706667,"altHAE":55.9100,"altMSL":12.4538,"alt":12.4538,"epx":9.506,"epy":21.898,"epv":60.982,"track":0.0000,"magtrack":2.0642,"magvar":2.1,"speed":0.000,"climb":0.000,"eps":43.79,"epc":121.96,"geoidSep":43.456,"eph":30.239,"sep":58.755}
{"class":"SKY","time":"2026-01-21T07:33:35.001Z","gdop":3.64,"hdop":1.59,"pdop":3.09,"tdop":1.93,"xdop":0.63,"ydop":1.46,"vdop":2.65,"nSat":7,"uSat":7,"satellites":[{"PRN":14,"az":60.0,"el":41.0,"ss":47.0,"used":true},{"PRN":23,"az":292.0,"el":34.0,"ss":46.0,"used":true},{"PRN":24,"az":272.0,"el":46.0,"ss":46.0,"used":true},{"PRN":17,"az":101.0,"el":26.0,"ss":44.0,"used":true},{"PRN":13,"az":138.0,"el":55.0,"ss":50.0,"used":true},{"PRN":15,"az":213.0,"el":69.0,"ss":47.0,"used":true},{"PRN":22,"az":73.0,"el":55.0,"ss":48.0,"used":true}]}
$GPZDA,073336.00,21,01,2026,00,00*60
$GPGGA,073336.00,5254.6188167,N,00652.0024000,E,7,07,1.59,12.45,M,43.456,M,,*56
$GPRMC,073336.00,A,5254.6188167,N,0652.0024000,E,0.0000,0.000,210126,2.1,E*59
$GPGSA,A,3,14,23,24,17,13,15,22,,,,,,3.1,1.6,2.7*30
$GPGBS,073336.00,9.506,21.898,60.982,,,,*46
$GPGSV,2,1,07,14,41,060,47,23,34,292,47,24,46,272,47,17,26,101,45*77
$GPGSV,2,2,07,13,54,138,51,15,69,213,48,22,55,073,49*4D
{"class":"TPV","status":7,"mode":3,"time":"2026-01-21T07:33:36.001Z","leapseconds":18,"ept":0.005,"lat":52.910313611,"lon":6.866706667,"altHAE":55.9100,"altMSL":12.4538,"alt":12.4538,"epx":9.506,"epy":21.898,"epv":60.982,"track":0.0000,"magtrack":2.0642,"magvar":2.1,"speed":0.000,"climb":0.000,"eps":43.79,"epc":121.96,"geoidSep":43.456,"eph":30.239,"sep":58.755}
{"class":"SKY","time":"2026-01-21T07:33:36.001Z","gdop":3.64,"hdop":1.59,"pdop":3.09,"tdop":1.93,"xdop":0.63,"ydop":1.46,"vdop":2.65,"nSat":7,"uSat":7,"satellites":[{"PRN":14,"az":60.0,"el":41.0,"ss":47.0,"used":true},{"PRN":23,"az":292.0,"el":34.0,"ss":47.0,"used":true},{"PRN":24,"az":272.0,"el":46.0,"ss":47.0,"used":true},{"PRN":17,"az":101.0,"el":26.0,"ss":45.0,"used":true},{"PRN":13,"az":138.0,"el":54.0,"ss":51.0,"used":true},{"PRN":15,"az":213.0,"el":69.0,"ss":48.0,"used":true},{"PRN":22,"az":73.0,"el":55.0,"ss":49.0,"used":true}]}
$GPZDA,073337.00,21,01,2026,00,00*61
$GPGGA,073337.00,5254.6188167,N,00652.0024000,E,7,07,1.59,12.45,M,43.456,M,,*57
$GPRMC,073337.00,A,5254.6188167,N,0652.0024000,E,0.0000,0.000,210126,2.1,E*58
$GPGSA,A,3,14,23,24,17,13,15,22,,,,,,3.1,1.6,2.7*30
$GPGBS,073337.00,9.506,21.898,60.982,,,,*47
$GPGSV,2,1,07,14,41,060,48,23,34,292,45,24,46,272,48,17,26,101,45*75
$GPGSV,2,2,07,13,54,138,49,15,69,213,47,22,55,073,50*43
{"class":"TPV","status":7,"mode":3,"time":"2026-01-21T07:33:37.001Z","leapseconds":18,"ept":0.005,"lat":52.910313611,"lon":6.866706667,"altHAE":55.9100,"altMSL":12.4538,"alt":12.4538,"epx":9.506,"epy":21.898,"epv":60.982,"track":0.0000,"magtrack":2.0642,"magvar":2.1,"speed":0.000,"climb":0.000,"eps":43.79,"epc":121.96,"geoidSep":43.456,"eph":30.239,"sep":58.755}
{"class":"SKY","time":"2026-01-21T07:33:37.001Z","gdop":3.64,"hdop":1.59,"pdop":3.09,"tdop":1.93,"xdop":0.63,"ydop":1.46,"vdop":2.65,"nSat":7,"uSat":7,"satellites":[{"PRN":14,"az":60.0,"el":41.0,"ss":48.0,"used":true},{"PRN":23,"az":292.0,"el":34.0,"ss":45.0,"used":true},{"PRN":24,"az":272.0,"el":46.0,"ss":48.0,"used":true},{"PRN":17,"az":101.0,"el":26.0,"ss":45.0,"used":true},{"PRN":13,"az":138.0,"el":54.0,"ss":49.0,"used":true},{"PRN":15,"az":213.0,"el":69.0,"ss":47.0,"used":true},{"PRN":22,"az":73.0,"el":55.0,"ss":50.0,"used":true}]}
$GPZDA,073338.00,21,01,2026,00,00*6E
$GPGGA,073338.00,5254.6188167,N,00652.0024000,E,7,07,1.59,12.45,M,43.456,M,,*58
$GPRMC,073338.00,A,5254.6188167,N,0652.0024000,E,0.0000,0.000,210126,2.1,E*57
$GPGSA,A,3,14,23,24,17,13,15,22,,,,,,3.1,1.6,2.7*30
$GPGBS,073338.00,9.506,21.898,60.982,,,,*48
$GPGSV,2,1,07,14,41,060,46,23,34,292,46,24,46,272,48,17,26,101,46*7B
$GPGSV,2,2,07,13,54,139,52,15,69,213,46,22,55,073,50*49
{"class":"TPV","status":7,"mode":3,"time":"2026-01-21T07:33:38.001Z","leapseconds":18,"ept":0.005,"lat":52.910313611,"lon":6.866706667,"altHAE":55.9100,"altMSL":12.4538,"alt":12.4538,"epx":9.506,"epy":21.898,"epv":60.982,"track":0.0000,"magtrack":2.0642,"magvar":2.1,"speed":0.000,"climb":0.000,"eps":43.79,"epc":121.96,"geoidSep":43.456,"eph":30.239,"sep":58.755}
{"class":"SKY","time":"2026-01-21T07:33:38.001Z","gdop":3.64,"hdop":1.59,"pdop":3.09,"tdop":1.93,"xdop":0.63,"ydop":1.46,"vdop":2.65,"nSat":7,"uSat":7,"satellites":[{"PRN":14,"az":60.0,"el":41.0,"ss":46.0,"used":true},{"PRN":23,"az":292.0,"el":34.0,"ss":46.0,"used":true},{"PRN":24,"az":272.0,"el":46.0,"ss":48.0,"used":true},{"PRN":17,"az":101.0,"el":26.0,"ss":46.0,"used":true},{"PRN":13,"az":139.0,"el":54.0,"ss":52.0,"used":true},{"PRN":15,"az":213.0,"el":69.0,"ss":46.0,"used":true},{"PRN":22,"az":73.0,"el":55.0,"ss":50.0,"used":true}]}
