$GPGSA,A,3,28,11,26,29,,,,,,,,,12.9,12.5,3.1*39
{"class":"TPV","mode":3,"epv":71.300,"eph":237.500,"sep":245.100}
{"class":"SKY","hdop":12.50,"pdop":12.90,"vdop":3.10}
$GPRMC,021612.949,A,5029.3800,N,10441.0390,W,0.039560,189.06,280706,,*18
{"class":"TPV","mode":3,"time":"2026-03-13T02:16:12.949Z","ept":0.005,"lat":50.489666667,"lon":-104.683983333,"track":189.0600,"magtrack":197.6730,"magvar":8.6,"speed":0.020,"geoidSep":-20.418}
$GPGGA,021613.949,5029.3800,N,10441.0389,W,1,04,12.5,572.4,M,-20.3,M,0.0,0000*7E
{"class":"SKY","hdop":12.50}
$GPGLL,5029.3800,N,10441.0389,W,021613.949,A*22
$GPGSA,A,3,28,11,26,29,,,,,,,,,12.9,12.5,3.1*39
{"class":"SKY","hdop":12.50,"pdop":12.90,"vdop":3.10}
$GPRMC,021613.949,A,5029.3800,N,10441.0389,W,0.009850,267.99,280706,,*19
{"class":"TPV","mode":3,"time":"2026-03-13T02:16:13.949Z","ept":0.005,"lat":50.489666667,"lon":-104.683981667,"altHAE":552.1000,"altMSL":572.4000,"alt":572.4000,"epv":71.300,"track":267.9900,"magtrack":276.6030,"magvar":8.6,"speed":0.005,"geoidSep":-20.300,"eph":237.500,"sep":245.100}
$GPGGA,021614.949,5029.3800,N,10441.0388,W,1,04,12.5,572.3,M,-20.3,M,0.0,0000*7F
{"class":"SKY","hdop":12.50,"pdop":12.90,"vdop":3.10}
$GPGLL,5029.3800,N,10441.0388,W,021614.949,A*24
$GPGSA,A,3,28,11,26,29,,,,,,,,,12.9,12.5,3.1*39
{"class":"SKY","hdop":12.50,"pdop":12.90,"vdop":3.10}
$GPGSV,3,1,9,8,49,156,27,17,49,212,0,28,82,35,36,11,38,84,37*4A
$GPGSV,3,2,9,26,32,278,39,29,31,270,38,19,6,48,0,27,22,152,26*71
$GPGSV,3,3,9,123,0,0,0*40
{"class":"SKY","gdop":12.75,"hdop":12.50,"pdop":12.90,"tdop":2.04,"xdop":0.81,"ydop":12.16,"vdop":3.10,"nSat":9,"uSat":4,"satellites":[{"PRN":8,"gnssid":0,"svid":8,"az":156.0,"el":49.0,"ss":27.0,"used":false},{"PRN":17,"gnssid":0,"svid":17,"az":212.0,"el":49.0,"ss":0.0,"used":false},{"PRN":28,"gnssid":0,"svid":28,"az":35.0,"el":82.0,"ss":36.0,"used":true},{"PRN":11,"gnssid":0,"svid":11,"az":84.0,"el":38.0,"ss":37.0,"used":true},{"PRN":26,"gnssid":0,"svid":26,"az":278.0,"el":32.0,"ss":39.0,"used":true},{"PRN":29,"gnssid":0,"svid":29,"az":270.0,"el":31.0,"ss":38.0,"used":true},{"PRN":19,"gnssid":0,"svid":19,"az":48.0,"el":6.0,"ss":0.0,"used":false},{"PRN":27,"gnssid":0,"svid":27,"az":152.0,"el":22.0,"ss":26.0,"used":false},{"PRN":123,"gnssid":1,"svid":123,"az":0.0,"el":0.0,"ss":0.0,"used":false}]}
$GPRMC,021614.949,A,5029.3800,N,10441.0388,W,0.016538,341.48,280706,,*1B
{"class":"TPV","mode":3,"time":"2026-03-13T02:16:14.949Z","ept":0.005,"lat":50.489666667,"lon":-104.683980000,"altHAE":552.0000,"altMSL":572.3000,"alt":572.3000,"epx":12.184,"epy":182.343,"epv":71.300,"track":341.4800,"magtrack":350.0930,"magvar":8.6,"speed":0.009,"climb":-0.100,"epc":142.60,"geoidSep":-20.300,"eph":237.500,"sep":245.100}
$GPGGA,021615.949,5029.3799,N,10441.0387,W,1,04,12.5,572.1,M,-20.3,M,0.0,0000*7C
{"class":"SKY","gdop":12.75,"hdop":12.50,"pdop":12.90,"tdop":2.04,"xdop":0.81,"ydop":12.16,"vdop":3.10}
$GPGLL,5029.3799,N,10441.0387,W,021615.949,A*25
$GPGSA,A,3,28,11,26,29,,,,,,,,,12.9,12.5,3.1*39
{"class":"SKY","gdop":12.75,"hdop":12.50,"pdop":12.90,"tdop":2.04,"xdop":0.81,"ydop":12.16,"vdop":3.10}
$GPRMC,021615.949,A,5029.3799,N,10441.0387,W,0.024470,357.79,280706,,*13
{"class":"TPV","mode":3,"time":"2026-03-13T02:16:15.949Z","ept":0.005,"lat":50.489665000,"lon":-104.683978333,"altHAE":551.8000,"altMSL":572.1000,"alt":572.1000,"epx":12.184,"epy":182.343,"epv":71.300,"track":357.7900,"magtrack":6.4030,"magvar":8.6,"speed":0.013,"climb":-0.200,"eps":364.69,"epc":142.60,"geoidSep":-20.300,"eph":237.500,"sep":245.100}
$GPGGA,021616.949,5029.3800,N,10441.0387,W,1,04,12.5,571.9,M,-20.3,M,0.0,0000*7B
{"class":"SKY","gdop":12.75,"hdop":12.50,"pdop":12.90,"tdop":2.04,"xdop":0.81,"ydop":12.16,"vdop":3.10}
$GPGLL,5029.3800,N,10441.0387,W,021616.949,A*29
$GPGSA,A,3,28,11,26,29,,,,,,,,,12.9,12.5,3.1*39
{"class":"SKY","gdop":12.75,"hdop":12.50,"pdop":12.90,"tdop":2.04,"xdop":0.81,"ydop":12.16,"vdop":3.10}
$GPRMC,021616.949,A,5029.3800,N,10441.0387,W,0.064679,355.50,280706,,*19
{"class":"TPV","mode":3,"time":"2026-03-13T02:16:16.949Z","ept":0.005,"lat":50.489666667,"lon":-104.683978333,"altHAE":551.6000,"altMSL":571.9000,"alt":571.9000,"epx":12.184,"epy":182.343,"epv":71.300,"track":355.5000,"magtrack":4.1130,"magvar":8.6,"speed":0.033,"climb":-0.200,"eps":364.69,"epc":142.60,"geoidSep":-20.300,"eph":237.500,"sep":245.100}
$GPGGA,021617.949,5029.3800,N,10441.0387,W,1,04,12.5,571.9,M,-20.3,M,0.0,0000*7A
{"class":"SKY","gdop":12.75,"hdop":12.50,"pdop":12.90,"tdop":2.04,"xdop":0.81,"ydop":12.16,"vdop":3.10}
$GPGLL,5029.3800,N,10441.0387,W,021617.949,A*28
$GPGSA,A,3,28,11,26,29,,,,,,,,,12.9,12.5,3.1*39
{"class":"SKY","gdop":12.75,"hdop":12.50,"pdop":12.90,"tdop":2.04,"xdop":0.81,"ydop":12.16,"vdop":3.10}
$GPRMC,021617.949,A,5029.3800,N,10441.0387,W,0.081945,359.64,280706,,*18
{"class":"TPV","mode":3,"time":"2026-03-13T02:16:17.949Z","ept":0.005,"lat":50.489666667,"lon":-104.683978333,"altHAE":551.6000,"altMSL":571.9000,"alt":571.9000,"epx":12.184,"epy":182.343,"epv":71.300,"track":359.6400,"magtrack":8.2530,"magvar":8.6,"speed":0.042,"climb":0.000,"eps":364.69,"epc":142.60,"geoidSep":-20.300,"eph":237.500,"sep":245.100}
$GPGGA,021618.949,5029.3801,N,10441.0387,W,1,04,12.5,571.8,M,-20.3,M,0.0,0000*75
{"class":"SKY","gdop":12.75,"hdop":12.50,"pdop":12.90,"tdop":2.04,"xdop":0.81,"ydop":12.16,"vdop":3.10}
$GPGLL,5029.3801,N,10441.0387,W,021618.949,A*26
$GPGSA,A,3,28,11,26,29,,,,,,,,,12.9,12.5,3.1*39
{"class":"SKY","gdop":12.75,"hdop":12.50,"pdop":12.90,"tdop":2.04,"xdop":0.81,"ydop":12.16,"vdop":3.10}
$GPRMC,021618.949,A,5029.3801,N,10441.0387,W,0.123681,359.07,280706,,*1D
{"class":"TPV","mode":3,"time":"2026-03-13T02:16:18.949Z","ept":0.005,"lat":50.489668333,"lon":-104.683978333,"altHAE":551.5000,"altMSL":571.8000,"alt":571.8000,"epx":12.184,"epy":182.343,"epv":71.300,"track":359.0700,"magtrack":7.6830,"magvar":8.6,"speed":0.064,"climb":-0.100,"eps":364.69,"epc":142.60,"geoidSep":-20.300,"eph":237.500,"sep":245.100}
$GPGGA,021619.949,5029.3802,N,10441.0387,W,1,04,12.5,571.6,M,-20.3,M,0.0,0000*79
{"class":"SKY","gdop":12.75,"hdop":12.50,"pdop":12.90,"tdop":2.04,"xdop":0.81,"ydop":12.16,"vdop":3.10}
$GPGLL,5029.3802,N,10441.0387,W,021619.949,A*24
$GPGSA,A,3,28,11,26,29,,,,,,,,,12.9,12.5,3.1*39
{"class":"SKY","gdop":12.75,"hdop":12.50,"pdop":12.90,"tdop":2.04,"xdop":0.81,"ydop":12.16,"vdop":3.10}
$GPGSV,3,1,9,8,48,156,25,17,50,212,0,28,82,37,36,11,38,84,36*42
$GPGSV,3,2,9,26,32,277,39,29,31,270,38,19,6,48,0,27,22,152,20*78
$GPGSV,3,3,9,123,0,0,0*40
{"class":"SKY","gdop":12.75,"hdop":12.50,"pdop":12.90,"tdop":2.04,"xdop":0.81,"ydop":12.16,"vdop":3.10,"nSat":9,"uSat":4,"satellites":[{"PRN":8,"gnssid":0,"svid":8,"az":156.0,"el":48.0,"ss":25.0,"used":false},{"PRN":17,"gnssid":0,"svid":17,"az":212.0,"el":50.0,"ss":0.0,"used":false},{"PRN":28,"gnssid":0,"svid":28,"az":37.0,"el":82.0,"ss":36.0,"used":true},{"PRN":11,"gnssid":0,"svid":11,"az":84.0,"el":38.0,"ss":36.0,"used":true},{"PRN":26,"gnssid":0,"svid":26,"az":277.0,"el":32.0,"ss":39.0,"used":true},{"PRN":29,"gnssid":0,"svid":29,"az":270.0,"el":31.0,"ss":38.0,"used":true},{"PRN":19,"gnssid":0,"svid":19,"az":48.0,"el":6.0,"ss":0.0,"used":false},{"PRN":27,"gnssid":0,"svid":27,"az":152.0,"el":22.0,"ss":20.0,"used":false},{"PRN":123,"gnssid":1,"svid":123,"az":0.0,"el":0.0,"ss":0.0,"used":false}]}
$GPRMC,021619.949,A,5029.3802,N,10441.0387,W,0.152675,359.28,280706,,*1F
{"class":"TPV","mode":3,"time":"2026-03-13T02:16:19.949Z","ept":0.005,"lat":50.489670000,"lon":-104.683978333,"altHAE":551.3000,"altMSL":571.6000,"alt":571.6000,"epx":12.184,"epy":182.343,"epv":71.300,"track":359.2800,"magtrack":7.8930,"magvar":8.6,"speed":0.079,"climb":-0.200,"eps":364.69,"epc":142.60,"geoidSep":-20.300,"eph":237.500,"sep":245.100}
$GPGGA,021620.949,5029.3803,N,10441.0387,W,1,04,12.5,571.7,M,-20.3,M,0.0,0000*73
{"class":"SKY","gdop":12.75,"hdop":12.50,"pdop":12.90,"tdop":2.04,"xdop":0.81,"ydop":12.16,"vdop":3.10}
$GPGLL,5029.3803,N,10441.0387,W,021620.949,A*2F
$GPGSA,A,3,28,11,26,29,,,,,,,,,12.9,12.5,3.1*39
{"class":"SKY","gdop":12.75,"hdop":12.50,"pdop":12.90,"tdop":2.04,"xdop":0.81,"ydop":12.16,"vdop":3.10}
$GPRMC,021620.949,A,5029.3803,N,10441.0387,W,0.149670,359.57,280706,,*13
{"class":"TPV","mode":3,"time":"2026-03-13T02:16:20.949Z","ept":0.005,"lat":50.489671667,"lon":-104.683978333,"altHAE":551.4000,"altMSL":571.7000,"alt":571.7000,"epx":12.184,"epy":182.343,"epv":71.300,"track":359.5700,"magtrack":8.1830,"magvar":8.6,"speed":0.077,"climb":0.100,"eps":364.69,"epc":142.60,"geoidSep":-20.300,"eph":237.500,"sep":245.100}
$GPGGA,021621.949,5029.3805,N,10441.0387,W,1,04,12.5,571.9,M,-20.3,M,0.0,0000*7A
{"class":"SKY","gdop":12.75,"hdop":12.50,"pdop":12.90,"tdop":2.04,"xdop":0.81,"ydop":12.16,"vdop":3.10}
$GPGLL,5029.3805,N,10441.0387,W,021621.949,A*28
$GPGSA,A,3,28,11,26,29,,,,,,,,,12.9,12.5,3.1*39
{"class":"SKY","gdop":12.75,"hdop":12.50,"pdop":12.90,"tdop":2.04,"xdop":0.81,"ydop":12.16,"vdop":3.10}
$GPRMC,021621.949,A,5029.3805,N,10441.0387,W,0.139805,358.04,280706,,*18
{"class":"TPV","mode":3,"time":"2026-03-13T02:16:21.949Z","ept":0.005,"lat":50.489675000,"lon":-104.683978333,"altHAE":551.6000,"altMSL":571.9000,"alt":571.9000,"epx":12.184,"epy":182.343,"epv":71.300,"track":358.0400,"magtrack":6.6530,"magvar":8.6,"speed":0.072,"climb":0.200,"eps":364.69,"epc":142.60,"geoidSep":-20.300,"eph":237.500,"sep":245.100}
$GPGGA,021622.949,5029.3806,N,10441.0387,W,1,04,12.5,571.7,M,-20.3,M,0.0,0000*74
{"class":"SKY","gdop":12.75,"hdop":12.50,"pdop":12.90,"tdop":2.04,"xdop":0.81,"ydop":12.16,"vdop":3.10}
$GPGLL,5029.3806,N,10441.0387,W,021622.949,A*28
$GPGSA,A,3,28,11,26,29,,,,,,,,,12.9,12.5,3.1*39
{"class":"SKY","gdop":12.75,"hdop":12.50,"pdop":12.90,"tdop":2.04,"xdop":0.81,"ydop":12.16,"vdop":3.10}
$GPRMC,021622.949,A,5029.3806,N,10441.0387,W,0.159851,358.60,280706,,*1D
{"class":"TPV","mode":3,"time":"2026-03-13T02:16:22.949Z","ept":0.005,"lat":50.489676667,"lon":-104.683978333,"altHAE":551.4000,"altMSL":571.7000,"alt":571.7000,"epx":12.184,"epy":182.343,"epv":71.300,"track":358.6000,"magtrack":7.2130,"magvar":8.6,"speed":0.082,"climb":-0.200,"eps":364.69,"epc":142.60,"geoidSep":-20.300,"eph":237.500,"sep":245.100}
$GPGGA,021623.949,5029.3808,N,10441.0387,W,1,04,12.5,571.2,M,-20.3,M,0.0,0000*7E
{"class":"SKY","gdop":12.75,"hdop":12.50,"pdop":12.90,"tdop":2.04,"xdop":0.81,"ydop":12.16,"vdop":3.10}
$GPGLL,5029.3808,N,10441.0387,W,021623.949,A*27
$GPGSA,A,3,28,11,26,29,,,,,,,,,12.9,12.5,3.1*39
{"class":"SKY","gdop":12.75,"hdop":12.50,"pdop":12.90,"tdop":2.04,"xdop":0.81,"ydop":12.16,"vdop":3.10}
$GPRMC,021623.949,A,5029.3808,N,10441.0387,W,0.211601,1.82,280706,,*15
{"class":"TPV","mode":3,"time":"2026-03-13T02:16:23.949Z","ept":0.005,"lat":50.489680000,"lon":-104.683978333,"altHAE":550.9000,"altMSL":571.2000,"alt":571.2000,"epx":12.184,"epy":182.343,"epv":71.300,"track":1.8200,"magtrack":10.4330,"magvar":8.6,"speed":0.109,"climb":-0.500,"eps":364.69,"epc":142.60,"geoidSep":-20.300,"eph":237.500,"sep":245.100}
$GPGGA,021624.949,5029.3810,N,10441.0386,W,1,04,12.5,570.7,M,-20.3,M,0.0,0000*75
{"class":"SKY","gdop":12.75,"hdop":12.50,"pdop":12.90,"tdop":2.04,"xdop":0.81,"ydop":12.16,"vdop":3.10}
$GPGLL,5029.3810,N,10441.0386,W,021624.949,A*28
$GPGSA,A,3,28,11,26,29,,,,,,,,,12.9,12.5,3.1*39
{"class":"SKY","gdop":12.75,"hdop":12.50,"pdop":12.90,"tdop":2.04,"xdop":0.81,"ydop":12.16,"vdop":3.10}
$GPGSV,3,1,9,8,48,156,25,17,50,212,0,28,82,37,37,11,38,84,37*42
$GPGSV,3,2,9,26,32,277,39,29,31,270,38,19,6,48,0,27,22,152,21*79
$GPGSV,3,3,9,123,0,0,0*40
{"class":"SKY","gdop":12.75,"hdop":12.50,"pdop":12.90,"tdop":2.04,"xdop":0.81,"ydop":12.16,"vdop":3.10,"nSat":9,"uSat":4,"satellites":[{"PRN":8,"gnssid":0,"svid":8,"az":156.0,"el":48.0,"ss":25.0,"used":false},{"PRN":17,"gnssid":0,"svid":17,"az":212.0,"el":50.0,"ss":0.0,"used":false},{"PRN":28,"gnssid":0,"svid":28,"az":37.0,"el":82.0,"ss":37.0,"used":true},{"PRN":11,"gnssid":0,"svid":11,"az":84.0,"el":38.0,"ss":37.0,"used":true},{"PRN":26,"gnssid":0,"svid":26,"az":277.0,"el":32.0,"ss":39.0,"used":true},{"PRN":29,"gnssid":0,"svid":29,"az":270.0,"el":31.0,"ss":38.0,"used":true},{"PRN":19,"gnssid":0,"svid":19,"az":48.0,"el":6.0,"ss":0.0,"used":false},{"PRN":27,"gnssid":0,"svid":27,"az":152.0,"el":22.0,"ss":21.0,"used":false},{"PRN":123,"gnssid":1,"svid":123,"az":0.0,"el":0.0,"ss":0.0,"used":false}]}
$GPRMC,021624.949,A,5029.3810,N,10441.0386,W,0.200234,356.84,280706,,*1F
{"class":"TPV","mode":3,"time":"2026-03-13T02:16:24.949Z","ept":0.005,"lat":50.489683333,"lon":-104.683976667,"altHAE":550.4000,"altMSL":570.7000,"alt":570.7000,"epx":12.184,"epy":182.343,"epv":71.300,"track":356.8400,"magtrack":5.4530,"magvar":8.6,"speed":0.103,"climb":-0.500,"eps":364.69,"epc":142.60,"geoidSep":-20.300,"eph":237.500,"sep":245.100}
$GPGGA,021625.949,5029.3812,N,10441.0386,W,1,04,12.5,570.1,M,-20.3,M,0.0,0000*70
{"class":"SKY","gdop":12.75,"hdop":12.50,"pdop":12.90,"tdop":2.04,"xdop":0.81,"ydop":12.16,"vdop":3.10}
$GPGLL,5029.3812,N,10441.0386,W,021625.949,A*2B
$GPGSA,A,3,28,11,26,29,,,,,,,,,12.9,12.5,3.1*39
{"class":"SKY","gdop":12.75,"hdop":12.50,"pdop":12.90,"tdop":2.04,"xdop":0.81,"ydop":12.16,"vdop":3.10}
$GPRMC,021625.949,A,5029.3812,N,10441.0386,W,0.222299,359.84,280706,,*14
{"class":"TPV","mode":3,"time":"2026-03-13T02:16:25.949Z","ept":0.005,"lat":50.489686667,"lon":-104.683976667,"altHAE":549.8000,"altMSL":570.1000,"alt":570.1000,"epx":12.184,"epy":182.343,"epv":71.300,"track":359.8400,"magtrack":8.4530,"magvar":8.6,"speed":0.114,"climb":-0.600,"eps":364.69,"epc":142.60,"geoidSep":-20.300,"eph":237.500,"sep":245.100}
$GPGGA,021626.949,5029.3814,N,10441.0385,W,1,04,12.5,569.4,M,-20.3,M,0.0,0000*7B
{"class":"SKY","gdop":12.75,"hdop":12.50,"pdop":12.90,"tdop":2.04,"xdop":0.81,"ydop":12.16,"vdop":3.10}
$GPGLL,5029.3814,N,10441.0385,W,021626.949,A*2D
$GPGSA,A,3,28,11,26,29,,,,,,,,,12.9,12.5,3.1*39
{"class":"SKY","gdop":12.75,"hdop":12.50,"pdop":12.90,"tdop":2.04,"xdop":0.81,"ydop":12.16,"vdop":3.10}
$GPRMC,021626.949,A,5029.3814,N,10441.0385,W,0.196906,0.09,280706,,*19
{"class":"TPV","mode":3,"time":"2026-03-13T02:16:26.949Z","ept":0.005,"lat":50.489690000,"lon":-104.683975000,"altHAE":549.1000,"altMSL":569.4000,"alt":569.4000,"epx":12.184,"epy":182.343,"epv":71.300,"track":0.0900,"magtrack":8.7030,"magvar":8.6,"speed":0.101,"climb":-0.700,"eps":364.69,"epc":142.60,"geoidSep":-20.300,"eph":237.500,"sep":245.100}
$GPGGA,021627.948,5029.3815,N,10441.0384,W,1,04,12.5,568.8,M,-20.3,M,0.0,0000*76
{"class":"SKY","gdop":12.75,"hdop":12.50,"pdop":12.90,"tdop":2.04,"xdop":0.81,"ydop":12.16,"vdop":3.10}
$GPGLL,5029.3815,N,10441.0384,W,021627.948,A*2D
$GPGSA,A,3,28,11,26,29,,,,,,,,,12.9,12.5,3.1*39
{"class":"SKY","gdop":12.75,"hdop":12.50,"pdop":12.90,"tdop":2.04,"xdop":0.81,"ydop":12.16,"vdop":3.10}
$GPRMC,021627.948,A,5029.3815,N,10441.0384,W,0.200037,355.83,280706,,*1F
{"class":"TPV","mode":3,"time":"2026-03-13T02:16:27.948Z","ept":0.005,"lat":50.489691667,"lon":-104.683973333,"altHAE":548.5000,"altMSL":568.8000,"alt":568.8000,"epx":12.184,"epy":182.343,"epv":71.300,"track":355.8300,"magtrack":4.4430,"magvar":8.6,"speed":0.103,"climb":-0.601,"eps":365.05,"epc":142.74,"geoidSep":-20.300,"eph":237.500,"sep":245.100}
$GPGGA,021628.948,5029.3828,N,10441.0382,W,1,05,2.0,567.6,M,-20.3,M,0.0,0000*45
{"class":"SKY","gdop":12.75,"hdop":2.00,"pdop":12.90,"tdop":2.04,"xdop":0.81,"ydop":12.16,"vdop":3.10}
$GPGLL,5029.3828,N,10441.0382,W,021628.948,A*2A
$GPGSA,A,3,28,11,26,29,27,,,,,,,,3.6,2.0,3.0*36
{"class":"SKY","gdop":12.75,"hdop":2.00,"pdop":3.60,"tdop":2.04,"xdop":0.81,"ydop":12.16,"vdop":3.00}
$GPRMC,021628.948,A,5029.3828,N,10441.0382,W,0.144151,5.63,280706,,*12
{"class":"TPV","mode":3,"time":"2026-03-13T02:16:28.948Z","ept":0.005,"lat":50.489713333,"lon":-104.683970000,"altHAE":547.3000,"altMSL":567.6000,"alt":567.6000,"epx":12.184,"epy":182.343,"epv":71.300,"track":5.6300,"magtrack":14.2430,"magvar":8.6,"speed":0.074,"climb":-1.200,"eps":364.69,"epc":142.60,"geoidSep":-20.300,"eph":38.000,"sep":245.100}
$GPGGA,021629.948,5029.3826,N,10441.0381,W,1,05,2.0,567.0,M,-20.3,M,0.0,0000*4F
{"class":"SKY","gdop":12.75,"hdop":2.00,"pdop":3.60,"tdop":2.04,"xdop":0.81,"ydop":12.16,"vdop":3.00}
$GPGLL,5029.3826,N,10441.0381,W,021629.948,A*26
$GPGSA,A,3,28,11,26,29,27,,,,,,,,3.6,2.0,3.0*36
{"class":"SKY","gdop":12.75,"hdop":2.00,"pdop":3.60,"tdop":2.04,"xdop":0.81,"ydop":12.16,"vdop":3.00}
$GPGSV,3,1,9,8,48,156,0,17,50,212,0,28,82,37,37,11,38,84,36*74
$GPGSV,3,2,9,26,32,277,39,29,31,270,37,19,6,48,0,27,22,152,28*7F
$GPGSV,3,3,9,124,0,0,0*47
{"class":"SKY","gdop":12.75,"hdop":2.00,"pdop":3.60,"tdop":2.04,"xdop":0.81,"ydop":12.16,"vdop":3.00,"nSat":9,"uSat":5,"satellites":[{"PRN":8,"gnssid":0,"svid":8,"az":156.0,"el":48.0,"ss":0.0,"used":false},{"PRN":17,"gnssid":0,"svid":17,"az":212.0,"el":50.0,"ss":0.0,"used":false},{"PRN":28,"gnssid":0,"svid":28,"az":37.0,"el":82.0,"ss":37.0,"used":true},{"PRN":11,"gnssid":0,"svid":11,"az":84.0,"el":38.0,"ss":36.0,"used":true},{"PRN":26,"gnssid":0,"svid":26,"az":277.0,"el":32.0,"ss":39.0,"used":true},{"PRN":29,"gnssid":0,"svid":29,"az":270.0,"el":31.0,"ss":37.0,"used":true},{"PRN":19,"gnssid":0,"svid":19,"az":48.0,"el":6.0,"ss":0.0,"used":false},{"PRN":27,"gnssid":0,"svid":27,"az":152.0,"el":22.0,"ss":28.0,"used":true},{"PRN":124,"gnssid":1,"svid":124,"az":0.0,"el":0.0,"ss":0.0,"used":false}]}
$GPRMC,021629.948,A,5029.3826,N,10441.0381,W,0.066422,8.45,280706,,*17
{"class":"TPV","mode":3,"time":"2026-03-13T02:16:29.948Z","ept":0.005,"lat":50.489710000,"lon":-104.683968333,"altHAE":546.7000,"altMSL":567.0000,"alt":567.0000,"epx":12.184,"epy":182.343,"epv":69.000,"track":8.4500,"magtrack":17.0630,"magvar":8.6,"speed":0.034,"climb":-0.600,"eps":364.69,"epc":140.30,"geoidSep":-20.300,"eph":38.000,"sep":68.400}
$GPGGA,021630.948,5029.3826,N,10441.0380,W,1,04,12.5,567.0,M,-20.3,M,0.0,0000*73
{"class":"SKY","gdop":12.75,"hdop":12.50,"pdop":3.60,"tdop":2.04,"xdop":0.81,"ydop":12.16,"vdop":3.00}
$GPGLL,5029.3826,N,10441.0380,W,021630.948,A*2F
$GPGSA,A,3,28,11,26,29,,,,,,,,,12.9,12.5,3.1*39
{"class":"SKY","gdop":12.75,"hdop":12.50,"pdop":12.90,"tdop":2.04,"xdop":0.81,"ydop":12.16,"vdop":3.10}
$GPRMC,021630.948,A,5029.3826,N,10441.0380,W,0.067726,5.22,280706,,*14
{"class":"TPV","mode":3,"time":"2026-03-13T02:16:30.948Z","ept":0.005,"lat":50.489710000,"lon":-104.683966667,"altHAE":546.7000,"altMSL":567.0000,"alt":567.0000,"epx":12.184,"epy":182.343,"epv":69.000,"track":5.2200,"magtrack":13.8330,"magvar":8.6,"speed":0.035,"climb":0.000,"eps":364.69,"epc":138.00,"geoidSep":-20.300,"eph":237.500,"sep":68.400}
$GPGGA,021631.948,5029.3826,N,10441.0377,W,1,04,12.5,567.2,M,-20.3,M,0.0,0000*78
{"class":"SKY","gdop":12.75,"hdop":12.50,"pdop":12.90,"tdop":2.04,"xdop":0.81,"ydop":12.16,"vdop":3.10}
$GPGLL,5029.3826,N,10441.0377,W,021631.948,A*26
$GPGSA,A,3,28,11,26,29,,,,,,,,,12.9,12.5,3.1*39
{"class":"SKY","gdop":12.75,"hdop":12.50,"pdop":12.90,"tdop":2.04,"xdop":0.81,"ydop":12.16,"vdop":3.10}
$GPRMC,021631.948,A,5029.3826,N,10441.0377,W,0.050347,4.93,280706,,*11
{"class":"TPV","mode":3,"time":"2026-03-13T02:16:31.948Z","ept":0.005,"lat":50.489710000,"lon":-104.683961667,"altHAE":546.9000,"altMSL":567.2000,"alt":567.2000,"epx":12.184,"epy":182.343,"epv":71.300,"track":4.9300,"magtrack":13.5430,"magvar":8.6,"speed":0.026,"climb":0.200,"eps":364.69,"epc":140.30,"geoidSep":-20.300,"eph":237.500,"sep":245.100}
$GPGGA,021632.948,5029.3826,N,10441.0370,W,1,05,2.0,567.2,M,-20.3,M,0.0,0000*49
{"class":"SKY","gdop":12.75,"hdop":2.00,"pdop":12.90,"tdop":2.04,"xdop":0.81,"ydop":12.16,"vdop":3.10}
$GPGLL,5029.3826,N,10441.0370,W,021632.948,A*22
$GPGSA,A,3,28,11,26,29,27,,,,,,,,3.6,2.0,3.0*36
{"class":"SKY","gdop":12.75,"hdop":2.00,"pdop":3.60,"tdop":2.04,"xdop":0.81,"ydop":12.16,"vdop":3.00}
$GPRMC,021632.948,A,5029.3826,N,10441.0370,W,0.033580,1.77,280706,,*12
{"class":"TPV","mode":3,"time":"2026-03-13T02:16:32.948Z","ept":0.005,"lat":50.489710000,"lon":-104.683950000,"altHAE":546.9000,"altMSL":567.2000,"alt":567.2000,"epx":12.184,"epy":182.343,"epv":71.300,"track":1.7700,"magtrack":10.3830,"magvar":8.6,"speed":0.017,"climb":0.000,"eps":364.69,"epc":142.60,"geoidSep":-20.300,"eph":38.000,"sep":245.100}
$GPGGA,021633.948,5029.3826,N,10441.0370,W,1,04,12.5,566.9,M,-20.3,M,0.0,0000*77
{"class":"SKY","gdop":12.75,"hdop":12.50,"pdop":3.60,"tdop":2.04,"xdop":0.81,"ydop":12.16,"vdop":3.00}
$GPGLL,5029.3826,N,10441.0370,W,021633.948,A*23
