$GPRMC.
$GPGGA and #
$GPGSV,4,1,13,03,03,074,37,06,15,348,38,07,18,022,52,11,13,133,35,1*6E
$GPGSV,4,2,13,19,43,291,35,22,07,094,42,28,66,165,29,30,47,008,54,1*65
$GPGSV,4,3,13,13,21,278,,15,06,246,,24,,,,39,,,34,1*64
$GPGSV,4,4,13,46,,,50,1*61
{"class":"SKY","nSat":13,"uSat":0,"satellites":[{"PRN":3,"el":3.0,"az":74.0,"ss":37.0,"used":false,"gnssid":0,"svid":3},{"PRN":6,"el":15.0,"az":348.0,"ss":38.0,"used":false,"gnssid":0,"svid":6},{"PRN":7,"el":18.0,"az":22.0,"ss":52.0,"used":false,"gnssid":0,"svid":7},{"PRN":11,"el":13.0,"az":133.0,"ss":35.0,"used":false,"gnssid":0,"svid":11},{"PRN":19,"el":43.0,"az":291.0,"ss":35.0,"used":false,"gnssid":0,"svid":19},{"PRN":22,"el":7.0,"az":94.0,"ss":42.0,"used":false,"gnssid":0,"svid":22},{"PRN":28,"el":66.0,"az":165.0,"ss":29.0,"used":false,"gnssid":0,"svid":28},{"PRN":30,"el":47.0,"az":8.0,"ss":54.0,"used":false,"gnssid":0,"svid":30},{"PRN":13,"el":21.0,"az":278.0,"ss":0.0,"used":false,"gnssid":0,"svid":13},{"PRN":15,"el":6.0,"az":246.0,"ss":0.0,"used":false,"gnssid":0,"svid":15},{"PRN":24,"el":0.0,"az":0.0,"ss":0.0,"used":false,"gnssid":0,"svid":24},{"PRN":39,"el":0.0,"az":0.0,"ss":34.0,"used":false,"gnssid":1,"svid":126},{"PRN":46,"el":0.0,"az":0.0,"ss":50.0,"used":false,"gnssid":1,"svid":133}]}
$GPGGA,022021.00,3644.759368,S,17444.072860,E,1,07,1.1,56.1,M,37.0,M,,*49
{"class":"TPV","mode":3,"lat":-36.745989467,"lon":174.734547667,"altHAE":93.1000,"altMSL":56.1000,"alt":56.1000,"magvar":19.9,"geoidSep":37.000,"eph":20.900}
{"class":"SKY","hdop":1.10}
$GPVTG,301.9,T,283.6,M,0.0,N,0.0,K,A*27
$GPRMC,022021.00,A,3644.759368,S,17444.072860,E,0.0,301.9,071020,18.3,E,A,V*6E
{"class":"TPV","mode":3,"time":"2020-10-07T02:20:21.000Z","ept":0.005,"lat":-36.745989467,"lon":174.734547667,"altHAE":93.1000,"altMSL":56.1000,"alt":56.1000,"track":301.9000,"magtrack":283.6000,"magvar":18.3,"speed":0.000,"geoidSep":37.000,"eph":20.900}
$GPGSA,A,2,06,07,11,19,22,28,30,,,,,,1.4,1.1,0.8,1*23
{"class":"TPV","mode":3,"time":"2020-10-07T02:20:21.000Z","ept":0.005,"lat":-36.745989467,"lon":174.734547667,"altHAE":93.1000,"altMSL":56.1000,"alt":56.1000,"epv":18.400,"track":301.9000,"magtrack":283.6000,"magvar":18.3,"speed":0.000,"geoidSep":37.000,"eph":20.900,"sep":26.600}
{"class":"SKY","vdop":0.80,"hdop":1.10,"pdop":1.40}
$GPGSV,3,1,11,03,03,074,38,06,15,348,36,07,18,022,52,11,13,133,36,1*69
$GPGSV,3,2,11,19,43,291,33,22,07,094,42,28,66,165,29,30,47,008,54,1*66
$GPGSV,3,3,11,24,,,,39,,,34,46,,,49,1*60
{"class":"SKY","xdop":1.10,"ydop":0.79,"vdop":0.80,"tdop":1.17,"hdop":1.10,"gdop":2.55,"pdop":1.40,"nSat":11,"uSat":7,"satellites":[{"PRN":3,"el":3.0,"az":74.0,"ss":38.0,"used":false,"gnssid":0,"svid":3},{"PRN":6,"el":15.0,"az":348.0,"ss":36.0,"used":true,"gnssid":0,"svid":6},{"PRN":7,"el":18.0,"az":22.0,"ss":52.0,"used":true,"gnssid":0,"svid":7},{"PRN":11,"el":13.0,"az":133.0,"ss":36.0,"used":true,"gnssid":0,"svid":11},{"PRN":19,"el":43.0,"az":291.0,"ss":33.0,"used":true,"gnssid":0,"svid":19},{"PRN":22,"el":7.0,"az":94.0,"ss":42.0,"used":true,"gnssid":0,"svid":22},{"PRN":28,"el":66.0,"az":165.0,"ss":29.0,"used":true,"gnssid":0,"svid":28},{"PRN":30,"el":47.0,"az":8.0,"ss":54.0,"used":true,"gnssid":0,"svid":30},{"PRN":24,"el":0.0,"az":0.0,"ss":0.0,"used":false,"gnssid":0,"svid":24},{"PRN":39,"el":0.0,"az":0.0,"ss":34.0,"used":false,"gnssid":1,"svid":126},{"PRN":46,"el":0.0,"az":0.0,"ss":49.0,"used":false,"gnssid":1,"svid":133}]}
$GPGGA,022022.00,3644.759371,S,17444.072860,E,1,07,1.1,56.1,M,37.0,M,,*42
{"class":"SKY","xdop":1.10,"ydop":0.79,"vdop":0.80,"tdop":1.17,"hdop":1.10,"gdop":2.55,"pdop":1.40}
$GPVTG,301.9,T,283.6,M,0.0,N,0.0,K,A*27
$GPRMC,022022.00,A,3644.759371,S,17444.072860,E,0.0,301.9,071020,18.3,E,A,V*65
{"class":"TPV","mode":3,"time":"2020-10-07T02:20:22.000Z","ept":0.005,"lat":-36.745989517,"lon":174.734547667,"altHAE":93.1000,"altMSL":56.1000,"alt":56.1000,"epx":16.477,"epy":11.817,"epv":18.400,"track":301.9000,"magtrack":283.6000,"magvar":18.3,"speed":0.000,"climb":0.000,"eps":32.95,"epc":36.80,"geoidSep":37.000,"eph":20.900,"sep":26.600}
$GPGSA,A,2,06,07,11,19,22,28,30,,,,,,1.4,1.1,0.8,1*23
{"class":"TPV","mode":3,"time":"2020-10-07T02:20:22.000Z","ept":0.005,"lat":-36.745989517,"lon":174.734547667,"altHAE":93.1000,"altMSL":56.1000,"alt":56.1000,"epx":16.477,"epy":11.817,"epv":18.400,"track":301.9000,"magtrack":283.6000,"magvar":18.3,"speed":0.000,"climb":0.000,"eps":32.95,"epc":36.80,"geoidSep":37.000,"eph":20.900,"sep":26.600}
{"class":"SKY","xdop":1.10,"ydop":0.79,"vdop":0.80,"tdop":1.17,"hdop":1.10,"gdop":2.55,"pdop":1.40}
$GPGSV,3,1,12,03,03,074,37,06,15,348,37,07,18,022,52,11,13,133,37,1*65
$GPGSV,3,2,12,19,43,291,34,22,07,094,42,28,66,165,27,30,47,008,55,1*6D
$GPGSV,3,3,12,15,06,246,,24,,,,39,,,34,46,,,49,1*51
{"class":"TPV","mode":3,"time":"2020-10-07T02:20:22.000Z","ept":0.005,"lat":-36.745989517,"lon":174.734547667,"altHAE":93.1000,"altMSL":56.1000,"alt":56.1000,"epx":16.477,"epy":11.817,"epv":18.400,"track":301.9000,"magtrack":283.6000,"magvar":18.3,"speed":0.000,"climb":0.000,"eps":32.95,"epc":36.80,"geoidSep":37.000,"eph":20.900,"sep":26.600}
{"class":"SKY","xdop":1.10,"ydop":0.79,"vdop":0.80,"tdop":1.17,"hdop":1.10,"gdop":2.55,"pdop":1.40,"nSat":12,"uSat":7,"satellites":[{"PRN":3,"el":3.0,"az":74.0,"ss":37.0,"used":false,"gnssid":0,"svid":3},{"PRN":6,"el":15.0,"az":348.0,"ss":37.0,"used":true,"gnssid":0,"svid":6},{"PRN":7,"el":18.0,"az":22.0,"ss":52.0,"used":true,"gnssid":0,"svid":7},{"PRN":11,"el":13.0,"az":133.0,"ss":37.0,"used":true,"gnssid":0,"svid":11},{"PRN":19,"el":43.0,"az":291.0,"ss":34.0,"used":true,"gnssid":0,"svid":19},{"PRN":22,"el":7.0,"az":94.0,"ss":42.0,"used":true,"gnssid":0,"svid":22},{"PRN":28,"el":66.0,"az":165.0,"ss":27.0,"used":true,"gnssid":0,"svid":28},{"PRN":30,"el":47.0,"az":8.0,"ss":55.0,"used":true,"gnssid":0,"svid":30},{"PRN":15,"el":6.0,"az":246.0,"ss":0.0,"used":false,"gnssid":0,"svid":15},{"PRN":24,"el":0.0,"az":0.0,"ss":0.0,"used":false,"gnssid":0,"svid":24},{"PRN":39,"el":0.0,"az":0.0,"ss":34.0,"used":false,"gnssid":1,"svid":126},{"PRN":46,"el":0.0,"az":0.0,"ss":49.0,"used":false,"gnssid":1,"svid":133}]}
$GPGGA,022023.00,3644.759375,S,17444.072860,E,1,07,1.1,56.1,M,37.0,M,,*47
{"class":"SKY","xdop":1.10,"ydop":0.79,"vdop":0.80,"tdop":1.17,"hdop":1.10,"gdop":2.55,"pdop":1.40}
$GPVTG,301.9,T,283.6,M,0.0,N,0.0,K,A*27
$GPRMC,022023.00,A,3644.759375,S,17444.072860,E,0.0,301.9,071020,18.3,E,A,V*60
{"class":"TPV","mode":3,"time":"2020-10-07T02:20:23.000Z","ept":0.005,"lat":-36.745989583,"lon":174.734547667,"altHAE":93.1000,"altMSL":56.1000,"alt":56.1000,"epx":16.477,"epy":11.817,"epv":18.400,"track":301.9000,"magtrack":283.6000,"magvar":18.3,"speed":0.000,"climb":0.000,"eps":32.95,"epc":36.80,"geoidSep":37.000,"eph":20.900,"sep":26.600}
$GPGSA,A,2,06,07,11,19,22,28,30,,,,,,1.4,1.1,0.8,1*23
{"class":"TPV","mode":3,"time":"2020-10-07T02:20:23.000Z","ept":0.005,"lat":-36.745989583,"lon":174.734547667,"altHAE":93.1000,"altMSL":56.1000,"alt":56.1000,"epx":16.477,"epy":11.817,"epv":18.400,"track":301.9000,"magtrack":283.6000,"magvar":18.3,"speed":0.000,"climb":0.000,"eps":32.95,"epc":36.80,"geoidSep":37.000,"eph":20.900,"sep":26.600}
{"class":"SKY","xdop":1.10,"ydop":0.79,"vdop":0.80,"tdop":1.17,"hdop":1.10,"gdop":2.55,"pdop":1.40}
$GPGSV,3,1,11,03,03,074,38,06,15,348,37,07,18,022,52,11,13,133,37,1*69
$GPGSV,3,2,11,19,43,291,33,22,07,094,42,30,47,008,54,13,21,278,,1*69
$GPGSV,3,3,11,15,06,246,,39,,,34,46,,,50,1*5C
{"class":"TPV","mode":3,"time":"2020-10-07T02:20:23.000Z","ept":0.005,"lat":-36.745989583,"lon":174.734547667,"altHAE":93.1000,"altMSL":56.1000,"alt":56.1000,"epx":16.477,"epy":11.817,"epv":18.400,"track":301.9000,"magtrack":283.6000,"magvar":18.3,"speed":0.000,"climb":0.000,"eps":32.95,"epc":36.80,"geoidSep":37.000,"eph":20.900,"sep":26.600}
{"class":"SKY","xdop":1.10,"ydop":0.79,"vdop":0.80,"tdop":1.17,"hdop":1.10,"gdop":2.55,"pdop":1.40,"nSat":11,"uSat":6,"satellites":[{"PRN":3,"el":3.0,"az":74.0,"ss":38.0,"used":false,"gnssid":0,"svid":3},{"PRN":6,"el":15.0,"az":348.0,"ss":37.0,"used":true,"gnssid":0,"svid":6},{"PRN":7,"el":18.0,"az":22.0,"ss":52.0,"used":true,"gnssid":0,"svid":7},{"PRN":11,"el":13.0,"az":133.0,"ss":37.0,"used":true,"gnssid":0,"svid":11},{"PRN":19,"el":43.0,"az":291.0,"ss":33.0,"used":true,"gnssid":0,"svid":19},{"PRN":22,"el":7.0,"az":94.0,"ss":42.0,"used":true,"gnssid":0,"svid":22},{"PRN":30,"el":47.0,"az":8.0,"ss":54.0,"used":true,"gnssid":0,"svid":30},{"PRN":13,"el":21.0,"az":278.0,"ss":0.0,"used":false,"gnssid":0,"svid":13},{"PRN":15,"el":6.0,"az":246.0,"ss":0.0,"used":false,"gnssid":0,"svid":15},{"PRN":39,"el":0.0,"az":0.0,"ss":34.0,"used":false,"gnssid":1,"svid":126},{"PRN":46,"el":0.0,"az":0.0,"ss":50.0,"used":false,"gnssid":1,"svid":133}]}
$GPGGA,022024.00,3644.759379,S,17444.072862,E,1,07,1.1,56.1,M,37.0,M,,*4E
{"class":"SKY","xdop":1.10,"ydop":0.79,"vdop":0.80,"tdop":1.17,"hdop":1.10,"gdop":2.55,"pdop":1.40}
$GPVTG,301.9,T,283.6,M,0.0,N,0.0,K,A*27
$GPRMC,022024.00,A,3644.759379,S,17444.072862,E,0.0,301.9,071020,18.3,E,A,V*69
{"class":"TPV","mode":3,"time":"2020-10-07T02:20:24.000Z","ept":0.005,"lat":-36.745989650,"lon":174.734547700,"altHAE":93.1000,"altMSL":56.1000,"alt":56.1000,"epx":16.477,"epy":11.817,"epv":18.400,"track":301.9000,"magtrack":283.6000,"magvar":18.3,"speed":0.000,"climb":0.000,"eps":32.95,"epc":36.80,"geoidSep":37.000,"eph":20.900,"sep":26.600}
$GPGSA,A,2,06,07,11,19,22,28,30,,,,,,1.4,1.1,0.8,1*23
{"class":"TPV","mode":3,"time":"2020-10-07T02:20:24.000Z","ept":0.005,"lat":-36.745989650,"lon":174.734547700,"altHAE":93.1000,"altMSL":56.1000,"alt":56.1000,"epx":16.477,"epy":11.817,"epv":18.400,"track":301.9000,"magtrack":283.6000,"magvar":18.3,"speed":0.000,"climb":0.000,"eps":32.95,"epc":36.80,"geoidSep":37.000,"eph":20.900,"sep":26.600}
{"class":"SKY","xdop":1.10,"ydop":0.79,"vdop":0.80,"tdop":1.17,"hdop":1.10,"gdop":2.55,"pdop":1.40}
$GPGSV,4,1,15,03,03,074,38,06,15,348,37,07,18,022,52,11,13,133,37,1*6A
$GPGSV,4,2,15,15,06,246,26,19,43,291,34,22,07,094,42,28,66,165,25,1*61
$GPGSV,4,3,15,30,47,008,55,01,37,122,,13,21,278,,17,60,275,,1*67
$GPGSV,4,4,15,24,,,,39,,,34,46,,,50,1*6C
{"class":"TPV","mode":3,"time":"2020-10-07T02:20:24.000Z","ept":0.005,"lat":-36.745989650,"lon":174.734547700,"altHAE":93.1000,"altMSL":56.1000,"alt":56.1000,"epx":16.477,"epy":11.817,"epv":18.400,"track":301.9000,"magtrack":283.6000,"magvar":18.3,"speed":0.000,"climb":0.000,"eps":32.95,"epc":36.80,"geoidSep":37.000,"eph":20.900,"sep":26.600}
{"class":"SKY","xdop":1.10,"ydop":0.79,"vdop":0.80,"tdop":1.17,"hdop":1.10,"gdop":2.55,"pdop":1.40,"nSat":15,"uSat":7,"satellites":[{"PRN":3,"el":3.0,"az":74.0,"ss":38.0,"used":false,"gnssid":0,"svid":3},{"PRN":6,"el":15.0,"az":348.0,"ss":37.0,"used":true,"gnssid":0,"svid":6},{"PRN":7,"el":18.0,"az":22.0,"ss":52.0,"used":true,"gnssid":0,"svid":7},{"PRN":11,"el":13.0,"az":133.0,"ss":37.0,"used":true,"gnssid":0,"svid":11},{"PRN":15,"el":6.0,"az":246.0,"ss":26.0,"used":false,"gnssid":0,"svid":15},{"PRN":19,"el":43.0,"az":291.0,"ss":34.0,"used":true,"gnssid":0,"svid":19},{"PRN":22,"el":7.0,"az":94.0,"ss":42.0,"used":true,"gnssid":0,"svid":22},{"PRN":28,"el":66.0,"az":165.0,"ss":25.0,"used":true,"gnssid":0,"svid":28},{"PRN":30,"el":47.0,"az":8.0,"ss":55.0,"used":true,"gnssid":0,"svid":30},{"PRN":1,"el":37.0,"az":122.0,"ss":0.0,"used":false,"gnssid":0,"svid":1},{"PRN":13,"el":21.0,"az":278.0,"ss":0.0,"used":false,"gnssid":0,"svid":13},{"PRN":17,"el":60.0,"az":275.0,"ss":0.0,"used":false,"gnssid":0,"svid":17},{"PRN":24,"el":0.0,"az":0.0,"ss":0.0,"used":false,"gnssid":0,"svid":24},{"PRN":39,"el":0.0,"az":0.0,"ss":34.0,"used":false,"gnssid":1,"svid":126},{"PRN":46,"el":0.0,"az":0.0,"ss":50.0,"used":false,"gnssid":1,"svid":133}]}
$GPGGA,022025.00,3644.759385,S,17444.072857,E,1,07,1.0,56.1,M,37.0,M,,*4B
{"class":"SKY","xdop":1.10,"ydop":0.79,"vdop":0.80,"tdop":1.17,"hdop":1.00,"gdop":2.55,"pdop":1.40}
$GPVTG,301.9,T,283.6,M,0.0,N,0.0,K,A*27
$GPRMC,022025.00,A,3644.759385,S,17444.072857,E,0.0,301.9,071020,18.3,E,A,V*6D
{"class":"TPV","mode":3,"time":"2020-10-07T02:20:25.000Z","ept":0.005,"lat":-36.745989750,"lon":174.734547617,"altHAE":93.1000,"altMSL":56.1000,"alt":56.1000,"epx":16.477,"epy":11.817,"epv":18.400,"track":301.9000,"magtrack":283.6000,"magvar":18.3,"speed":0.000,"climb":0.000,"eps":32.95,"epc":36.80,"geoidSep":37.000,"eph":19.000,"sep":26.600}
$GPGSA,A,2,06,07,11,19,22,28,30,,,,,,1.3,1.0,0.8,1*25
{"class":"TPV","mode":3,"time":"2020-10-07T02:20:25.000Z","ept":0.005,"lat":-36.745989750,"lon":174.734547617,"altHAE":93.1000,"altMSL":56.1000,"alt":56.1000,"epx":16.477,"epy":11.817,"epv":18.400,"track":301.9000,"magtrack":283.6000,"magvar":18.3,"speed":0.000,"climb":0.000,"eps":32.95,"epc":36.80,"geoidSep":37.000,"eph":19.000,"sep":26.600}
{"class":"SKY","xdop":1.10,"ydop":0.79,"vdop":0.80,"tdop":1.17,"hdop":1.00,"gdop":2.55,"pdop":1.30}
$GPGSV,3,1,11,01,37,122,33,03,03,074,38,06,15,348,37,07,18,022,51,1*69
$GPGSV,3,2,11,11,13,133,37,19,43,291,33,22,07,094,43,30,47,008,54,1*63
$GPGSV,3,3,11,13,21,278,,39,,,34,46,,,50,1*52
{"class":"TPV","mode":3,"time":"2020-10-07T02:20:25.000Z","ept":0.005,"lat":-36.745989750,"lon":174.734547617,"altHAE":93.1000,"altMSL":56.1000,"alt":56.1000,"epx":16.477,"epy":11.817,"epv":18.400,"track":301.9000,"magtrack":283.6000,"magvar":18.3,"speed":0.000,"climb":0.000,"eps":32.95,"epc":36.80,"geoidSep":37.000,"eph":19.000,"sep":26.600}
{"class":"SKY","xdop":1.10,"ydop":0.79,"vdop":0.80,"tdop":1.17,"hdop":1.00,"gdop":2.55,"pdop":1.30,"nSat":11,"uSat":7,"satellites":[{"PRN":1,"el":37.0,"az":122.0,"ss":33.0,"used":true,"gnssid":0,"svid":1},{"PRN":3,"el":3.0,"az":74.0,"ss":38.0,"used":false,"gnssid":0,"svid":3},{"PRN":6,"el":15.0,"az":348.0,"ss":37.0,"used":true,"gnssid":0,"svid":6},{"PRN":7,"el":18.0,"az":22.0,"ss":51.0,"used":true,"gnssid":0,"svid":7},{"PRN":11,"el":13.0,"az":133.0,"ss":37.0,"used":true,"gnssid":0,"svid":11},{"PRN":19,"el":43.0,"az":291.0,"ss":33.0,"used":true,"gnssid":0,"svid":19},{"PRN":22,"el":7.0,"az":94.0,"ss":43.0,"used":true,"gnssid":0,"svid":22},{"PRN":30,"el":47.0,"az":8.0,"ss":54.0,"used":true,"gnssid":0,"svid":30},{"PRN":13,"el":21.0,"az":278.0,"ss":0.0,"used":false,"gnssid":0,"svid":13},{"PRN":39,"el":0.0,"az":0.0,"ss":34.0,"used":false,"gnssid":1,"svid":126},{"PRN":46,"el":0.0,"az":0.0,"ss":50.0,"used":false,"gnssid":1,"svid":133}]}
$GPGGA,022026.00,3644.759390,S,17444.072857,E,1,08,1.0,56.1,M,37.0,M,,*43
{"class":"SKY","xdop":1.10,"ydop":0.79,"vdop":0.80,"tdop":1.17,"hdop":1.00,"gdop":2.55,"pdop":1.30}
$GPVTG,301.9,T,283.6,M,0.0,N,0.0,K,A*27
$GPRMC,022026.00,A,3644.759390,S,17444.072857,E,0.0,301.9,071020,18.3,E,A,V*6A
{"class":"TPV","mode":3,"time":"2020-10-07T02:20:26.000Z","ept":0.005,"lat":-36.745989833,"lon":174.734547617,"altHAE":93.1000,"altMSL":56.1000,"alt":56.1000,"epx":16.477,"epy":11.817,"epv":18.400,"track":301.9000,"magtrack":283.6000,"magvar":18.3,"speed":0.000,"climb":0.000,"eps":32.95,"epc":36.80,"geoidSep":37.000,"eph":19.000,"sep":24.700}
$GPGSA,A,2,01,06,07,11,19,22,28,30,,,,,1.2,1.0,0.8,1*25
{"class":"TPV","mode":3,"time":"2020-10-07T02:20:26.000Z","ept":0.005,"lat":-36.745989833,"lon":174.734547617,"altHAE":93.1000,"altMSL":56.1000,"alt":56.1000,"epx":16.477,"epy":11.817,"epv":18.400,"track":301.9000,"magtrack":283.6000,"magvar":18.3,"speed":0.000,"climb":0.000,"eps":32.95,"epc":36.80,"geoidSep":37.000,"eph":19.000,"sep":24.700}
{"class":"SKY","xdop":1.10,"ydop":0.79,"vdop":0.80,"tdop":1.17,"hdop":1.00,"gdop":2.55,"pdop":1.20}
$GPGSV,3,1,11,03,03,074,38,06,15,348,37,07,18,022,52,11,13,133,37,1*69
$GPGSV,3,2,11,15,06,246,28,19,43,291,33,22,07,094,42,28,66,165,26,1*68
$GPGSV,3,3,11,30,47,008,54,39,,,34,46,,,49,1*5F
{"class":"TPV","mode":3,"time":"2020-10-07T02:20:26.000Z","ept":0.005,"lat":-36.745989833,"lon":174.734547617,"altHAE":93.1000,"altMSL":56.1000,"alt":56.1000,"epx":16.477,"epy":11.817,"epv":18.400,"track":301.9000,"magtrack":283.6000,"magvar":18.3,"speed":0.000,"climb":0.000,"eps":32.95,"epc":36.80,"geoidSep":37.000,"eph":19.000,"sep":24.700}
{"class":"SKY","xdop":1.10,"ydop":0.79,"vdop":0.80,"tdop":1.17,"hdop":1.00,"gdop":2.55,"pdop":1.20,"nSat":11,"uSat":7,"satellites":[{"PRN":3,"el":3.0,"az":74.0,"ss":38.0,"used":false,"gnssid":0,"svid":3},{"PRN":6,"el":15.0,"az":348.0,"ss":37.0,"used":true,"gnssid":0,"svid":6},{"PRN":7,"el":18.0,"az":22.0,"ss":52.0,"used":true,"gnssid":0,"svid":7},{"PRN":11,"el":13.0,"az":133.0,"ss":37.0,"used":true,"gnssid":0,"svid":11},{"PRN":15,"el":6.0,"az":246.0,"ss":28.0,"used":false,"gnssid":0,"svid":15},{"PRN":19,"el":43.0,"az":291.0,"ss":33.0,"used":true,"gnssid":0,"svid":19},{"PRN":22,"el":7.0,"az":94.0,"ss":42.0,"used":true,"gnssid":0,"svid":22},{"PRN":28,"el":66.0,"az":165.0,"ss":26.0,"used":true,"gnssid":0,"svid":28},{"PRN":30,"el":47.0,"az":8.0,"ss":54.0,"used":true,"gnssid":0,"svid":30},{"PRN":39,"el":0.0,"az":0.0,"ss":34.0,"used":false,"gnssid":1,"svid":126},{"PRN":46,"el":0.0,"az":0.0,"ss":49.0,"used":false,"gnssid":1,"svid":133}]}
$GPGGA,022027.00,3644.759398,S,17444.072863,E,1,08,0.9,56.1,M,37.0,M,,*45
{"class":"SKY","xdop":1.10,"ydop":0.79,"vdop":0.80,"tdop":1.17,"hdop":0.90,"gdop":2.55,"pdop":1.20}
$GPVTG,301.9,T,283.6,M,0.0,N,0.0,K,A*27
$GPRMC,022027.00,A,3644.759398,S,17444.072863,E,0.0,301.9,071020,18.3,E,A,V*64
{"class":"TPV","mode":3,"time":"2020-10-07T02:20:27.000Z","ept":0.005,"lat":-36.745989967,"lon":174.734547717,"altHAE":93.1000,"altMSL":56.1000,"alt":56.1000,"epx":16.477,"epy":11.817,"epv":18.400,"track":301.9000,"magtrack":283.6000,"magvar":18.3,"speed":0.000,"climb":0.000,"eps":32.95,"epc":36.80,"geoidSep":37.000,"eph":17.100,"sep":22.800}
$GPGSA,A,2,01,06,07,11,19,22,28,30,,,,,1.2,0.9,0.7,1*22
{"class":"TPV","mode":3,"time":"2020-10-07T02:20:27.000Z","ept":0.005,"lat":-36.745989967,"lon":174.734547717,"altHAE":93.1000,"altMSL":56.1000,"alt":56.1000,"epx":16.477,"epy":11.817,"epv":18.400,"track":301.9000,"magtrack":283.6000,"magvar":18.3,"speed":0.000,"climb":0.000,"eps":32.95,"epc":36.80,"geoidSep":37.000,"eph":17.100,"sep":22.800}
{"class":"SKY","xdop":1.10,"ydop":0.79,"vdop":0.70,"tdop":1.17,"hdop":0.90,"gdop":2.55,"pdop":1.20}
$GPGSV,4,1,15,03,03,074,39,06,15,348,37,07,18,022,52,11,13,133,37,1*6B
$GPGSV,4,2,15,15,06,246,26,19,43,291,33,22,07,094,43,28,66,165,26,1*64
$GPGSV,4,3,15,30,47,008,54,01,37,122,,13,21,278,,17,60,275,,1*66
$GPGSV,4,4,15,24,,,,39,,,34,46,,,50,1*6C
{"class":"TPV","mode":3,"time":"2020-10-07T02:20:27.000Z","ept":0.005,"lat":-36.745989967,"lon":174.734547717,"altHAE":93.1000,"altMSL":56.1000,"alt":56.1000,"epx":16.477,"epy":11.817,"epv":18.400,"track":301.9000,"magtrack":283.6000,"magvar":18.3,"speed":0.000,"climb":0.000,"eps":32.95,"epc":36.80,"geoidSep":37.000,"eph":17.100,"sep":22.800}
{"class":"SKY","xdop":1.10,"ydop":0.79,"vdop":0.70,"tdop":1.17,"hdop":0.90,"gdop":2.55,"pdop":1.20,"nSat":15,"uSat":7,"satellites":[{"PRN":3,"el":3.0,"az":74.0,"ss":39.0,"used":false,"gnssid":0,"svid":3},{"PRN":6,"el":15.0,"az":348.0,"ss":37.0,"used":true,"gnssid":0,"svid":6},{"PRN":7,"el":18.0,"az":22.0,"ss":52.0,"used":true,"gnssid":0,"svid":7},{"PRN":11,"el":13.0,"az":133.0,"ss":37.0,"used":true,"gnssid":0,"svid":11},{"PRN":15,"el":6.0,"az":246.0,"ss":26.0,"used":false,"gnssid":0,"svid":15},{"PRN":19,"el":43.0,"az":291.0,"ss":33.0,"used":true,"gnssid":0,"svid":19},{"PRN":22,"el":7.0,"az":94.0,"ss":43.0,"used":true,"gnssid":0,"svid":22},{"PRN":28,"el":66.0,"az":165.0,"ss":26.0,"used":true,"gnssid":0,"svid":28},{"PRN":30,"el":47.0,"az":8.0,"ss":54.0,"used":true,"gnssid":0,"svid":30},{"PRN":1,"el":37.0,"az":122.0,"ss":0.0,"used":false,"gnssid":0,"svid":1},{"PRN":13,"el":21.0,"az":278.0,"ss":0.0,"used":false,"gnssid":0,"svid":13},{"PRN":17,"el":60.0,"az":275.0,"ss":0.0,"used":false,"gnssid":0,"svid":17},{"PRN":24,"el":0.0,"az":0.0,"ss":0.0,"used":false,"gnssid":0,"svid":24},{"PRN":39,"el":0.0,"az":0.0,"ss":34.0,"used":false,"gnssid":1,"svid":126},{"PRN":46,"el":0.0,"az":0.0,"ss":50.0,"used":false,"gnssid":1,"svid":133}]}
$GPGGA,022028.00,3644.759403,S,17444.072863,E,1,08,0.9,56.1,M,37.0,M,,*4F
{"class":"SKY","xdop":1.10,"ydop":0.79,"vdop":0.70,"tdop":1.17,"hdop":0.90,"gdop":2.55,"pdop":1.20}
$GPVTG,301.9,T,283.6,M,0.0,N,0.0,K,A*27
$GPRMC,022028.00,A,3644.759403,S,17444.072863,E,0.0,301.9,071020,18.3,E,A,V*6E
{"class":"TPV","mode":3,"time":"2020-10-07T02:20:28.000Z","ept":0.005,"lat":-36.745990050,"lon":174.734547717,"altHAE":93.1000,"altMSL":56.1000,"alt":56.1000,"epx":16.477,"epy":11.817,"epv":16.100,"track":301.9000,"magtrack":283.6000,"magvar":18.3,"speed":0.000,"climb":0.000,"eps":32.95,"epc":34.50,"geoidSep":37.000,"eph":17.100,"sep":22.800}
$GPGSA,A,2,01,06,07,11,19,22,28,30,,,,,1.2,0.9,0.7,1*22
{"class":"TPV","mode":3,"time":"2020-10-07T02:20:28.000Z","ept":0.005,"lat":-36.745990050,"lon":174.734547717,"altHAE":93.1000,"altMSL":56.1000,"alt":56.1000,"epx":16.477,"epy":11.817,"epv":16.100,"track":301.9000,"magtrack":283.6000,"magvar":18.3,"speed":0.000,"climb":0.000,"eps":32.95,"epc":34.50,"geoidSep":37.000,"eph":17.100,"sep":22.800}
{"class":"SKY","xdop":1.10,"ydop":0.79,"vdop":0.70,"tdop":1.17,"hdop":0.90,"gdop":2.55,"pdop":1.20}
$GPGSV,3,1,12,03,03,074,38,06,15,348,38,07,18,022,52,11,13,133,36,1*64
$GPGSV,3,2,12,15,06,246,27,19,43,291,33,22,07,094,43,28,66,165,26,1*65
$GPGSV,3,3,12,30,47,008,54,13,21,278,,39,,,34,46,,,50,1*68
{"class":"TPV","mode":3,"time":"2020-10-07T02:20:28.000Z","ept":0.005,"lat":-36.745990050,"lon":174.734547717,"altHAE":93.1000,"altMSL":56.1000,"alt":56.1000,"epx":16.477,"epy":11.817,"epv":16.100,"track":301.9000,"magtrack":283.6000,"magvar":18.3,"speed":0.000,"climb":0.000,"eps":32.95,"epc":34.50,"geoidSep":37.000,"eph":17.100,"sep":22.800}
{"class":"SKY","xdop":1.10,"ydop":0.79,"vdop":0.70,"tdop":1.17,"hdop":0.90,"gdop":2.55,"pdop":1.20,"nSat":12,"uSat":7,"satellites":[{"PRN":3,"el":3.0,"az":74.0,"ss":38.0,"used":false,"gnssid":0,"svid":3},{"PRN":6,"el":15.0,"az":348.0,"ss":38.0,"used":true,"gnssid":0,"svid":6},{"PRN":7,"el":18.0,"az":22.0,"ss":52.0,"used":true,"gnssid":0,"svid":7},{"PRN":11,"el":13.0,"az":133.0,"ss":36.0,"used":true,"gnssid":0,"svid":11},{"PRN":15,"el":6.0,"az":246.0,"ss":27.0,"used":false,"gnssid":0,"svid":15},{"PRN":19,"el":43.0,"az":291.0,"ss":33.0,"used":true,"gnssid":0,"svid":19},{"PRN":22,"el":7.0,"az":94.0,"ss":43.0,"used":true,"gnssid":0,"svid":22},{"PRN":28,"el":66.0,"az":165.0,"ss":26.0,"used":true,"gnssid":0,"svid":28},{"PRN":30,"el":47.0,"az":8.0,"ss":54.0,"used":true,"gnssid":0,"svid":30},{"PRN":13,"el":21.0,"az":278.0,"ss":0.0,"used":false,"gnssid":0,"svid":13},{"PRN":39,"el":0.0,"az":0.0,"ss":34.0,"used":false,"gnssid":1,"svid":126},{"PRN":46,"el":0.0,"az":0.0,"ss":50.0,"used":false,"gnssid":1,"svid":133}]}
$GPGGA,022029.00,3644.759411,S,17444.072855,E,1,08,0.9,56.0,M,37.0,M,,*49
{"class":"SKY","xdop":1.10,"ydop":0.79,"vdop":0.70,"tdop":1.17,"hdop":0.90,"gdop":2.55,"pdop":1.20}
$GPVTG,301.9,T,283.6,M,0.0,N,0.0,K,A*27
$GPRMC,022029.00,A,3644.759411,S,17444.072855,E,0.0,301.9,071020,18.3,E,A,V*69
{"class":"TPV","mode":3,"time":"2020-10-07T02:20:29.000Z","ept":0.005,"lat":-36.745990183,"lon":174.734547583,"altHAE":93.0000,"altMSL":56.0000,"alt":56.0000,"epx":16.477,"epy":11.817,"epv":16.100,"track":301.9000,"magtrack":283.6000,"magvar":18.3,"speed":0.000,"climb":-0.100,"eps":32.95,"epc":32.20,"geoidSep":37.000,"eph":17.100,"sep":22.800}
$GPGSA,A,2,01,06,07,11,19,22,28,30,,,,,1.2,0.9,0.7,1*22
{"class":"TPV","mode":3,"time":"2020-10-07T02:20:29.000Z","ept":0.005,"lat":-36.745990183,"lon":174.734547583,"altHAE":93.0000,"altMSL":56.0000,"alt":56.0000,"epx":16.477,"epy":11.817,"epv":16.100,"track":301.9000,"magtrack":283.6000,"magvar":18.3,"speed":0.000,"climb":-0.100,"eps":32.95,"epc":32.20,"geoidSep":37.000,"eph":17.100,"sep":22.800}
{"class":"SKY","xdop":1.10,"ydop":0.79,"vdop":0.70,"tdop":1.17,"hdop":0.90,"gdop":2.55,"pdop":1.20}
$GPGSV,3,1,12,03,03,074,38,06,15,348,37,07,18,022,51,11,13,133,37,1*69
$GPGSV,3,2,12,15,06,246,27,19,43,291,32,22,07,094,43,30,47,008,54,1*61
$GPGSV,3,3,12,13,21,278,,28,66,165,,39,,,34,46,,,50,1*69
{"class":"TPV","mode":3,"time":"2020-10-07T02:20:29.000Z","ept":0.005,"lat":-36.745990183,"lon":174.734547583,"altHAE":93.0000,"altMSL":56.0000,"alt":56.0000,"epx":16.477,"epy":11.817,"epv":16.100,"track":301.9000,"magtrack":283.6000,"magvar":18.3,"speed":0.000,"climb":-0.100,"eps":32.95,"epc":32.20,"geoidSep":37.000,"eph":17.100,"sep":22.800}
{"class":"SKY","xdop":1.10,"ydop":0.79,"vdop":0.70,"tdop":1.17,"hdop":0.90,"gdop":2.55,"pdop":1.20,"nSat":12,"uSat":6,"satellites":[{"PRN":3,"el":3.0,"az":74.0,"ss":38.0,"used":false,"gnssid":0,"svid":3},{"PRN":6,"el":15.0,"az":348.0,"ss":37.0,"used":true,"gnssid":0,"svid":6},{"PRN":7,"el":18.0,"az":22.0,"ss":51.0,"used":true,"gnssid":0,"svid":7},{"PRN":11,"el":13.0,"az":133.0,"ss":37.0,"used":true,"gnssid":0,"svid":11},{"PRN":15,"el":6.0,"az":246.0,"ss":27.0,"used":false,"gnssid":0,"svid":15},{"PRN":19,"el":43.0,"az":291.0,"ss":32.0,"used":true,"gnssid":0,"svid":19},{"PRN":22,"el":7.0,"az":94.0,"ss":43.0,"used":true,"gnssid":0,"svid":22},{"PRN":30,"el":47.0,"az":8.0,"ss":54.0,"used":true,"gnssid":0,"svid":30},{"PRN":13,"el":21.0,"az":278.0,"ss":0.0,"used":false,"gnssid":0,"svid":13},{"PRN":28,"el":66.0,"az":165.0,"ss":0.0,"used":false,"gnssid":0,"svid":28},{"PRN":39,"el":0.0,"az":0.0,"ss":34.0,"used":false,"gnssid":1,"svid":126},{"PRN":46,"el":0.0,"az":0.0,"ss":50.0,"used":false,"gnssid":1,"svid":133}]}
$GPGGA,022030.00,3644.759416,S,17444.072856,E,1,08,0.9,56.0,M,37.0,M,,*45
{"class":"SKY","xdop":1.10,"ydop":0.79,"vdop":0.70,"tdop":1.17,"hdop":0.90,"gdop":2.55,"pdop":1.20}
$GPVTG,301.9,T,283.6,M,0.0,N,0.0,K,A*27
$GPRMC,022030.00,A,3644.759416,S,17444.072856,E,0.0,301.9,071020,18.3,E,A,V*65
{"class":"TPV","mode":3,"time":"2020-10-07T02:20:30.000Z","ept":0.005,"lat":-36.745990267,"lon":174.734547600,"altHAE":93.0000,"altMSL":56.0000,"alt":56.0000,"epx":16.477,"epy":11.817,"epv":16.100,"track":301.9000,"magtrack":283.6000,"magvar":18.3,"speed":0.000,"climb":0.000,"eps":32.95,"epc":32.20,"geoidSep":37.000,"eph":17.100,"sep":22.800}
$GPGSA,A,2,01,06,07,11,19,22,28,30,,,,,1.2,0.9,0.7,1*22
{"class":"TPV","mode":3,"time":"2020-10-07T02:20:30.000Z","ept":0.005,"lat":-36.745990267,"lon":174.734547600,"altHAE":93.0000,"altMSL":56.0000,"alt":56.0000,"epx":16.477,"epy":11.817,"epv":16.100,"track":301.9000,"magtrack":283.6000,"magvar":18.3,"speed":0.000,"climb":0.000,"eps":32.95,"epc":32.20,"geoidSep":37.000,"eph":17.100,"sep":22.800}
{"class":"SKY","xdop":1.10,"ydop":0.79,"vdop":0.70,"tdop":1.17,"hdop":0.90,"gdop":2.55,"pdop":1.20}
$GPGSV,4,1,15,03,03,074,38,06,15,348,37,07,18,022,51,11,13,133,37,1*69
$GPGSV,4,2,15,15,06,246,26,19,43,291,32,22,07,094,43,28,66,165,27,1*64
$GPGSV,4,3,15,30,47,008,54,01,37,122,,13,21,278,,17,60,275,,1*66
$GPGSV,4,4,15,24,,,,39,,,34,46,,,50,1*6C
{"class":"TPV","mode":3,"time":"2020-10-07T02:20:30.000Z","ept":0.005,"lat":-36.745990267,"lon":174.734547600,"altHAE":93.0000,"altMSL":56.0000,"alt":56.0000,"epx":16.477,"epy":11.817,"epv":16.100,"track":301.9000,"magtrack":283.6000,"magvar":18.3,"speed":0.000,"climb":0.000,"eps":32.95,"epc":32.20,"geoidSep":37.000,"eph":17.100,"sep":22.800}
{"class":"SKY","xdop":1.10,"ydop":0.79,"vdop":0.70,"tdop":1.17,"hdop":0.90,"gdop":2.55,"pdop":1.20,"nSat":15,"uSat":7,"satellites":[{"PRN":3,"el":3.0,"az":74.0,"ss":38.0,"used":false,"gnssid":0,"svid":3},{"PRN":6,"el":15.0,"az":348.0,"ss":37.0,"used":true,"gnssid":0,"svid":6},{"PRN":7,"el":18.0,"az":22.0,"ss":51.0,"used":true,"gnssid":0,"svid":7},{"PRN":11,"el":13.0,"az":133.0,"ss":37.0,"used":true,"gnssid":0,"svid":11},{"PRN":15,"el":6.0,"az":246.0,"ss":26.0,"used":false,"gnssid":0,"svid":15},{"PRN":19,"el":43.0,"az":291.0,"ss":32.0,"used":true,"gnssid":0,"svid":19},{"PRN":22,"el":7.0,"az":94.0,"ss":43.0,"used":true,"gnssid":0,"svid":22},{"PRN":28,"el":66.0,"az":165.0,"ss":27.0,"used":true,"gnssid":0,"svid":28},{"PRN":30,"el":47.0,"az":8.0,"ss":54.0,"used":true,"gnssid":0,"svid":30},{"PRN":1,"el":37.0,"az":122.0,"ss":0.0,"used":false,"gnssid":0,"svid":1},{"PRN":13,"el":21.0,"az":278.0,"ss":0.0,"used":false,"gnssid":0,"svid":13},{"PRN":17,"el":60.0,"az":275.0,"ss":0.0,"used":false,"gnssid":0,"svid":17},{"PRN":24,"el":0.0,"az":0.0,"ss":0.0,"used":false,"gnssid":0,"svid":24},{"PRN":39,"el":0.0,"az":0.0,"ss":34.0,"used":false,"gnssid":1,"svid":126},{"PRN":46,"el":0.0,"az":0.0,"ss":50.0,"used":false,"gnssid":1,"svid":133}]}
$GPGGA,022031.00,3644.759420,S,17444.072855,E,1,08,0.9,56.0,M,37.0,M,,*42
{"class":"SKY","xdop":1.10,"ydop":0.79,"vdop":0.70,"tdop":1.17,"hdop":0.90,"gdop":2.55,"pdop":1.20}
$GPVTG,301.9,T,283.6,M,0.0,N,0.0,K,A*27
$GPRMC,022031.00,A,3644.759420,S,17444.072855,E,0.0,301.9,071020,18.3,E,A,V*62
{"class":"TPV","mode":3,"time":"2020-10-07T02:20:31.000Z","ept":0.005,"lat":-36.745990333,"lon":174.734547583,"altHAE":93.0000,"altMSL":56.0000,"alt":56.0000,"epx":16.477,"epy":11.817,"epv":16.100,"track":301.9000,"magtrack":283.6000,"magvar":18.3,"speed":0.000,"climb":0.000,"eps":32.95,"epc":32.20,"geoidSep":37.000,"eph":17.100,"sep":22.800}
$GPGSA,A,2,01,06,07,11,19,22,28,30,,,,,1.2,0.9,0.7,1*22
{"class":"TPV","mode":3,"time":"2020-10-07T02:20:31.000Z","ept":0.005,"lat":-36.745990333,"lon":174.734547583,"altHAE":93.0000,"altMSL":56.0000,"alt":56.0000,"epx":16.477,"epy":11.817,"epv":16.100,"track":301.9000,"magtrack":283.6000,"magvar":18.3,"speed":0.000,"climb":0.000,"eps":32.95,"epc":32.20,"geoidSep":37.000,"eph":17.100,"sep":22.800}
{"class":"SKY","xdop":1.10,"ydop":0.79,"vdop":0.70,"tdop":1.17,"hdop":0.90,"gdop":2.55,"pdop":1.20}
$GPGSV,3,1,12,03,03,074,38,06,15,348,37,07,18,022,52,11,13,133,37,1*6A
$GPGSV,3,2,12,15,06,246,26,19,43,291,32,22,07,094,43,28,66,165,27,1*64
$GPGSV,3,3,12,30,47,008,54,13,21,278,,39,,,34,46,,,49,1*60
{"class":"TPV","mode":3,"time":"2020-10-07T02:20:31.000Z","ept":0.005,"lat":-36.745990333,"lon":174.734547583,"altHAE":93.0000,"altMSL":56.0000,"alt":56.0000,"epx":16.477,"epy":11.817,"epv":16.100,"track":301.9000,"magtrack":283.6000,"magvar":18.3,"speed":0.000,"climb":0.000,"eps":32.95,"epc":32.20,"geoidSep":37.000,"eph":17.100,"sep":22.800}
{"class":"SKY","xdop":1.10,"ydop":0.79,"vdop":0.70,"tdop":1.17,"hdop":0.90,"gdop":2.55,"pdop":1.20,"nSat":12,"uSat":7,"satellites":[{"PRN":3,"el":3.0,"az":74.0,"ss":38.0,"used":false,"gnssid":0,"svid":3},{"PRN":6,"el":15.0,"az":348.0,"ss":37.0,"used":true,"gnssid":0,"svid":6},{"PRN":7,"el":18.0,"az":22.0,"ss":52.0,"used":true,"gnssid":0,"svid":7},{"PRN":11,"el":13.0,"az":133.0,"ss":37.0,"used":true,"gnssid":0,"svid":11},{"PRN":15,"el":6.0,"az":246.0,"ss":26.0,"used":false,"gnssid":0,"svid":15},{"PRN":19,"el":43.0,"az":291.0,"ss":32.0,"used":true,"gnssid":0,"svid":19},{"PRN":22,"el":7.0,"az":94.0,"ss":43.0,"used":true,"gnssid":0,"svid":22},{"PRN":28,"el":66.0,"az":165.0,"ss":27.0,"used":true,"gnssid":0,"svid":28},{"PRN":30,"el":47.0,"az":8.0,"ss":54.0,"used":true,"gnssid":0,"svid":30},{"PRN":13,"el":21.0,"az":278.0,"ss":0.0,"used":false,"gnssid":0,"svid":13},{"PRN":39,"el":0.0,"az":0.0,"ss":34.0,"used":false,"gnssid":1,"svid":126},{"PRN":46,"el":0.0,"az":0.0,"ss":49.0,"used":false,"gnssid":1,"svid":133}]}
$GPGGA,022032.00,3644.759425,S,17444.072853,E,1,07,0.9,56.0,M,37.0,M,,*4D
{"class":"SKY","xdop":1.10,"ydop":0.79,"vdop":0.70,"tdop":1.17,"hdop":0.90,"gdop":2.55,"pdop":1.20}
$GPVTG,301.9,T,283.6,M,0.0,N,0.0,K,A*27
$GPRMC,022032.00,A,3644.759425,S,17444.072853,E,0.0,301.9,071020,18.3,E,A,V*62
{"class":"TPV","mode":3,"time":"2020-10-07T02:20:32.000Z","ept":0.005,"lat":-36.745990417,"lon":174.734547550,"altHAE":93.0000,"altMSL":56.0000,"alt":56.0000,"epx":16.477,"epy":11.817,"epv":16.100,"track":301.9000,"magtrack":283.6000,"magvar":18.3,"speed":0.000,"climb":0.000,"eps":32.95,"epc":32.20,"geoidSep":37.000,"eph":17.100,"sep":22.800}
$GPGSA,A,2,06,07,11,19,22,28,30,,,,,,1.2,0.9,0.7,1*23
{"class":"TPV","mode":3,"time":"2020-10-07T02:20:32.000Z","ept":0.005,"lat":-36.745990417,"lon":174.734547550,"altHAE":93.0000,"altMSL":56.0000,"alt":56.0000,"epx":16.477,"epy":11.817,"epv":16.100,"track":301.9000,"magtrack":283.6000,"magvar":18.3,"speed":0.000,"climb":0.000,"eps":32.95,"epc":32.20,"geoidSep":37.000,"eph":17.100,"sep":22.800}
{"class":"SKY","xdop":1.10,"ydop":0.79,"vdop":0.70,"tdop":1.17,"hdop":0.90,"gdop":2.55,"pdop":1.20}
$GPGGA,022033.00,3644.759427,S,17444.072852,E,1,07,0.9,56.0,M,37.0,M,,*4F
{"class":"SKY","xdop":1.10,"ydop":0.79,"vdop":0.70,"tdop":1.17,"hdop":0.90,"gdop":2.55,"pdop":1.20}
$GPVTG,301.9,T,283.6,M,0.0,N,0.0,K,A*27
$GPRMC,022033.00,A,3644.759427,S,17444.072852,E,0.0,301.9,071020,18.3,E,A,V*60
{"class":"TPV","mode":3,"time":"2020-10-07T02:20:33.000Z","ept":0.005,"lat":-36.745990450,"lon":174.734547533,"altHAE":93.0000,"altMSL":56.0000,"alt":56.0000,"epx":16.477,"epy":11.817,"epv":16.100,"track":301.9000,"magtrack":283.6000,"magvar":18.3,"speed":0.000,"climb":0.000,"eps":32.95,"epc":32.20,"geoidSep":37.000,"eph":17.100,"sep":22.800}
$GPGSA,A,2,06,07,11,19,22,28,30,,,,,,1.2,0.9,0.7,1*23
{"class":"TPV","mode":3,"time":"2020-10-07T02:20:33.000Z","ept":0.005,"lat":-36.745990450,"lon":174.734547533,"altHAE":93.0000,"altMSL":56.0000,"alt":56.0000,"epx":16.477,"epy":11.817,"epv":16.100,"track":301.9000,"magtrack":283.6000,"magvar":18.3,"speed":0.000,"climb":0.000,"eps":32.95,"epc":32.20,"geoidSep":37.000,"eph":17.100,"sep":22.800}
{"class":"SKY","xdop":1.10,"ydop":0.79,"vdop":0.70,"tdop":1.17,"hdop":0.90,"gdop":2.55,"pdop":1.20}
$GPGSV,2,1,06,01,37,122,,13,21,278,,17,60,275,,24,,,,1*5F
$GPGSV,2,2,06,28,66,165,,39,,,34,1*57
{"class":"TPV","mode":3,"time":"2020-10-07T02:20:33.000Z","ept":0.005,"lat":-36.745990450,"lon":174.734547533,"altHAE":93.0000,"altMSL":56.0000,"alt":56.0000,"epx":16.477,"epy":11.817,"epv":16.100,"track":301.9000,"magtrack":283.6000,"magvar":18.3,"speed":0.000,"climb":0.000,"eps":32.95,"epc":32.20,"geoidSep":37.000,"eph":17.100,"sep":22.800}
{"class":"SKY","xdop":1.10,"ydop":0.79,"vdop":0.70,"tdop":1.17,"hdop":0.90,"gdop":2.55,"pdop":1.20,"nSat":6,"uSat":0,"satellites":[{"PRN":1,"el":37.0,"az":122.0,"ss":0.0,"used":false,"gnssid":0,"svid":1},{"PRN":13,"el":21.0,"az":278.0,"ss":0.0,"used":false,"gnssid":0,"svid":13},{"PRN":17,"el":60.0,"az":275.0,"ss":0.0,"used":false,"gnssid":0,"svid":17},{"PRN":24,"el":0.0,"az":0.0,"ss":0.0,"used":false,"gnssid":0,"svid":24},{"PRN":28,"el":66.0,"az":165.0,"ss":0.0,"used":false,"gnssid":0,"svid":28},{"PRN":39,"el":0.0,"az":0.0,"ss":34.0,"used":false,"gnssid":1,"svid":126}]}
$GPGGA,022034.00,3644.759428,S,17444.072852,E,1,07,0.9,56.0,M,37.0,M,,*47
{"class":"SKY","xdop":1.10,"ydop":0.79,"vdop":0.70,"tdop":1.17,"hdop":0.90,"gdop":2.55,"pdop":1.20}
$GPVTG,301.9,T,283.6,M,0.0,N,0.0,K,A*27
$GPRMC,022034.00,A,3644.759428,S,17444.072852,E,0.0,301.9,071020,18.3,E,A,V*68
{"class":"TPV","mode":3,"time":"2020-10-07T02:20:34.000Z","ept":0.005,"lat":-36.745990467,"lon":174.734547533,"altHAE":93.0000,"altMSL":56.0000,"alt":56.0000,"epx":16.477,"epy":11.817,"epv":16.100,"track":301.9000,"magtrack":283.6000,"magvar":18.3,"speed":0.000,"climb":0.000,"eps":32.95,"epc":32.20,"geoidSep":37.000,"eph":17.100,"sep":22.800}
$GPGSA,A,2,06,07,11,19,22,28,30,,,,,,1.2,0.9,0.7,1*23
{"class":"TPV","mode":3,"time":"2020-10-07T02:20:34.000Z","ept":0.005,"lat":-36.745990467,"lon":174.734547533,"altHAE":93.0000,"altMSL":56.0000,"alt":56.0000,"epx":16.477,"epy":11.817,"epv":16.100,"track":301.9000,"magtrack":283.6000,"magvar":18.3,"speed":0.000,"climb":0.000,"eps":32.95,"epc":32.20,"geoidSep":37.000,"eph":17.100,"sep":22.800}
{"class":"SKY","xdop":1.10,"ydop":0.79,"vdop":0.70,"tdop":1.17,"hdop":0.90,"gdop":2.55,"pdop":1.20}
$GPGSV,2,1,06,01,37,122,,13,21,278,,17,60,275,,24,,,,1*5F
$GPGSV,2,2,06,28,66,165,,39,,,34,1*57
{"class":"TPV","mode":3,"time":"2020-10-07T02:20:34.000Z","ept":0.005,"lat":-36.745990467,"lon":174.734547533,"altHAE":93.0000,"altMSL":56.0000,"alt":56.0000,"epx":16.477,"epy":11.817,"epv":16.100,"track":301.9000,"magtrack":283.6000,"magvar":18.3,"speed":0.000,"climb":0.000,"eps":32.95,"epc":32.20,"geoidSep":37.000,"eph":17.100,"sep":22.800}
{"class":"SKY","xdop":1.10,"ydop":0.79,"vdop":0.70,"tdop":1.17,"hdop":0.90,"gdop":2.55,"pdop":1.20,"nSat":6,"uSat":0,"satellites":[{"PRN":1,"el":37.0,"az":122.0,"ss":0.0,"used":false,"gnssid":0,"svid":1},{"PRN":13,"el":21.0,"az":278.0,"ss":0.0,"used":false,"gnssid":0,"svid":13},{"PRN":17,"el":60.0,"az":275.0,"ss":0.0,"used":false,"gnssid":0,"svid":17},{"PRN":24,"el":0.0,"az":0.0,"ss":0.0,"used":false,"gnssid":0,"svid":24},{"PRN":28,"el":66.0,"az":165.0,"ss":0.0,"used":false,"gnssid":0,"svid":28},{"PRN":39,"el":0.0,"az":0.0,"ss":34.0,"used":false,"gnssid":1,"svid":126}]}
$GPGGA,022035.00,3644.759429,S,17444.072851,E,1,07,0.9,56.0,M,37.0,M,,*44
{"class":"SKY","xdop":1.10,"ydop":0.79,"vdop":0.70,"tdop":1.17,"hdop":0.90,"gdop":2.55,"pdop":1.20}
$GPVTG,301.9,T,283.6,M,0.0,N,0.0,K,A*27
$GPRMC,022035.00,A,3644.759429,S,17444.072851,E,0.0,301.9,071020,18.3,E,A,V*6B
{"class":"TPV","mode":3,"time":"2020-10-07T02:20:35.000Z","ept":0.005,"lat":-36.745990483,"lon":174.734547517,"altHAE":93.0000,"altMSL":56.0000,"alt":56.0000,"epx":16.477,"epy":11.817,"epv":16.100,"track":301.9000,"magtrack":283.6000,"magvar":18.3,"speed":0.000,"climb":0.000,"eps":32.95,"epc":32.20,"geoidSep":37.000,"eph":17.100,"sep":22.800}
$GPGSA,A,2,06,07,11,19,22,28,30,,,,,,1.2,0.9,0.7,1*23
{"class":"TPV","mode":3,"time":"2020-10-07T02:20:35.000Z","ept":0.005,"lat":-36.745990483,"lon":174.734547517,"altHAE":93.0000,"altMSL":56.0000,"alt":56.0000,"epx":16.477,"epy":11.817,"epv":16.100,"track":301.9000,"magtrack":283.6000,"magvar":18.3,"speed":0.000,"climb":0.000,"eps":32.95,"epc":32.20,"geoidSep":37.000,"eph":17.100,"sep":22.800}
{"class":"SKY","xdop":1.10,"ydop":0.79,"vdop":0.70,"tdop":1.17,"hdop":0.90,"gdop":2.55,"pdop":1.20}
$GPGSV,2,1,06,01,37,122,,13,21,278,,17,60,275,,24,,,,1*5F
$GPGSV,2,2,06,28,66,165,,39,,,34,1*57
{"class":"TPV","mode":3,"time":"2020-10-07T02:20:35.000Z","ept":0.005,"lat":-36.745990483,"lon":174.734547517,"altHAE":93.0000,"altMSL":56.0000,"alt":56.0000,"epx":16.477,"epy":11.817,"epv":16.100,"track":301.9000,"magtrack":283.6000,"magvar":18.3,"speed":0.000,"climb":0.000,"eps":32.95,"epc":32.20,"geoidSep":37.000,"eph":17.100,"sep":22.800}
{"class":"SKY","xdop":1.10,"ydop":0.79,"vdop":0.70,"tdop":1.17,"hdop":0.90,"gdop":2.55,"pdop":1.20,"nSat":6,"uSat":0,"satellites":[{"PRN":1,"el":37.0,"az":122.0,"ss":0.0,"used":false,"gnssid":0,"svid":1},{"PRN":13,"el":21.0,"az":278.0,"ss":0.0,"used":false,"gnssid":0,"svid":13},{"PRN":17,"el":60.0,"az":275.0,"ss":0.0,"used":false,"gnssid":0,"svid":17},{"PRN":24,"el":0.0,"az":0.0,"ss":0.0,"used":false,"gnssid":0,"svid":24},{"PRN":28,"el":66.0,"az":165.0,"ss":0.0,"used":false,"gnssid":0,"svid":28},{"PRN":39,"el":0.0,"az":0.0,"ss":34.0,"used":false,"gnssid":1,"svid":126}]}
$GPGGA,022036.00,3644.759429,S,17444.072851,E,1,07,0.9,56.0,M,37.0,M,,*47
{"class":"SKY","xdop":1.10,"ydop":0.79,"vdop":0.70,"tdop":1.17,"hdop":0.90,"gdop":2.55,"pdop":1.20}
$GPVTG,301.9,T,283.6,M,0.0,N,0.0,K,A*27
$GPRMC,022036.00,A,3644.759429,S,17444.072851,E,0.0,301.9,071020,18.3,E,A,V*68
{"class":"TPV","mode":3,"time":"2020-10-07T02:20:36.000Z","ept":0.005,"lat":-36.745990483,"lon":174.734547517,"altHAE":93.0000,"altMSL":56.0000,"alt":56.0000,"epx":16.477,"epy":11.817,"epv":16.100,"track":301.9000,"magtrack":283.6000,"magvar":18.3,"speed":0.000,"climb":0.000,"eps":32.95,"epc":32.20,"geoidSep":37.000,"eph":17.100,"sep":22.800}
$GPGSA,A,2,06,07,11,19,22,28,30,,,,,,1.2,0.9,0.7,1*23
{"class":"TPV","mode":3,"time":"2020-10-07T02:20:36.000Z","ept":0.005,"lat":-36.745990483,"lon":174.734547517,"altHAE":93.0000,"altMSL":56.0000,"alt":56.0000,"epx":16.477,"epy":11.817,"epv":16.100,"track":301.9000,"magtrack":283.6000,"magvar":18.3,"speed":0.000,"climb":0.000,"eps":32.95,"epc":32.20,"geoidSep":37.000,"eph":17.100,"sep":22.800}
{"class":"SKY","xdop":1.10,"ydop":0.79,"vdop":0.70,"tdop":1.17,"hdop":0.90,"gdop":2.55,"pdop":1.20}
$GPGSV,2,1,06,01,37,122,,13,21,278,,17,60,275,,24,,,,1*5F
$GPGSV,2,2,06,28,66,165,,39,,,34,1*57
{"class":"TPV","mode":3,"time":"2020-10-07T02:20:36.000Z","ept":0.005,"lat":-36.745990483,"lon":174.734547517,"altHAE":93.0000,"altMSL":56.0000,"alt":56.0000,"epx":16.477,"epy":11.817,"epv":16.100,"track":301.9000,"magtrack":283.6000,"magvar":18.3,"speed":0.000,"climb":0.000,"eps":32.95,"epc":32.20,"geoidSep":37.000,"eph":17.100,"sep":22.800}
{"class":"SKY","xdop":1.10,"ydop":0.79,"vdop":0.70,"tdop":1.17,"hdop":0.90,"gdop":2.55,"pdop":1.20,"nSat":6,"uSat":0,"satellites":[{"PRN":1,"el":37.0,"az":122.0,"ss":0.0,"used":false,"gnssid":0,"svid":1},{"PRN":13,"el":21.0,"az":278.0,"ss":0.0,"used":false,"gnssid":0,"svid":13},{"PRN":17,"el":60.0,"az":275.0,"ss":0.0,"used":false,"gnssid":0,"svid":17},{"PRN":24,"el":0.0,"az":0.0,"ss":0.0,"used":false,"gnssid":0,"svid":24},{"PRN":28,"el":66.0,"az":165.0,"ss":0.0,"used":false,"gnssid":0,"svid":28},{"PRN":39,"el":0.0,"az":0.0,"ss":34.0,"used":false,"gnssid":1,"svid":126}]}
$GPGGA,022037.00,3644.759429,S,17444.072851,E,1,06,1.1,56.0,M,37.0,M,,*4E
{"class":"SKY","xdop":1.10,"ydop":0.79,"vdop":0.70,"tdop":1.17,"hdop":1.10,"gdop":2.55,"pdop":1.20}
$GPVTG,301.9,T,283.6,M,0.0,N,0.0,K,A*27
$GPRMC,022037.00,A,3644.759429,S,17444.072851,E,0.0,301.9,071020,18.3,E,A,V*69
{"class":"TPV","mode":3,"time":"2020-10-07T02:20:37.000Z","ept":0.005,"lat":-36.745990483,"lon":174.734547517,"altHAE":93.0000,"altMSL":56.0000,"alt":56.0000,"epx":16.477,"epy":11.817,"epv":16.100,"track":301.9000,"magtrack":283.6000,"magvar":18.3,"speed":0.000,"climb":0.000,"eps":32.95,"epc":32.20,"geoidSep":37.000,"eph":20.900,"sep":22.800}
$GPGSA,A,2,06,07,11,19,22,30,,,,,,,1.4,1.1,0.9,1*28
{"class":"TPV","mode":3,"time":"2020-10-07T02:20:37.000Z","ept":0.005,"lat":-36.745990483,"lon":174.734547517,"altHAE":93.0000,"altMSL":56.0000,"alt":56.0000,"epx":16.477,"epy":11.817,"epv":16.100,"track":301.9000,"magtrack":283.6000,"magvar":18.3,"speed":0.000,"climb":0.000,"eps":32.95,"epc":32.20,"geoidSep":37.000,"eph":20.900,"sep":22.800}
{"class":"SKY","xdop":1.10,"ydop":0.79,"vdop":0.90,"tdop":1.17,"hdop":1.10,"gdop":2.55,"pdop":1.40}
$GPGSV,2,1,06,01,37,122,,13,21,278,,17,60,275,,24,,,,1*5F
$GPGSV,2,2,06,28,66,165,,39,,,34,1*57
{"class":"TPV","mode":3,"time":"2020-10-07T02:20:37.000Z","ept":0.005,"lat":-36.745990483,"lon":174.734547517,"altHAE":93.0000,"altMSL":56.0000,"alt":56.0000,"epx":16.477,"epy":11.817,"epv":16.100,"track":301.9000,"magtrack":283.6000,"magvar":18.3,"speed":0.000,"climb":0.000,"eps":32.95,"epc":32.20,"geoidSep":37.000,"eph":20.900,"sep":22.800}
{"class":"SKY","xdop":1.10,"ydop":0.79,"vdop":0.90,"tdop":1.17,"hdop":1.10,"gdop":2.55,"pdop":1.40,"nSat":6,"uSat":0,"satellites":[{"PRN":1,"el":37.0,"az":122.0,"ss":0.0,"used":false,"gnssid":0,"svid":1},{"PRN":13,"el":21.0,"az":278.0,"ss":0.0,"used":false,"gnssid":0,"svid":13},{"PRN":17,"el":60.0,"az":275.0,"ss":0.0,"used":false,"gnssid":0,"svid":17},{"PRN":24,"el":0.0,"az":0.0,"ss":0.0,"used":false,"gnssid":0,"svid":24},{"PRN":28,"el":66.0,"az":165.0,"ss":0.0,"used":false,"gnssid":0,"svid":28},{"PRN":39,"el":0.0,"az":0.0,"ss":34.0,"used":false,"gnssid":1,"svid":126}]}
$GPGGA,022038.00,3644.762563,S,17444.069733,E,1,06,1.1,53.0,M,37.0,M,,*42
{"class":"SKY","xdop":1.10,"ydop":0.79,"vdop":0.90,"tdop":1.17,"hdop":1.10,"gdop":2.55,"pdop":1.40}
$GPVTG,,T,341.7,M,0.0,N,0.0,K,A*0C
$GPRMC,022038.00,A,3644.762563,S,17444.069733,E,0.0,,071020,18.3,E,A,V*45
{"class":"TPV","mode":3,"time":"2020-10-07T02:20:38.000Z","ept":0.005,"lat":-36.746042717,"lon":174.734495550,"altHAE":90.0000,"altMSL":53.0000,"alt":53.0000,"epx":16.477,"epy":11.817,"epv":20.700,"magvar":18.3,"speed":0.000,"climb":-3.000,"eps":32.95,"epc":36.80,"geoidSep":37.000,"eph":20.900,"sep":26.600}
$GPGSA,A,2,06,07,11,19,22,30,,,,,,,1.4,1.1,0.9,1*28
{"class":"TPV","mode":3,"time":"2020-10-07T02:20:38.000Z","ept":0.005,"lat":-36.746042717,"lon":174.734495550,"altHAE":90.0000,"altMSL":53.0000,"alt":53.0000,"epx":16.477,"epy":11.817,"epv":20.700,"magvar":18.3,"speed":0.000,"climb":-3.000,"eps":32.95,"epc":36.80,"geoidSep":37.000,"eph":20.900,"sep":26.600}
{"class":"SKY","xdop":1.10,"ydop":0.79,"vdop":0.90,"tdop":1.17,"hdop":1.10,"gdop":2.55,"pdop":1.40}
$GPGSV,2,1,06,01,37,122,,13,21,278,,17,60,275,,24,,,,1*5F
$GPGSV,2,2,06,28,66,165,,39,,,34,1*57
{"class":"TPV","mode":3,"time":"2020-10-07T02:20:38.000Z","ept":0.005,"lat":-36.746042717,"lon":174.734495550,"altHAE":90.0000,"altMSL":53.0000,"alt":53.0000,"epx":16.477,"epy":11.817,"epv":20.700,"magvar":18.3,"speed":0.000,"climb":-3.000,"eps":32.95,"epc":36.80,"geoidSep":37.000,"eph":20.900,"sep":26.600}
{"class":"SKY","xdop":1.10,"ydop":0.79,"vdop":0.90,"tdop":1.17,"hdop":1.10,"gdop":2.55,"pdop":1.40,"nSat":6,"uSat":0,"satellites":[{"PRN":1,"el":37.0,"az":122.0,"ss":0.0,"used":false,"gnssid":0,"svid":1},{"PRN":13,"el":21.0,"az":278.0,"ss":0.0,"used":false,"gnssid":0,"svid":13},{"PRN":17,"el":60.0,"az":275.0,"ss":0.0,"used":false,"gnssid":0,"svid":17},{"PRN":24,"el":0.0,"az":0.0,"ss":0.0,"used":false,"gnssid":0,"svid":24},{"PRN":28,"el":66.0,"az":165.0,"ss":0.0,"used":false,"gnssid":0,"svid":28},{"PRN":39,"el":0.0,"az":0.0,"ss":34.0,"used":false,"gnssid":1,"svid":126}]}
$GPVTG,,T,,M,,N,,K,N*2C
$GPGSA,A,1,,,,,,,,,,,,,,,,*32
{"class":"TPV","mode":1,"time":"2020-10-07T02:20:38.000Z","ept":0.005}
$GPGGA,,,,,,0,,,,,,,,*66
{"class":"TPV","mode":1,"time":"2020-10-07T02:20:38.000Z","ept":0.005}
$GPRMC,,V,,,,,,,,,,N*53
{"class":"TPV","mode":1}
$GPGSV,2,1,06,01,37,122,,13,21,278,,17,60,275,,24,,,,1*5F
$GPGSV,2,2,06,28,66,165,,39,,,34,1*57
{"class":"TPV","mode":1}
{"class":"SKY","xdop":1.10,"ydop":0.79,"vdop":0.90,"tdop":1.17,"hdop":1.10,"gdop":2.55,"pdop":1.40,"nSat":6,"uSat":0,"satellites":[{"PRN":1,"el":37.0,"az":122.0,"ss":0.0,"used":false,"gnssid":0,"svid":1},{"PRN":13,"el":21.0,"az":278.0,"ss":0.0,"used":false,"gnssid":0,"svid":13},{"PRN":17,"el":60.0,"az":275.0,"ss":0.0,"used":false,"gnssid":0,"svid":17},{"PRN":24,"el":0.0,"az":0.0,"ss":0.0,"used":false,"gnssid":0,"svid":24},{"PRN":28,"el":66.0,"az":165.0,"ss":0.0,"used":false,"gnssid":0,"svid":28},{"PRN":39,"el":0.0,"az":0.0,"ss":34.0,"used":false,"gnssid":1,"svid":126}]}
$GPVTG,,T,,M,,N,,K,N*2C
$GPGSA,A,1,,,,,,,,,,,,,,,,*32
{"class":"TPV","mode":1}
$GPGGA,,,,,,0,,,,,,,,*66
{"class":"TPV","mode":1}
$GPRMC,,V,,,,,,,,,,N*53
{"class":"TPV","mode":1}
$GPGSV,2,1,06,01,37,122,,13,21,278,,17,60,275,,24,,,,1*5F
$GPGSV,2,2,06,28,66,165,,39,,,34,1*57
{"class":"TPV","mode":1}
{"class":"SKY","xdop":1.10,"ydop":0.79,"vdop":0.90,"tdop":1.17,"hdop":1.10,"gdop":2.55,"pdop":1.40,"nSat":6,"uSat":0,"satellites":[{"PRN":1,"el":37.0,"az":122.0,"ss":0.0,"used":false,"gnssid":0,"svid":1},{"PRN":13,"el":21.0,"az":278.0,"ss":0.0,"used":false,"gnssid":0,"svid":13},{"PRN":17,"el":60.0,"az":275.0,"ss":0.0,"used":false,"gnssid":0,"svid":17},{"PRN":24,"el":0.0,"az":0.0,"ss":0.0,"used":false,"gnssid":0,"svid":24},{"PRN":28,"el":66.0,"az":165.0,"ss":0.0,"used":false,"gnssid":0,"svid":28},{"PRN":39,"el":0.0,"az":0.0,"ss":34.0,"used":false,"gnssid":1,"svid":126}]}
$GPVTG,,T,,M,,N,,K,N*2C
$GPGSA,A,1,,,,,,,,,,,,,,,,*32
$GPGGA,,,,,,0,,,,,,,,*66
{"class":"TPV","mode":1}
$GPRMC,,V,,,,,,,,,,N*53
{"class":"TPV","mode":1}
$GPGSV,2,1,06,01,37,122,,13,21,278,,17,60,275,,24,,,,1*5F
$GPGSV,2,2,06,28,66,165,,39,,,34,1*57
{"class":"TPV","mode":1}
{"class":"SKY","xdop":1.10,"ydop":0.79,"vdop":0.90,"tdop":1.17,"hdop":1.10,"gdop":2.55,"pdop":1.40,"nSat":6,"uSat":0,"satellites":[{"PRN":1,"el":37.0,"az":122.0,"ss":0.0,"used":false,"gnssid":0,"svid":1},{"PRN":13,"el":21.0,"az":278.0,"ss":0.0,"used":false,"gnssid":0,"svid":13},{"PRN":17,"el":60.0,"az":275.0,"ss":0.0,"used":false,"gnssid":0,"svid":17},{"PRN":24,"el":0.0,"az":0.0,"ss":0.0,"used":false,"gnssid":0,"svid":24},{"PRN":28,"el":66.0,"az":165.0,"ss":0.0,"used":false,"gnssid":0,"svid":28},{"PRN":39,"el":0.0,"az":0.0,"ss":34.0,"used":false,"gnssid":1,"svid":126}]}
$GPVTG,,T,,M,,N,,K,N*2C
$GPGSA,A,1,,,,,,,,,,,,,,,,*32
$GPGGA,,,,,,0,,,,,,,,*66
{"class":"TPV","mode":1}
$GPRMC,,V,,,,,,,,,,N*53
{"class":"TPV","mode":1}
$GPGSV,2,1,06,01,37,122,,13,21,278,,17,60,275,,24,,,,1*5F
$GPGSV,2,2,06,28,66,165,,39,,,34,1*57
{"class":"TPV","mode":1}
{"class":"SKY","xdop":1.10,"ydop":0.79,"vdop":0.90,"tdop":1.17,"hdop":1.10,"gdop":2.55,"pdop":1.40,"nSat":6,"uSat":0,"satellites":[{"PRN":1,"el":37.0,"az":122.0,"ss":0.0,"used":false,"gnssid":0,"svid":1},{"PRN":13,"el":21.0,"az":278.0,"ss":0.0,"used":false,"gnssid":0,"svid":13},{"PRN":17,"el":60.0,"az":275.0,"ss":0.0,"used":false,"gnssid":0,"svid":17},{"PRN":24,"el":0.0,"az":0.0,"ss":0.0,"used":false,"gnssid":0,"svid":24},{"PRN":28,"el":66.0,"az":165.0,"ss":0.0,"used":false,"gnssid":0,"svid":28},{"PRN":39,"el":0.0,"az":0.0,"ss":34.0,"used":false,"gnssid":1,"svid":126}]}
$GPVTG,,T,,M,,N,,K,N*2C
$GPGSA,A,1,,,,,,,,,,,,,,,,*32
$GPGGA,,,,,,0,,,,,,,,*66
{"class":"TPV","mode":1}
$GPRMC,,V,,,,,,,,,,N*53
{"class":"TPV","mode":1}
$GPGSV,2,1,06,01,37,122,,13,21,278,,17,60,275,,24,,,,1*5F
$GPGSV,2,2,06,28,66,165,,39,,,34,1*57
{"class":"TPV","mode":1}
{"class":"SKY","xdop":1.10,"ydop":0.79,"vdop":0.90,"tdop":1.17,"hdop":1.10,"gdop":2.55,"pdop":1.40,"nSat":6,"uSat":0,"satellites":[{"PRN":1,"el":37.0,"az":122.0,"ss":0.0,"used":false,"gnssid":0,"svid":1},{"PRN":13,"el":21.0,"az":278.0,"ss":0.0,"used":false,"gnssid":0,"svid":13},{"PRN":17,"el":60.0,"az":275.0,"ss":0.0,"used":false,"gnssid":0,"svid":17},{"PRN":24,"el":0.0,"az":0.0,"ss":0.0,"used":false,"gnssid":0,"svid":24},{"PRN":28,"el":66.0,"az":165.0,"ss":0.0,"used":false,"gnssid":0,"svid":28},{"PRN":39,"el":0.0,"az":0.0,"ss":34.0,"used":false,"gnssid":1,"svid":126}]}
$GPVTG,,T,,M,,N,,K,N*2C
$GPGSA,A,1,,,,,,,,,,,,,,,,*32
$GPGGA,,,,,,0,,,,,,,,*66
{"class":"TPV","mode":1}
$GPRMC,,V,,,,,,,,,,N*53
{"class":"TPV","mode":1}
$GPGSV,2,1,06,01,37,122,,13,21,278,,17,60,275,,24,,,,1*5F
$GPGSV,2,2,06,28,66,165,,39,,,34,1*57
{"class":"TPV","mode":1}
{"class":"SKY","xdop":1.10,"ydop":0.79,"vdop":0.90,"tdop":1.17,"hdop":1.10,"gdop":2.55,"pdop":1.40,"nSat":6,"uSat":0,"satellites":[{"PRN":1,"el":37.0,"az":122.0,"ss":0.0,"used":false,"gnssid":0,"svid":1},{"PRN":13,"el":21.0,"az":278.0,"ss":0.0,"used":false,"gnssid":0,"svid":13},{"PRN":17,"el":60.0,"az":275.0,"ss":0.0,"used":false,"gnssid":0,"svid":17},{"PRN":24,"el":0.0,"az":0.0,"ss":0.0,"used":false,"gnssid":0,"svid":24},{"PRN":28,"el":66.0,"az":165.0,"ss":0.0,"used":false,"gnssid":0,"svid":28},{"PRN":39,"el":0.0,"az":0.0,"ss":34.0,"used":false,"gnssid":1,"svid":126}]}
$GPVTG,,T,,M,,N,,K,N*2C
$GPGSA,A,1,,,,,,,,,,,,,,,,*32
$GPGGA,,,,,,0,,,,,,,,*66
{"class":"TPV","mode":1}
$GPRMC,,V,,,,,,,,,,N*53
{"class":"TPV","mode":1}
$GPGSV,3,1,12,03,03,074,37,06,15,348,35,07,18,022,49,11,13,133,36,1*6C
$GPGSV,3,2,12,15,06,246,26,19,43,291,28,22,07,094,41,28,66,165,27,1*6D
$GPGSV,3,3,12,30,47,008,51,13,21,278,,24,,,,46,,,50,1*66
{"class":"TPV","mode":1}
{"class":"SKY","xdop":1.10,"ydop":0.79,"vdop":0.90,"tdop":1.17,"hdop":1.10,"gdop":2.55,"pdop":1.40,"nSat":12,"uSat":0,"satellites":[{"PRN":3,"el":3.0,"az":74.0,"ss":37.0,"used":false,"gnssid":0,"svid":3},{"PRN":6,"el":15.0,"az":348.0,"ss":35.0,"used":false,"gnssid":0,"svid":6},{"PRN":7,"el":18.0,"az":22.0,"ss":49.0,"used":false,"gnssid":0,"svid":7},{"PRN":11,"el":13.0,"az":133.0,"ss":36.0,"used":false,"gnssid":0,"svid":11},{"PRN":15,"el":6.0,"az":246.0,"ss":26.0,"used":false,"gnssid":0,"svid":15},{"PRN":19,"el":43.0,"az":291.0,"ss":28.0,"used":false,"gnssid":0,"svid":19},{"PRN":22,"el":7.0,"az":94.0,"ss":41.0,"used":false,"gnssid":0,"svid":22},{"PRN":28,"el":66.0,"az":165.0,"ss":27.0,"used":false,"gnssid":0,"svid":28},{"PRN":30,"el":47.0,"az":8.0,"ss":51.0,"used":false,"gnssid":0,"svid":30},{"PRN":13,"el":21.0,"az":278.0,"ss":0.0,"used":false,"gnssid":0,"svid":13},{"PRN":24,"el":0.0,"az":0.0,"ss":0.0,"used":false,"gnssid":0,"svid":24},{"PRN":46,"el":0.0,"az":0.0,"ss":50.0,"used":false,"gnssid":1,"svid":133}]}
$GPVTG,,T,,M,,N,,K,N*2C
$GPGSA,A,1,,,,,,,,,,,,,,,,*32
$GPGGA,,,,,,0,,,,,,,,*66
{"class":"TPV","mode":1}
$GPRMC,,V,,,,,,,,,,N*53
{"class":"TPV","mode":1}
$GPGSV,5,1,17,03,04,074,37,06,16,348,37,07,17,022,50,11,12,133,38,1*61
$GPGSV,5,2,17,15,05,246,29,19,45,289,30,22,07,094,42,28,66,164,27,1*66
$GPGSV,5,3,17,30,46,008,52,01,36,123,,13,21,278,,17,60,274,,1*63
$GPGSV,5,4,17,24,,,,42,,,35,46,,,53,48,,,34,1*6A
$GPGSV,5,5,17,49,,,35,1*69
{"class":"TPV","mode":1}
{"class":"SKY","xdop":1.10,"ydop":0.79,"vdop":0.90,"tdop":1.17,"hdop":1.10,"gdop":2.55,"pdop":1.40,"nSat":17,"uSat":0,"satellites":[{"PRN":3,"el":4.0,"az":74.0,"ss":37.0,"used":false,"gnssid":0,"svid":3},{"PRN":6,"el":16.0,"az":348.0,"ss":37.0,"used":false,"gnssid":0,"svid":6},{"PRN":7,"el":17.0,"az":22.0,"ss":50.0,"used":false,"gnssid":0,"svid":7},{"PRN":11,"el":12.0,"az":133.0,"ss":38.0,"used":false,"gnssid":0,"svid":11},{"PRN":15,"el":5.0,"az":246.0,"ss":29.0,"used":false,"gnssid":0,"svid":15},{"PRN":19,"el":45.0,"az":289.0,"ss":30.0,"used":false,"gnssid":0,"svid":19},{"PRN":22,"el":7.0,"az":94.0,"ss":42.0,"used":false,"gnssid":0,"svid":22},{"PRN":28,"el":66.0,"az":164.0,"ss":27.0,"used":false,"gnssid":0,"svid":28},{"PRN":30,"el":46.0,"az":8.0,"ss":52.0,"used":false,"gnssid":0,"svid":30},{"PRN":1,"el":36.0,"az":123.0,"ss":0.0,"used":false,"gnssid":0,"svid":1},{"PRN":13,"el":21.0,"az":278.0,"ss":0.0,"used":false,"gnssid":0,"svid":13},{"PRN":17,"el":60.0,"az":274.0,"ss":0.0,"used":false,"gnssid":0,"svid":17},{"PRN":24,"el":0.0,"az":0.0,"ss":0.0,"used":false,"gnssid":0,"svid":24},{"PRN":42,"el":0.0,"az":0.0,"ss":35.0,"used":false,"gnssid":1,"svid":129},{"PRN":46,"el":0.0,"az":0.0,"ss":53.0,"used":false,"gnssid":1,"svid":133},{"PRN":48,"el":0.0,"az":0.0,"ss":34.0,"used":false,"gnssid":1,"svid":135},{"PRN":49,"el":0.0,"az":0.0,"ss":35.0,"used":false,"gnssid":1,"svid":136}]}
$GPGGA,022047.00,3644.759431,S,17444.072852,E,1,08,1.0,56.0,M,37.0,M,,*4C
{"class":"TPV","mode":3,"lat":-36.745990517,"lon":174.734547533,"altHAE":93.0000,"altMSL":56.0000,"alt":56.0000,"epx":16.477,"epy":11.817,"epv":20.700,"magvar":19.9,"geoidSep":37.000,"eph":19.000,"sep":26.600}
{"class":"SKY","xdop":1.10,"ydop":0.79,"vdop":0.90,"tdop":1.17,"hdop":1.00,"gdop":2.55,"pdop":1.40}
$GPVTG,301.9,T,283.6,M,0.0,N,0.0,K,A*27
$GPRMC,022047.00,A,3644.759431,S,17444.072852,E,0.0,301.9,071020,18.3,E,A,V*64
{"class":"TPV","mode":3,"time":"2020-10-07T02:20:47.000Z","ept":0.005,"lat":-36.745990517,"lon":174.734547533,"altHAE":93.0000,"altMSL":56.0000,"alt":56.0000,"epx":16.477,"epy":11.817,"epv":20.700,"track":301.9000,"magtrack":283.6000,"magvar":18.3,"speed":0.000,"geoidSep":37.000,"eph":19.000,"sep":26.600}
$GPGSA,A,2,03,06,07,11,19,22,28,30,,,,,1.3,1.0,0.8,1*26
{"class":"TPV","mode":3,"time":"2020-10-07T02:20:47.000Z","ept":0.005,"lat":-36.745990517,"lon":174.734547533,"altHAE":93.0000,"altMSL":56.0000,"alt":56.0000,"epx":16.477,"epy":11.817,"epv":20.700,"track":301.9000,"magtrack":283.6000,"magvar":18.3,"speed":0.000,"geoidSep":37.000,"eph":19.000,"sep":26.600}
{"class":"SKY","xdop":1.10,"ydop":0.79,"vdop":0.80,"tdop":1.17,"hdop":1.00,"gdop":2.55,"pdop":1.30}
$GPGSV,5,1,19,03,04,074,37,06,16,348,37,07,17,022,50,11,12,133,38,1*6F
$GPGSV,5,2,19,15,05,246,29,22,07,094,42,30,46,008,53,01,36,123,,1*66
$GPGSV,5,3,19,13,21,278,,17,60,274,,19,45,289,,24,,,,1*5B
$GPGSV,5,4,19,28,66,164,,33,,,34,42,,,35,46,,,52,1*56
$GPGSV,5,5,19,48,,,34,49,,,35,51,,,34,1*6F
{"class":"TPV","mode":3,"time":"2020-10-07T02:20:47.000Z","ept":0.005,"lat":-36.745990517,"lon":174.734547533,"altHAE":93.0000,"altMSL":56.0000,"alt":56.0000,"epx":16.477,"epy":11.817,"epv":20.700,"track":301.9000,"magtrack":283.6000,"magvar":18.3,"speed":0.000,"geoidSep":37.000,"eph":19.000,"sep":26.600}
{"class":"SKY","xdop":1.10,"ydop":0.79,"vdop":0.80,"tdop":1.17,"hdop":1.00,"gdop":2.55,"pdop":1.30,"nSat":19,"uSat":6,"satellites":[{"PRN":3,"el":4.0,"az":74.0,"ss":37.0,"used":true,"gnssid":0,"svid":3},{"PRN":6,"el":16.0,"az":348.0,"ss":37.0,"used":true,"gnssid":0,"svid":6},{"PRN":7,"el":17.0,"az":22.0,"ss":50.0,"used":true,"gnssid":0,"svid":7},{"PRN":11,"el":12.0,"az":133.0,"ss":38.0,"used":true,"gnssid":0,"svid":11},{"PRN":15,"el":5.0,"az":246.0,"ss":29.0,"used":false,"gnssid":0,"svid":15},{"PRN":22,"el":7.0,"az":94.0,"ss":42.0,"used":true,"gnssid":0,"svid":22},{"PRN":30,"el":46.0,"az":8.0,"ss":53.0,"used":true,"gnssid":0,"svid":30},{"PRN":1,"el":36.0,"az":123.0,"ss":0.0,"used":false,"gnssid":0,"svid":1},{"PRN":13,"el":21.0,"az":278.0,"ss":0.0,"used":false,"gnssid":0,"svid":13},{"PRN":17,"el":60.0,"az":274.0,"ss":0.0,"used":false,"gnssid":0,"svid":17},{"PRN":19,"el":45.0,"az":289.0,"ss":0.0,"used":false,"gnssid":0,"svid":19},{"PRN":24,"el":0.0,"az":0.0,"ss":0.0,"used":false,"gnssid":0,"svid":24},{"PRN":28,"el":66.0,"az":164.0,"ss":0.0,"used":false,"gnssid":0,"svid":28},{"PRN":33,"el":0.0,"az":0.0,"ss":34.0,"used":false,"gnssid":1,"svid":120},{"PRN":42,"el":0.0,"az":0.0,"ss":35.0,"used":false,"gnssid":1,"svid":129},{"PRN":46,"el":0.0,"az":0.0,"ss":52.0,"used":false,"gnssid":1,"svid":133},{"PRN":48,"el":0.0,"az":0.0,"ss":34.0,"used":false,"gnssid":1,"svid":135},{"PRN":49,"el":0.0,"az":0.0,"ss":35.0,"used":false,"gnssid":1,"svid":136},{"PRN":51,"el":0.0,"az":0.0,"ss":34.0,"used":false,"gnssid":1,"svid":138}]}
$GPGGA,022048.00,3644.759434,S,17444.072853,E,1,08,1.0,56.0,M,37.0,M,,*47
{"class":"TPV","mode":3,"time":"2020-10-07T02:20:48.000Z","ept":0.005,"lat":-36.745990567,"lon":174.734547550,"altHAE":93.0000,"altMSL":56.0000,"alt":56.0000,"epx":16.477,"epy":11.817,"epv":18.400,"magvar":19.9,"speed":0.006,"climb":0.000,"eps":32.95,"epc":39.10,"geoidSep":37.000,"eph":19.000,"sep":24.700}
{"class":"SKY","xdop":1.10,"ydop":0.79,"vdop":0.80,"tdop":1.17,"hdop":1.00,"gdop":2.55,"pdop":1.30}
$GPVTG,301.9,T,283.6,M,0.0,N,0.0,K,A*27
$GPRMC,022048.00,A,3644.759434,S,17444.072853,E,0.0,301.9,071020,18.3,E,A,V*6F
{"class":"TPV","mode":3,"time":"2020-10-07T02:20:48.000Z","ept":0.005,"lat":-36.745990567,"lon":174.734547550,"altHAE":93.0000,"altMSL":56.0000,"alt":56.0000,"epx":16.477,"epy":11.817,"epv":18.400,"track":301.9000,"magtrack":283.6000,"magvar":18.3,"speed":0.000,"climb":0.000,"eps":32.95,"epc":39.10,"geoidSep":37.000,"eph":19.000,"sep":24.700}
$GPGSA,A,2,03,06,07,11,19,22,28,30,,,,,1.3,1.0,0.8,1*26
{"class":"TPV","mode":3,"time":"2020-10-07T02:20:48.000Z","ept":0.005,"lat":-36.745990567,"lon":174.734547550,"altHAE":93.0000,"altMSL":56.0000,"alt":56.0000,"epx":16.477,"epy":11.817,"epv":18.400,"track":301.9000,"magtrack":283.6000,"magvar":18.3,"speed":0.000,"climb":0.000,"eps":32.95,"epc":39.10,"geoidSep":37.000,"eph":19.000,"sep":24.700}
{"class":"SKY","xdop":1.10,"ydop":0.79,"vdop":0.80,"tdop":1.17,"hdop":1.00,"gdop":2.55,"pdop":1.30}
$GPGSV,5,1,19,03,04,074,38,06,16,348,37,07,17,022,50,11,12,133,38,1*60
$GPGSV,5,2,19,15,05,246,29,19,45,289,28,22,07,094,42,28,66,164,28,1*6E
$GPGSV,5,3,19,30,46,008,53,01,36,123,,13,21,278,,17,60,274,,1*6C
$GPGSV,5,4,19,24,,,,33,,,34,42,,,35,46,,,53,1*68
$GPGSV,5,5,19,48,,,34,49,,,35,51,,,34,1*6F
{"class":"TPV","mode":3,"time":"2020-10-07T02:20:48.000Z","ept":0.005,"lat":-36.745990567,"lon":174.734547550,"altHAE":93.0000,"altMSL":56.0000,"alt":56.0000,"epx":16.477,"epy":11.817,"epv":18.400,"track":301.9000,"magtrack":283.6000,"magvar":18.3,"speed":0.000,"climb":0.000,"eps":32.95,"epc":39.10,"geoidSep":37.000,"eph":19.000,"sep":24.700}
