# Chipset: Quectel LC79D
# Submitter: Filip Jan Kubicz <filip.kubicz@tier.app>
# Date: 2020-11-30
# Location: Kamien, Poland, 50.02457296N 19.58828604E
#
# Note: Odd PRN 103 in GAGSA and GAGSV.
#
# This file is Copyright (c) 2020 by the GPSD project
# BSD terms apply: see the file COPYING in the distribution root for details.
#
$GPGSV,4,2,12,17,30,269,30,19,,,13,21,19,157,39,22,58,098,35,1*58
$GPGSV,4,3,12,31,29,056,18,1*53
$GPGSV,4,4,12,01,38,160,38,03,80,057,20,09,26,227,40,8*5D
$GLGSV,2,1,05,70,31,264,38,79,13,116,37,84,48,209,33,85,,,13,1*4A
$GLGSV,2,2,05,68,26,060,21,1*42
$GAGSV,2,1,04,103,35,240,43,136,20,167,40,6*72
$GAGSV,2,2,04,103,35,240,39,136,20,167,36,1*7A
$GNGSA,A,3,01,03,04,09,17,21,22,31,,,,,1.6,0.9,1.3,1*35
$GNGSA,A,3,68,70,79,84,,,,,,,,,1.6,0.9,1.3,2*35
$GNGSA,A,3,103,132,,,,,,,,,,,1.6,0.9,1.3,3*3D
$GNGSA,A,3,,,,,,,,,,,,,1.6,0.9,1.3,4*38
$GNGSA,A,3,,,,,,,,,,,,,1.6,0.9,1.3,5*39
$GNGSA,A,3,,,,,,,,,,,,,1.6,0.9,1.3,6*3A
$GNVTG,16.6,T,,M,0.0,N,0.0,K,A*22
$GNRMC,080359.00,A,5002.453527,N,01958.831794,E,0.0,16.6,301120,,,A,V*0D
$GNGGA,080359.00,5002.453527,N,01958.831794,E,1,14,0.9,202.1,M,,M,,*66
$GNGLL,5002.453527,N,01958.831794,E,080359.00,A,A*70
$GPGSV,4,1,12,01,38,160,35,03,80,057,29,04,65,211,44,09,26,227,36,1*61
$GPGSV,4,2,12,17,30,269,29,19,,,13,21,19,157,39,22,58,098,35,1*50
$GPGSV,4,3,12,31,29,056,18,1*53
$GPGSV,4,4,12,01,38,160,38,03,80,057,20,09,26,227,40,8*5D
$GLGSV,2,1,05,70,31,264,38,79,13,116,37,84,48,209,33,85,,,13,1*4A
$GLGSV,2,2,05,68,26,060,19,1*49
$GAGSV,2,1,04,103,35,240,43,136,20,167,40,6*72
$GAGSV,2,2,04,103,35,240,39,136,20,167,36,1*7A
$GNGSA,A,3,01,03,04,09,17,21,22,31,,,,,1.6,0.9,1.3,1*35
$GNGSA,A,3,68,70,79,84,,,,,,,,,1.6,0.9,1.3,2*35
$GNGSA,A,3,103,132,,,,,,,,,,,1.6,0.9,1.3,3*3D
$GNGSA,A,3,,,,,,,,,,,,,1.6,0.9,1.3,4*38
$GNGSA,A,3,,,,,,,,,,,,,1.6,0.9,1.3,5*39
$GNGSA,A,3,,,,,,,,,,,,,1.6,0.9,1.3,6*3A
$GNVTG,16.6,T,,M,0.0,N,0.0,K,A*22
$GNRMC,080400.00,A,5002.453527,N,01958.831794,E,0.0,16.6,301120,,,A,V*06
$GNGGA,080400.00,5002.453527,N,01958.831794,E,1,14,0.9,202.1,M,,M,,*6D
$GNGLL,5002.453527,N,01958.831794,E,080400.00,A,A*7B
$GPGSV,4,1,12,01,38,160,35,03,80,057,29,04,65,211,45,09,26,227,36,1*60
$GPGSV,4,2,12,17,30,269,29,19,,,12,21,19,157,39,22,58,098,35,1*51
$GPGSV,4,3,12,31,29,056,18,1*53
$GPGSV,4,4,12,01,38,160,38,03,80,057,21,09,26,227,40,8*5C
$GLGSV,2,1,05,70,31,264,38,79,13,116,37,84,48,209,33,85,,,13,1*4A
$GLGSV,2,2,05,68,26,060,19,1*49
$GAGSV,2,1,04,103,35,240,43,136,20,167,40,6*72
$GAGSV,2,2,04,103,35,240,39,136,20,167,36,1*7A
$GNGSA,A,3,01,03,04,09,17,21,22,31,,,,,1.6,0.9,1.3,1*35
$GNGSA,A,3,68,70,79,84,,,,,,,,,1.6,0.9,1.3,2*35
$GNGSA,A,3,103,132,,,,,,,,,,,1.6,0.9,1.3,3*3D
$GNGSA,A,3,,,,,,,,,,,,,1.6,0.9,1.3,4*38
$GNGSA,A,3,,,,,,,,,,,,,1.6,0.9,1.3,5*39
$GNGSA,A,3,,,,,,,,,,,,,1.6,0.9,1.3,6*3A
$GNVTG,16.6,T,,M,0.0,N,0.0,K,A*22
$GNRMC,080401.00,A,5002.453527,N,01958.831794,E,0.0,16.6,301120,,,A,V*07
$GNGGA,080401.00,5002.453527,N,01958.831794,E,1,14,0.9,202.1,M,,M,,*6C
$GNGLL,5002.453527,N,01958.831794,E,080401.00,A,A*7A
$GPGSV,4,1,12,01,38,160,35,03,80,057,29,04,65,211,45,09,26,228,36,1*6F
$GPGSV,4,2,12,17,30,269,29,19,,,13,21,19,157,39,22,58,098,35,1*50
$GPGSV,4,3,12,31,29,056,17,1*5C
$GPGSV,4,4,12,01,38,160,38,03,80,057,20,09,26,228,40,8*52
$GLGSV,2,1,05,70,31,264,38,79,13,116,37,84,48,209,33,85,,,12,1*4B
$GLGSV,2,2,05,68,26,060,19,1*49
$GAGSV,2,1,04,103,35,240,43,136,20,167,40,6*72
$GAGSV,2,2,04,103,35,240,39,136,20,167,36,1*7A
$GNGSA,A,3,01,03,04,09,17,21,22,31,,,,,1.6,0.9,1.3,1*35
$GNGSA,A,3,68,70,79,84,,,,,,,,,1.6,0.9,1.3,2*35
$GNGSA,A,3,103,132,,,,,,,,,,,1.6,0.9,1.3,3*3D
$GNGSA,A,3,,,,,,,,,,,,,1.6,0.9,1.3,4*38
$GNGSA,A,3,,,,,,,,,,,,,1.6,0.9,1.3,5*39
$GNGSA,A,3,,,,,,,,,,,,,1.6,0.9,1.3,6*3A
$GNVTG,16.6,T,,M,0.0,N,0.0,K,A*22
$GNRMC,080402.00,A,5002.453527,N,01958.831794,E,0.0,16.6,301120,,,A,V*04
$GNGGA,080402.00,5002.453527,N,01958.831794,E,1,13,0.9,202.1,M,,M,,*68
$GNGLL,5002.453527,N,01958.831794,E,080402.00,A,A*79
$GPGSV,4,1,12,01,38,160,36,03,80,057,29,04,65,211,45,09,26,228,36,1*6C
$GPGSV,4,2,12,17,30,269,29,19,,,14,21,19,157,39,22,58,098,35,1*57
$GPGSV,4,3,12,31,29,056,15,1*5E
$GPGSV,4,4,12,01,38,160,38,03,80,057,20,09,26,228,40,8*52
$GLGSV,2,1,05,70,31,264,38,79,13,116,37,84,48,209,33,85,,,11,1*48
$GLGSV,2,2,05,68,26,060,20,1*43
$GAGSV,2,1,04,103,35,240,43,136,20,167,40,6*72
$GAGSV,2,2,04,103,35,240,39,136,20,167,36,1*7A
$GNGSA,A,3,01,03,04,09,17,21,22,,,,,,1.6,0.9,1.3,1*37
$GNGSA,A,3,68,70,79,84,,,,,,,,,1.6,0.9,1.3,2*35
$GNGSA,A,3,103,132,,,,,,,,,,,1.6,0.9,1.3,3*3D
$GNGSA,A,3,,,,,,,,,,,,,1.6,0.9,1.3,4*38
$GNGSA,A,3,,,,,,,,,,,,,1.6,0.9,1.3,5*39
$GNGSA,A,3,,,,,,,,,,,,,1.6,0.9,1.3,6*3A
$GNVTG,16.6,T,,M,0.0,N,0.0,K,A*22
$GNRMC,080403.00,A,5002.453527,N,01958.831794,E,0.0,16.6,301120,,,A,V*05
$GNGGA,080403.00,5002.453527,N,01958.831794,E,1,14,0.9,202.1,M,,M,,*6E
$GNGLL,5002.453527,N,01958.831794,E,080403.00,A,A*78
$GPGSV,4,1,12,01,38,160,36,03,80,057,29,04,65,211,45,09,26,228,37,1*6D
$GPGSV,4,2,12,17,30,269,30,19,,,14,21,19,157,39,22,58,098,35,1*5F
$GPGSV,4,3,12,31,29,056,15,1*5E
$GPGSV,4,4,12,01,38,160,38,03,80,057,19,09,26,228,40,8*58
$GLGSV,2,1,05,70,31,264,38,79,13,116,37,84,48,209,33,85,,,11,1*48
$GLGSV,2,2,05,68,26,060,20,1*43
$GAGSV,2,1,04,103,35,240,43,136,20,167,40,6*72
$GAGSV,2,2,04,103,35,240,39,136,20,167,36,1*7A
$GNGSA,A,3,01,03,04,09,17,21,22,31,,,,,1.6,0.9,1.3,1*35
$GNGSA,A,3,68,70,79,84,,,,,,,,,1.6,0.9,1.3,2*35
$GNGSA,A,3,103,132,,,,,,,,,,,1.6,0.9,1.3,3*3D
$GNGSA,A,3,,,,,,,,,,,,,1.6,0.9,1.3,4*38
$GNGSA,A,3,,,,,,,,,,,,,1.6,0.9,1.3,5*39
$GNGSA,A,3,,,,,,,,,,,,,1.6,0.9,1.3,6*3A
$GNVTG,16.6,T,,M,0.0,N,0.0,K,A*22
$GNRMC,080404.00,A,5002.453527,N,01958.831794,E,0.0,16.6,301120,,,A,V*02
$GNGGA,080404.00,5002.453527,N,01958.831794,E,1,13,0.9,202.1,M,,M,,*6E
$GNGLL,5002.453527,N,01958.831794,E,080404.00,A,A*7F
$GPGSV,4,1,12,01,38,160,35,03,80,057,30,04,65,211,45,09,27,228,37,1*67
$GPGSV,4,2,12,17,30,269,30,19,,,15,21,19,157,39,22,58,098,35,1*5E
$GPGSV,4,3,12,31,29,056,15,1*5E
$GPGSV,4,4,12,01,38,160,39,03,80,057,19,09,27,228,40,8*58
$GLGSV,2,1,05,70,31,264,38,79,13,116,37,84,48,209,33,85,,,10,1*49
$GLGSV,2,2,05,68,26,060,20,1*43
$GAGSV,2,1,04,103,35,240,43,136,20,167,40,6*72
$GAGSV,2,2,04,103,35,240,39,136,20,167,36,1*7A
$GNGSA,A,3,01,03,04,09,17,21,22,,,,,,1.6,0.9,1.3,1*37
$GNGSA,A,3,68,70,79,84,,,,,,,,,1.6,0.9,1.3,2*35
$GNGSA,A,3,103,132,,,,,,,,,,,1.6,0.9,1.3,3*3D
$GNGSA,A,3,,,,,,,,,,,,,1.6,0.9,1.3,4*38
$GNGSA,A,3,,,,,,,,,,,,,1.6,0.9,1.3,5*39
$GNGSA,A,3,,,,,,,,,,,,,1.6,0.9,1.3,6*3A
$GNVTG,16.6,T,,M,0.0,N,0.0,K,A*22
$GNRMC,080405.00,A,5002.453527,N,01958.831794,E,0.0,16.6,301120,,,A,V*03
$GNGGA,080405.00,5002.453527,N,01958.831794,E,1,13,0.9,202.1,M,,M,,*6F
$GNGLL,5002.453527,N,01958.831794,E,080405.00,A,A*7E
$GPGSV,4,1,12,01,38,160,35,03,80,057,29,04,65,211,45,09,27,228,36,1*6E
$GPGSV,4,2,12,17,30,269,30,19,,,15,21,19,157,39,22,58,098,35,1*5E
$GPGSV,4,3,12,31,29,056,14,1*5F
$GPGSV,4,4,12,01,38,160,38,03,80,057,20,09,27,228,40,8*53
$GLGSV,2,1,05,70,31,264,38,79,13,116,37,84,48,209,33,85,,,09,1*41
$GLGSV,2,2,05,68,26,060,20,1*43
$GAGSV,2,1,04,103,35,240,43,136,20,167,40,6*72
$GAGSV,2,2,04,103,35,240,39,136,20,167,36,1*7A
$GNGSA,A,3,01,03,04,09,17,21,22,,,,,,1.6,0.9,1.3,1*37
$GNGSA,A,3,68,70,79,84,,,,,,,,,1.6,0.9,1.3,2*35
$GNGSA,A,3,103,132,,,,,,,,,,,1.6,0.9,1.3,3*3D
$GNGSA,A,3,,,,,,,,,,,,,1.6,0.9,1.3,4*38
$GNGSA,A,3,,,,,,,,,,,,,1.6,0.9,1.3,5*39
$GNGSA,A,3,,,,,,,,,,,,,1.6,0.9,1.3,6*3A
$GNVTG,16.6,T,,M,0.0,N,0.0,K,A*22
$GNRMC,080406.00,A,5002.453527,N,01958.831794,E,0.0,16.6,301120,,,A,V*00
$GNGGA,080406.00,5002.453527,N,01958.831794,E,1,13,0.9,202.1,M,,M,,*6C
$GNGLL,5002.453527,N,01958.831794,E,080406.00,A,A*7D
$GPGSV,4,1,12,01,38,160,36,03,80,058,30,04,65,211,45,09,27,228,37,1*6B
$GPGSV,4,2,12,17,30,269,31,19,,,15,21,19,157,39,22,58,098,36,1*5C
$GPGSV,4,3,12,31,29,056,14,1*5F
$GPGSV,4,4,12,01,38,160,38,03,80,058,20,09,27,228,40,8*5C
$GLGSV,2,1,05,70,31,264,38,79,13,116,37,84,47,209,33,85,,,08,1*4F
$GLGSV,2,2,05,68,26,060,22,1*41
$GAGSV,2,1,04,103,35,240,43,136,20,167,41,6*73
$GAGSV,2,2,04,103,35,240,38,136,20,167,36,1*7B
$GNGSA,A,3,01,03,04,09,17,21,22,,,,,,1.6,0.9,1.3,1*37
$GNGSA,A,3,68,70,79,84,,,,,,,,,1.6,0.9,1.3,2*35
$GNGSA,A,3,103,132,,,,,,,,,,,1.6,0.9,1.3,3*3D
$GNGSA,A,3,,,,,,,,,,,,,1.6,0.9,1.3,4*38
$GNGSA,A,3,,,,,,,,,,,,,1.6,0.9,1.3,5*39
$GNGSA,A,3,,,,,,,,,,,,,1.6,0.9,1.3,6*3A
$GNVTG,16.6,T,,M,0.0,N,0.0,K,A*22
$GNRMC,080407.00,A,5002.453527,N,01958.831794,E,0.0,16.6,301120,,,A,V*01
$GNGGA,080407.00,5002.453527,N,01958.831794,E,1,12,1.2,202.1,M,,M,,*66
$GNGLL,5002.453527,N,01958.831794,E,080407.00,A,A*7C
$GPGSV,4,1,12,01,38,160,35,03,80,058,30,04,65,211,45,09,27,228,36,1*69
$GPGSV,4,2,12,17,30,269,31,19,,,15,21,19,157,40,22,58,098,36,1*52
$GPGSV,4,3,12,31,,,14,1*67
$GPGSV,4,4,12,01,38,160,38,03,80,058,19,09,27,228,40,8*56
$GLGSV,2,1,05,70,31,264,38,79,13,116,37,84,47,209,33,85,,,08,1*4F
$GLGSV,2,2,05,68,26,060,21,1*42
$GAGSV,2,1,04,103,35,240,43,136,20,167,41,6*73
$GAGSV,2,2,04,103,35,240,39,136,20,167,36,1*7A
$GNGSA,A,3,01,03,04,09,17,21,22,,,,,,1.9,1.2,1.5,1*34
$GNGSA,A,3,70,79,84,,,,,,,,,,1.9,1.2,1.5,2*38
$GNGSA,A,3,103,132,,,,,,,,,,,1.9,1.2,1.5,3*3E
$GNGSA,A,3,,,,,,,,,,,,,1.9,1.2,1.5,4*3B
$GNGSA,A,3,,,,,,,,,,,,,1.9,1.2,1.5,5*3A
$GNGSA,A,3,,,,,,,,,,,,,1.9,1.2,1.5,6*39
$GNVTG,16.6,T,,M,0.0,N,0.0,K,A*22
$GNRMC,080408.00,A,5002.453527,N,01958.831794,E,0.0,16.6,301120,,,A,V*0E
$GNGGA,080408.00,5002.453527,N,01958.831794,E,1,13,0.9,202.1,M,,M,,*62
$GNGLL,5002.453527,N,01958.831794,E,080408.00,A,A*73
$GPGSV,4,1,12,01,38,160,36,03,80,058,30,04,65,211,45,09,27,228,37,1*6B
$GPGSV,4,2,12,17,30,269,31,19,,,16,21,19,157,39,22,58,098,36,1*5F
$GPGSV,4,3,12,31,,,15,1*66
$GPGSV,4,4,12,01,38,160,39,03,80,058,20,09,27,228,40,8*5D
$GLGSV,1,1,04,70,31,264,38,79,13,116,37,84,47,209,33,68,26,060,22,1*74
$GAGSV,2,1,04,103,35,240,43,136,20,167,41,6*73
$GAGSV,2,2,04,103,35,240,39,136,20,167,36,1*7A
$GNGSA,A,3,01,03,04,09,17,21,22,,,,,,1.6,0.9,1.3,1*37
$GNGSA,A,3,68,70,79,84,,,,,,,,,1.6,0.9,1.3,2*35
$GNGSA,A,3,103,132,,,,,,,,,,,1.6,0.9,1.3,3*3D
$GNGSA,A,3,,,,,,,,,,,,,1.6,0.9,1.3,4*38
$GNGSA,A,3,,,,,,,,,,,,,1.6,0.9,1.3,5*39
$GNGSA,A,3,,,,,,,,,,,,,1.6,0.9,1.3,6*3A
$GNVTG,16.6,T,,M,0.0,N,0.0,K,A*22
$GNRMC,080409.00,A,5002.453527,N,01958.831794,E,0.0,,301120,,,A,V*10
$GNGGA,080409.00,5002.453527,N,01958.831794,E,1,13,0.9,202.1,M,,M,,*63
$GNGLL,5002.453527,N,01958.831794,E,080409.00,A,A*72
$GPGSV,4,1,12,01,38,160,36,03,80,058,30,04,65,211,45,09,27,228,37,1*6B
$GPGSV,4,2,12,17,30,269,31,19,,,16,21,19,157,39,22,58,098,36,1*5F
$GPGSV,4,3,12,31,,,14,1*67
$GPGSV,4,4,12,01,38,160,38,03,80,058,20,09,27,228,40,8*5C
$GLGSV,2,1,05,70,31,264,38,79,13,116,38,84,47,209,33,85,,,08,1*40
$GLGSV,2,2,05,68,26,060,22,1*41
$GAGSV,2,1,04,103,35,240,43,136,20,167,41,6*73
$GAGSV,2,2,04,103,35,240,39,136,20,167,36,1*7A
$GNGSA,A,3,01,03,04,09,17,21,22,,,,,,1.6,0.9,1.3,1*37
$GNGSA,A,3,68,70,79,84,,,,,,,,,1.6,0.9,1.3,2*35
$GNGSA,A,3,103,132,,,,,,,,,,,1.6,0.9,1.3,3*3D
$GNGSA,A,3,,,,,,,,,,,,,1.6,0.9,1.3,4*38
$GNGSA,A,3,,,,,,,,,,,,,1.6,0.9,1.3,5*39
$GNGSA,A,3,,,,,,,,,,,,,1.6,0.9,1.3,6*3A
$GNVTG,,T,,M,0.0,N,0.0,K,A*3D
$GNRMC,080410.00,A,5002.453527,N,01958.831794,E,0.0,16.6,301120,,,A,V*07
$GNGGA,080410.00,5002.453527,N,01958.831794,E,1,13,0.9,202.1,M,,M,,*6B
$GNGLL,5002.453527,N,01958.831794,E,080410.00,A,A*7A
$GPGSV,4,1,12,01,38,160,35,03,80,058,30,04,65,211,45,09,27,228,37,1*68
$GPGSV,4,2,12,17,30,269,31,19,,,15,21,19,157,39,22,58,098,36,1*5C
$GPGSV,4,3,12,31,,,14,1*67
$GPGSV,4,4,12,01,38,160,39,03,80,058,20,09,27,228,40,8*5D
$GLGSV,1,1,04,70,31,264,38,79,13,116,38,84,47,209,34,68,26,060,21,1*7F
$GAGSV,2,1,04,103,35,240,43,136,20,167,41,6*73
$GAGSV,2,2,04,103,35,240,39,136,20,167,36,1*7A
$GNGSA,A,3,01,03,04,09,17,21,22,,,,,,1.6,0.9,1.3,1*37
$GNGSA,A,3,68,70,79,84,,,,,,,,,1.6,0.9,1.3,2*35
$GNGSA,A,3,103,132,,,,,,,,,,,1.6,0.9,1.3,3*3D
$GNGSA,A,3,,,,,,,,,,,,,1.6,0.9,1.3,4*38
$GNGSA,A,3,,,,,,,,,,,,,1.6,0.9,1.3,5*39
$GNGSA,A,3,,,,,,,,,,,,,1.6,0.9,1.3,6*3A
$GNVTG,16.6,T,,M,0.0,N,0.0,K,A*22
$GNRMC,080411.00,A,5002.453527,N,01958.831794,E,0.0,16.6,301120,,,A,V*06
$GNGGA,080411.00,5002.453527,N,01958.831794,E,1,12,1.2,202.1,M,,M,,*61
$GNGLL,5002.453527,N,01958.831794,E,080411.00,A,A*7B
$GPGSV,4,1,12,01,38,160,36,03,80,058,29,04,65,211,45,09,27,228,37,1*63
$GPGSV,4,2,12,17,30,269,31,19,,,15,21,19,157,39,22,58,098,36,1*5C
$GPGSV,4,3,12,31,,,15,1*66
$GPGSV,4,4,12,01,38,160,39,03,80,058,20,09,27,228,40,8*5D
$GLGSV,1,1,04,70,31,264,38,79,13,116,38,84,47,209,33,68,26,060,21,1*78
$GAGSV,2,1,04,103,35,240,43,136,20,167,41,6*73
$GAGSV,2,2,04,103,35,240,39,136,20,167,36,1*7A
$GNGSA,A,3,01,03,04,09,17,21,22,,,,,,1.9,1.2,1.5,1*34
$GNGSA,A,3,70,79,84,,,,,,,,,,1.9,1.2,1.5,2*38
$GNGSA,A,3,103,132,,,,,,,,,,,1.9,1.2,1.5,3*3E
$GNGSA,A,3,,,,,,,,,,,,,1.9,1.2,1.5,4*3B
$GNGSA,A,3,,,,,,,,,,,,,1.9,1.2,1.5,5*3A
$GNGSA,A,3,,,,,,,,,,,,,1.9,1.2,1.5,6*39
$GNVTG,16.6,T,,M,0.0,N,0.0,K,A*22
$GNRMC,080412.00,A,5002.453527,N,01958.831794,E,0.0,16.6,301120,,,A,V*05
$GNGGA,080412.00,5002.453527,N,01958.831794,E,1,12,1.2,202.1,M,,M,,*62
$GNGLL,5002.453527,N,01958.831794,E,080412.00,A,A*78
$GPGSV,4,1,12,01,38,160,36,03,80,058,30,04,65,211,45,09,27,228,37,1*6B
$GPGSV,4,2,12,17,30,269,31,19,,,15,21,19,157,39,22,58,098,36,1*5C
$GPGSV,4,3,12,31,,,15,1*66
$GPGSV,4,4,12,01,38,160,39,03,80,058,20,09,27,228,40,8*5D
$GLGSV,2,1,05,70,31,264,38,79,13,116,38,84,47,209,33,85,,,09,1*41
$GLGSV,2,2,05,68,26,060,20,1*43
$GAGSV,2,1,04,103,35,240,43,136,20,167,41,6*73
$GAGSV,2,2,04,103,35,240,39,136,20,167,36,1*7A
$GNGSA,A,3,01,03,04,09,17,21,22,,,,,,1.9,1.2,1.5,1*34
$GNGSA,A,3,70,79,84,,,,,,,,,,1.9,1.2,1.5,2*38
$GNGSA,A,3,103,132,,,,,,,,,,,1.9,1.2,1.5,3*3E
$GNGSA,A,3,,,,,,,,,,,,,1.9,1.2,1.5,4*3B
$GNGSA,A,3,,,,,,,,,,,,,1.9,1.2,1.5,5*3A
$GNGSA,A,3,,,,,,,,,,,,,1.9,1.2,1.5,6*39
$GNVTG,16.6,T,,M,0.0,N,0.0,K,A*22
$GNRMC,080413.00,A,5002.453527,N,01958.831794,E,0.0,16.6,301120,,,A,V*04
$GNGGA,080413.00,5002.453527,N,01958.831794,E,1,13,0.9,202.1,M,,M,,*68
$GNGLL,5002.453527,N,01958.831794,E,080413.00,A,A*79
$GPGSV,4,1,12,01,38,160,35,03,80,058,29,04,65,211,45,09,27,228,37,1*60
$GPGSV,4,2,12,17,30,269,30,19,,,14,21,19,157,39,22,58,098,36,1*5C
$GPGSV,4,3,12,31,,,16,1*65
$GPGSV,4,4,12,01,38,160,39,03,80,058,20,09,27,228,40,8*5D
$GLGSV,2,1,05,70,31,264,38,79,13,116,38,84,47,209,33,85,,,11,1*48
$GLGSV,2,2,05,68,26,060,21,1*42
$GAGSV,2,1,04,103,35,240,43,136,20,167,41,6*73
$GAGSV,2,2,04,103,35,240,39,136,20,167,36,1*7A
$GNGSA,A,3,01,03,04,09,17,21,22,,,,,,1.6,0.9,1.3,1*37
$GNGSA,A,3,68,70,79,84,,,,,,,,,1.6,0.9,1.3,2*35
$GNGSA,A,3,103,132,,,,,,,,,,,1.6,0.9,1.3,3*3D
$GNGSA,A,3,,,,,,,,,,,,,1.6,0.9,1.3,4*38
$GNGSA,A,3,,,,,,,,,,,,,1.6,0.9,1.3,5*39
$GNGSA,A,3,,,,,,,,,,,,,1.6,0.9,1.3,6*3A
$GNVTG,16.6,T,,M,0.0,N,0.1,K,A*23
$GNRMC,080414.00,A,5002.453527,N,01958.831794,E,0.0,16.6,301120,,,A,V*03
$GNGGA,080414.00,5002.453527,N,01958.831794,E,1,13,0.9,202.1,M,,M,,*6F
$GNGLL,5002.453527,N,01958.831794,E,080414.00,A,A*7E
$GPGSV,4,1,12,01,38,160,35,03,80,058,29,04,65,211,45,09,27,228,36,1*61
$GPGSV,4,2,12,17,30,269,30,19,,,14,21,19,157,39,22,58,098,36,1*5C
$GPGSV,4,3,12,31,,,18,1*6B
$GPGSV,4,4,12,01,38,160,39,03,80,058,19,09,27,228,40,8*57
$GLGSV,2,1,05,70,31,264,38,79,13,116,38,84,47,209,34,85,,,12,1*4C
$GLGSV,2,2,05,68,26,060,22,1*41
$GAGSV,2,1,04,103,35,240,43,136,20,167,41,6*73
$GAGSV,2,2,04,103,35,240,39,136,20,167,36,1*7A
$GNGSA,A,3,01,03,04,09,17,21,22,,,,,,1.6,0.9,1.3,1*37
$GNGSA,A,3,68,70,79,84,,,,,,,,,1.6,0.9,1.3,2*35
$GNGSA,A,3,103,132,,,,,,,,,,,1.6,0.9,1.3,3*3D
$GNGSA,A,3,,,,,,,,,,,,,1.6,0.9,1.3,4*38
$GNGSA,A,3,,,,,,,,,,,,,1.6,0.9,1.3,5*39
$GNGSA,A,3,,,,,,,,,,,,,1.6,0.9,1.3,6*3A
$GNVTG,16.6,T,,M,0.0,N,0.1,K,A*23
$GNRMC,080415.00,A,5002.453527,N,01958.831794,E,0.0,16.6,301120,,,A,V*02
$GNGGA,080415.00,5002.453527,N,01958.831794,E,1,13,0.9,202.1,M,,M,,*6E
$GNGLL,5002.453527,N,01958.831794,E,080415.00,A,A*7F
$GPGSV,4,1,12,01,38,160,35,03,80,058,29,04,65,211,45,09,27,228,36,1*61
$GPGSV,4,2,12,17,30,269,30,19,,,13,21,19,157,39,22,58,098,35,1*58
$GPGSV,4,3,12,31,,,18,1*6B
$GPGSV,4,4,12,01,38,160,39,03,80,058,19,09,27,228,40,8*57
$GLGSV,2,1,05,70,31,264,38,79,13,116,38,84,47,209,33,85,,,15,1*4C
$GLGSV,2,2,05,68,26,060,21,1*42
$GAGSV,2,1,04,103,35,240,43,136,20,167,41,6*73
$GAGSV,2,2,04,103,35,240,39,136,20,167,36,1*7A
$GNGSA,A,3,01,03,04,09,17,21,22,,,,,,1.6,0.9,1.3,1*37
$GNGSA,A,3,68,70,79,84,,,,,,,,,1.6,0.9,1.3,2*35
$GNGSA,A,3,103,132,,,,,,,,,,,1.6,0.9,1.3,3*3D
$GNGSA,A,3,,,,,,,,,,,,,1.6,0.9,1.3,4*38
$GNGSA,A,3,,,,,,,,,,,,,1.6,0.9,1.3,5*39
$GNGSA,A,3,,,,,,,,,,,,,1.6,0.9,1.3,6*3A
$GNVTG,16.6,T,,M,0.0,N,0.1,K,A*23
$GNRMC,080416.00,A,5002.453527,N,01958.831794,E,0.0,16.6,301120,,,A,V*01
$GNGGA,080416.00,5002.453527,N,01958.831794,E,1,14,0.9,202.1,M,,M,,*6A
$GNGLL,5002.453527,N,01958.831794,E,080416.00,A,A*7C
$GPGSV,4,1,12,01,38,160,35,03,80,058,30,04,65,211,45,09,27,228,36,1*69
$GPGSV,4,2,12,17,30,269,29,19,,,12,21,19,157,39,22,58,098,36,1*52
$GPGSV,4,3,12,31,29,056,18,1*53
$GPGSV,4,4,12,01,38,160,39,03,80,058,20,09,27,228,40,8*5D
$GLGSV,2,1,05,70,31,264,38,79,13,116,38,84,47,209,33,85,,,19,1*40
$GLGSV,2,2,05,68,26,060,21,1*42
$GAGSV,2,1,04,103,35,240,43,136,20,167,41,6*73
$GAGSV,2,2,04,103,35,240,39,136,20,167,36,1*7A
$GNGSA,A,3,01,03,04,09,17,21,22,31,,,,,1.6,0.9,1.3,1*35
$GNGSA,A,3,68,70,79,84,,,,,,,,,1.6,0.9,1.3,2*35
$GNGSA,A,3,103,132,,,,,,,,,,,1.6,0.9,1.3,3*3D
$GNGSA,A,3,,,,,,,,,,,,,1.6,0.9,1.3,4*38
$GNGSA,A,3,,,,,,,,,,,,,1.6,0.9,1.3,5*39
$GNGSA,A,3,,,,,,,,,,,,,1.6,0.9,1.3,6*3A
$GNVTG,16.6,T,,M,0.0,N,0.0,K,A*22
$GNRMC,080417.00,A,5002.453527,N,01958.831794,E,0.0,16.6,301120,,,A,V*00
$GNGGA,080417.00,5002.453527,N,01958.831794,E,1,14,0.9,202.1,M,,M,,*6B
$GNGLL,5002.453527,N,01958.831794,E,080417.00,A,A*7D
$GPGSV,4,1,12,01,38,160,35,03,80,058,29,04,65,211,45,09,27,228,36,1*61
$GPGSV,4,2,12,17,30,269,30,19,,,12,21,19,157,39,22,58,098,36,1*5A
$GPGSV,4,3,12,31,29,056,17,1*5C
$GPGSV,4,4,12,01,38,160,39,03,80,058,19,09,27,228,40,8*57
$GLGSV,2,1,05,70,31,264,38,79,13,116,38,84,47,209,33,85,,,19,1*40
$GLGSV,2,2,05,68,26,060,21,1*42
$GAGSV,2,1,04,103,35,240,43,136,20,167,41,6*73
$GAGSV,2,2,04,103,35,240,39,136,20,167,36,1*7A
$GNGSA,A,3,01,03,04,09,17,21,22,31,,,,,1.6,0.9,1.3,1*35
$GNGSA,A,3,68,70,79,84,,,,,,,,,1.6,0.9,1.3,2*35
$GNGSA,A,3,103,132,,,,,,,,,,,1.6,0.9,1.3,3*3D
$GNGSA,A,3,,,,,,,,,,,,,1.6,0.9,1.3,4*38
$GNGSA,A,3,,,,,,,,,,,,,1.6,0.9,1.3,5*39
$GNGSA,A,3,,,,,,,,,,,,,1.6,0.9,1.3,6*3A
$GNVTG,16.6,T,,M,0.0,N,0.0,K,A*22
$GNRMC,080418.00,A,5002.453527,N,01958.831794,E,0.0,16.6,301120,,,A,V*0F
$GNGGA,080418.00,5002.453527,N,01958.831794,E,1,14,0.9,202.1,M,,M,,*64
$GNGLL,5002.453527,N,01958.831794,E,080418.00,A,A*72
$GPGSV,4,1,12,01,38,160,34,03,80,058,29,04,65,211,45,09,27,228,36,1*60
$GPGSV,4,2,12,17,30,269,29,19,,,11,21,19,157,39,22,58,098,35,1*52
$GPGSV,4,3,12,31,29,056,18,1*53
$GPGSV,4,4,12,01,38,160,39,03,80,058,20,09,27,228,40,8*5D
$GLGSV,2,1,05,70,31,264,38,79,13,116,38,84,47,209,34,85,,,18,1*46
$GLGSV,2,2,05,68,26,060,20,1*43
$GAGSV,2,1,04,103,35,240,43,136,20,167,41,6*73
$GAGSV,2,2,04,103,35,240,39,136,20,167,36,1*7A
$GNGSA,A,3,01,03,04,09,17,21,22,31,,,,,1.6,0.9,1.3,1*35
$GNGSA,A,3,68,70,79,84,,,,,,,,,1.6,0.9,1.3,2*35
$GNGSA,A,3,103,132,,,,,,,,,,,1.6,0.9,1.3,3*3D
$GNGSA,A,3,,,,,,,,,,,,,1.6,0.9,1.3,4*38
$GNGSA,A,3,,,,,,,,,,,,,1.6,0.9,1.3,5*39
$GNGSA,A,3,,,,,,,,,,,,,1.6,0.9,1.3,6*3A
$GNVTG,16.6,T,,M,0.0,N,0.0,K,A*22
$GNRMC,080419.00,A,5002.453527,N,01958.831794,E,0.0,16.6,301120,,,A,V*0E
$GNGGA,080419.00,5002.453527,N,01958.831794,E,1,15,0.9,202.1,M,,M,,*64
$GNGLL,5002.453527,N,01958.831794,E,080419.00,A,A*73
$GPGSV,4,1,12,01,38,160,34,03,80,058,29,04,65,211,45,09,27,228,36,1*60
$GPGSV,4,2,12,17,30,269,29,19,,,11,21,19,157,39,22,58,098,35,1*52
$GPGSV,4,3,12,31,29,056,18,1*53
$GPGSV,4,4,12,01,38,160,39,03,80,058,20,09,27,228,40,8*5D
$GLGSV,2,1,05,70,31,264,37,79,13,116,39,84,47,209,33,85,47,308,17,1*78
$GLGSV,2,2,05,68,26,060,19,1*49
$GAGSV,2,1,04,103,35,240,43,136,20,167,41,6*73
$GAGSV,2,2,04,103,35,240,39,136,20,167,36,1*7A
$GNGSA,A,3,01,03,04,09,17,21,22,31,,,,,1.6,0.9,1.4,1*32
$GNGSA,A,3,68,70,79,84,85,,,,,,,,1.6,0.9,1.4,2*3F
$GNGSA,A,3,103,132,,,,,,,,,,,1.6,0.9,1.4,3*3A
$GNGSA,A,3,,,,,,,,,,,,,1.6,0.9,1.4,4*3F
$GNGSA,A,3,,,,,,,,,,,,,1.6,0.9,1.4,5*3E
$GNGSA,A,3,,,,,,,,,,,,,1.6,0.9,1.4,6*3D
$GNVTG,16.6,T,,M,0.0,N,0.0,K,A*22
$GNRMC,080420.00,A,5002.453527,N,01958.831794,E,0.0,16.6,301120,,,A,V*04
$GNGGA,080420.00,5002.453527,N,01958.831794,E,1,15,0.9,202.1,M,,M,,*6E
$GNGLL,5002.453527,N,01958.831794,E,080420.00,A,A*79
$GPGSV,4,1,12,01,38,160,33,03,80,058,29,04,65,211,45,09,27,228,36,1*67
$GPGSV,4,2,12,17,30,269,29,19,,,11,21,19,157,39,22,58,098,35,1*52
$GPGSV,4,3,12,31,29,056,19,1*52
$GPGSV,4,4,12,01,38,160,39,03,80,058,19,09,27,228,40,8*57
$GLGSV,2,1,05,70,31,264,37,79,13,116,38,84,47,209,33,85,47,308,16,1*78
$GLGSV,2,2,05,68,26,060,19,1*49
$GAGSV,2,1,04,103,35,240,43,136,20,167,41,6*73
$GAGSV,2,2,04,103,35,240,39,136,20,167,36,1*7A
$GNGSA,A,3,01,03,04,09,17,21,22,31,,,,,1.6,0.9,1.4,1*32
$GNGSA,A,3,68,70,79,84,85,,,,,,,,1.6,0.9,1.4,2*3F
$GNGSA,A,3,103,132,,,,,,,,,,,1.6,0.9,1.4,3*3A
$GNGSA,A,3,,,,,,,,,,,,,1.6,0.9,1.4,4*3F
$GNGSA,A,3,,,,,,,,,,,,,1.6,0.9,1.4,5*3E
$GNGSA,A,3,,,,,,,,,,,,,1.6,0.9,1.4,6*3D
$GNVTG,16.6,T,,M,0.0,N,0.0,K,A*22
$GNRMC,080421.00,A,5002.453527,N,01958.831794,E,0.0,16.6,301120,,,A,V*05
$GNGGA,080421.00,5002.453527,N,01958.831794,E,1,13,0.9,202.1,M,,M,,*69
$GNGLL,5002.453527,N,01958.831794,E,080421.00,A,A*78
$GPGSV,4,1,12,01,38,160,34,03,80,058,29,04,65,211,45,09,27,228,36,1*60
$GPGSV,4,2,12,17,30,269,30,19,,,11,21,19,157,39,22,58,098,35,1*5A
$GPGSV,4,3,12,31,,,20,1*60
$GPGSV,4,4,12,01,38,160,39,03,80,058,20,09,27,228,39,8*53
$GLGSV,2,1,05,70,31,264,37,79,13,116,38,84,47,209,34,85,47,308,13,1*7A
$GLGSV,2,2,05,68,26,060,20,1*43
$GAGSV,2,1,04,103,35,240,43,136,20,167,41,6*73
$GAGSV,2,2,04,103,35,240,39,136,20,167,36,1*7A
$GNGSA,A,3,01,03,04,09,17,21,22,,,,,,1.6,0.9,1.3,1*37
$GNGSA,A,3,68,70,79,84,,,,,,,,,1.6,0.9,1.3,2*35
$GNGSA,A,3,103,132,,,,,,,,,,,1.6,0.9,1.3,3*3D
$GNGSA,A,3,,,,,,,,,,,,,1.6,0.9,1.3,4*38
$GNGSA,A,3,,,,,,,,,,,,,1.6,0.9,1.3,5*39
$GNGSA,A,3,,,,,,,,,,,,,1.6,0.9,1.3,6*3A
$GNVTG,16.6,T,,M,0.0,N,0.0,K,A*22
$GNRMC,080422.00,A,5002.453527,N,01958.831794,E,0.0,16.6,301120,,,A,V*06
$GNGGA,080422.00,5002.453527,N,01958.831794,E,1,13,0.9,202.1,M,,M,,*6A
$GNGLL,5002.453527,N,01958.831794,E,080422.00,A,A*7B
$GPGSV,4,1,12,01,38,160,37,03,80,058,29,04,65,211,45,09,27,228,37,1*62
$GPGSV,4,2,12,17,30,269,30,19,,,11,21,19,157,38,22,58,098,36,1*58
$GPGSV,4,3,12,31,,,18,1*6B
$GPGSV,4,4,12,01,38,160,39,03,80,058,20,09,27,228,39,8*53
$GLGSV,2,1,05,70,31,264,37,79,13,116,39,84,47,209,33,85,,,13,1*44
$GLGSV,2,2,05,68,26,060,20,1*43
$GAGSV,2,1,04,103,35,240,43,136,20,167,41,6*73
$GAGSV,2,2,04,103,35,240,39,136,20,167,36,1*7A
$GNGSA,A,3,01,03,04,09,17,21,22,,,,,,1.6,0.9,1.3,1*37
$GNGSA,A,3,68,70,79,84,,,,,,,,,1.6,0.9,1.3,2*35
$GNGSA,A,3,103,132,,,,,,,,,,,1.6,0.9,1.3,3*3D
$GNGSA,A,3,,,,,,,,,,,,,1.6,0.9,1.3,4*38
$GNGSA,A,3,,,,,,,,,,,,,1.6,0.9,1.3,5*39
$GNGSA,A,3,,,,,,,,,,,,,1.6,0.9,1.3,6*3A
$GNVTG,16.6,T,,M,0.0,N,0.0,K,A*22
$GNRMC,080423.00,A,5002.453527,N,01958.831794,E,0.0,16.6,301120,,,A,V*07
$GNGGA,080423.00,5002.453527,N,01958.831794,E,1,13,0.9,202.1,M,,M,,*6B
$GNGLL,5002.453527,N,01958.831794,E,080423.00,A,A*7A
$GPGSV,4,1,12,01,38,160,36,03,80,058,29,04,65,211,45,09,27,228,37,1*63
$GPGSV,4,2,12,17,30,269,30,19,,,12,21,19,157,38,22,58,098,35,1*58
$GPGSV,4,3,12,31,,,17,1*64
$GPGSV,4,4,12,01,38,160,39,03,80,058,20,09,27,228,39,8*53
$GLGSV,2,1,05,70,31,264,37,79,13,116,39,84,47,209,34,85,,,12,1*42
$GLGSV,2,2,05,68,26,060,21,1*42
$GAGSV,2,1,04,103,35,240,43,136,20,167,41,6*73
$GAGSV,2,2,04,103,35,240,39,136,20,167,36,1*7A
$GNGSA,A,3,01,03,04,09,17,21,22,,,,,,1.6,0.9,1.3,1*37
$GNGSA,A,3,68,70,79,84,,,,,,,,,1.6,0.9,1.3,2*35
$GNGSA,A,3,103,132,,,,,,,,,,,1.6,0.9,1.3,3*3D
$GNGSA,A,3,,,,,,,,,,,,,1.6,0.9,1.3,4*38
$GNGSA,A,3,,,,,,,,,,,,,1.6,0.9,1.3,5*39
$GNGSA,A,3,,,,,,,,,,,,,1.6,0.9,1.3,6*3A
$GNVTG,16.6,T,,M,0.0,N,0.0,K,A*22
$GNRMC,080424.00,A,5002.453527,N,01958.831794,E,0.0,16.6,301120,,,A,V*00
$GNGGA,080424.00,5002.453527,N,01958.831794,E,1,13,0.9,202.1,M,,M,,*6C
$GNGLL,5002.453527,N,01958.831794,E,080424.00,A,A*7D
$GPGSV,4,1,12,01,38,160,36,03,80,058,29,04,65,211,45,09,27,228,37,1*63
$GPGSV,4,2,12,17,30,269,30,19,,,13,21,19,157,38,22,58,098,36,1*5A
$GPGSV,4,3,12,31,,,17,1*64
$GPGSV,4,4,12,01,38,160,39,03,80,058,20,09,27,228,39,8*53
$GLGSV,2,1,05,70,32,264,37,79,13,116,38,84,47,209,34,85,,,11,1*43
$GLGSV,2,2,05,68,26,060,21,1*42
$GAGSV,2,1,04,103,35,240,43,136,20,167,41,6*73
$GAGSV,2,2,04,103,35,240,39,136,20,167,36,1*7A
$GNGSA,A,3,01,03,04,09,17,21,22,,,,,,1.6,0.9,1.3,1*37
$GNGSA,A,3,68,70,79,84,,,,,,,,,1.6,0.9,1.3,2*35
$GNGSA,A,3,103,132,,,,,,,,,,,1.6,0.9,1.3,3*3D
$GNGSA,A,3,,,,,,,,,,,,,1.6,0.9,1.3,4*38
$GNGSA,A,3,,,,,,,,,,,,,1.6,0.9,1.3,5*39
$GNGSA,A,3,,,,,,,,,,,,,1.6,0.9,1.3,6*3A
$GNVTG,16.6,T,,M,0.0,N,0.0,K,A*22
$GNRMC,080425.00,A,5002.453527,N,01958.831794,E,0.0,16.6,301120,,,A,V*01
$GNGGA,080425.00,5002.453527,N,01958.831794,E,1,13,0.9,202.1,M,,M,,*6D
$GNGLL,5002.453527,N,01958.831794,E,080425.00,A,A*7C
$GPGSV,4,1,12,01,38,160,36,03,80,058,29,04,65,211,45,09,27,228,37,1*63
$GPGSV,4,2,12,17,30,269,30,19,,,13,21,19,157,38,22,58,098,36,1*5A
$GPGSV,4,3,12,31,,,19,1*6A
$GPGSV,4,4,12,01,38,160,39,03,80,058,19,09,27,228,39,8*59
$GLGSV,2,1,05,70,32,264,38,79,13,116,38,84,47,209,34,85,,,11,1*4C
$GLGSV,2,2,05,68,26,060,22,1*41
$GAGSV,2,1,04,103,35,240,43,136,20,167,41,6*73
$GAGSV,2,2,04,103,35,240,39,136,20,167,36,1*7A
$GNGSA,A,3,01,03,04,09,17,21,22,,,,,,1.6,0.9,1.3,1*37
$GNGSA,A,3,68,70,79,84,,,,,,,,,1.6,0.9,1.3,2*35
$GNGSA,A,3,103,132,,,,,,,,,,,1.6,0.9,1.3,3*3D
$GNGSA,A,3,,,,,,,,,,,,,1.6,0.9,1.3,4*38
$GNGSA,A,3,,,,,,,,,,,,,1.6,0.9,1.3,5*39
$GNGSA,A,3,,,,,,,,,,,,,1.6,0.9,1.3,6*3A
$GNVTG,16.6,T,,M,0.0,N,0.0,K,A*22
$GNRMC,080426.00,A,5002.453527,N,01958.831794,E,0.0,16.6,301120,,,A,V*02
$GNGGA,080426.00,5002.453527,N,01958.831794,E,1,13,0.9,202.1,M,,M,,*6E
$GNGLL,5002.453527,N,01958.831794,E,080426.00,A,A*7F
$GPGSV,4,1,12,01,38,160,35,03,80,058,29,04,65,211,45,09,27,228,36,1*61
$GPGSV,4,2,12,17,30,269,30,19,,,14,21,19,157,39,22,58,098,36,1*5C
$GPGSV,4,3,12,31,,,20,1*60
$GPGSV,4,4,12,01,38,160,39,03,80,058,20,09,27,228,39,8*53
$GLGSV,2,1,05,70,32,264,38,79,13,116,39,84,47,209,34,85,,,11,1*4D
$GLGSV,2,2,05,68,26,060,21,1*42
$GAGSV,2,1,04,103,35,240,43,136,20,167,41,6*73
$GAGSV,2,2,04,103,35,240,38,136,20,167,36,1*7B
$GNGSA,A,3,01,03,04,09,17,21,22,,,,,,1.6,0.9,1.3,1*37
$GNGSA,A,3,68,70,79,84,,,,,,,,,1.6,0.9,1.3,2*35
$GNGSA,A,3,103,132,,,,,,,,,,,1.6,0.9,1.3,3*3D
$GNGSA,A,3,,,,,,,,,,,,,1.6,0.9,1.3,4*38
$GNGSA,A,3,,,,,,,,,,,,,1.6,0.9,1.3,5*39
$GNGSA,A,3,,,,,,,,,,,,,1.6,0.9,1.3,6*3A
$GNVTG,16.6,T,,M,0.0,N,0.0,K,A*22
$GNRMC,080427.00,A,5002.453527,N,01958.831794,E,0.0,16.6,301120,,,A,V*03
$GNGGA,080427.00,5002.453527,N,01958.831794,E,1,13,0.9,202.1,M,,M,,*6F
$GNGLL,5002.453527,N,01958.831794,E,080427.00,A,A*7E
$GPGSV,4,1,12,01,38,160,33,03,80,058,29,04,65,211,45,09,27,228,36,1*67
$GPGSV,4,2,12,17,30,269,30,19,,,15,21,19,157,39,22,58,098,36,1*5D
$GPGSV,4,3,12,31,,,21,1*61
$GPGSV,4,4,12,01,38,160,39,03,80,058,21,09,27,228,39,8*52
$GLGSV,2,1,05,70,32,264,37,79,13,116,38,84,47,209,34,85,,,11,1*43
$GLGSV,2,2,05,68,26,060,20,1*43
$GAGSV,2,1,04,103,35,240,43,136,20,167,41,6*73
$GAGSV,2,2,04,103,35,240,38,136,20,167,36,1*7B
$GNGSA,A,3,01,03,04,09,17,21,22,,,,,,1.6,0.9,1.3,1*37
$GNGSA,A,3,68,70,79,84,,,,,,,,,1.6,0.9,1.3,2*35
$GNGSA,A,3,103,132,,,,,,,,,,,1.6,0.9,1.3,3*3D
$GNGSA,A,3,,,,,,,,,,,,,1.6,0.9,1.3,4*38
$GNGSA,A,3,,,,,,,,,,,,,1.6,0.9,1.3,5*39
$GNGSA,A,3,,,,,,,,,,,,,1.6,0.9,1.3,6*3A
$GNVTG,16.6,T,,M,0.0,N,0.0,K,A*22
