$GPGGA,051347.00,6001.336799,N,03014.169008,E,1,05,0.9,16.5,M,18.0,M,,*59
{"class":"TPV","mode":3,"lat":60.022279983,"lon":30.236150133,"altHAE":34.5000,"altMSL":16.5000,"alt":16.5000,"magvar":11.1,"geoidSep":18.000,"eph":17.100}
{"class":"SKY","hdop":0.90,"uSat":5}
$GNGNS,051347.00,6001.336799,N,03014.169008,E,AAN,09,0.9,16.5,18.0,,,V*55
$GPVTG,0.0,T,351.6,M,0.0,N,0.0,K,A*22
$GPRMC,051347.00,A,6001.336799,N,03014.169008,E,0.0,0.0,200922,8.4,E,A,V*4A
{"class":"TPV","mode":3,"time":"2022-09-20T05:13:47.000Z","ept":0.005,"lat":60.022279983,"lon":30.236150133,"altHAE":34.5000,"altMSL":16.5000,"alt":16.5000,"track":0.0000,"magtrack":351.6000,"magvar":8.4,"speed":0.000,"geoidSep":18.000,"eph":17.100}
$GPGSA,A,3,08,10,16,18,27,,,,,,,,1.2,0.9,0.9,1*2E
{"class":"TPV","mode":3,"time":"2022-09-20T05:13:47.000Z","ept":0.005,"lat":60.022279983,"lon":30.236150133,"altHAE":34.5000,"altMSL":16.5000,"alt":16.5000,"epv":20.700,"track":0.0000,"magtrack":351.6000,"magvar":8.4,"speed":0.000,"geoidSep":18.000,"eph":17.100,"sep":22.800}
{"class":"SKY","hdop":0.90,"pdop":1.20,"vdop":0.90,"uSat":5}
$GNGSA,A,3,08,10,16,18,27,,,,,,,,1.2,0.9,0.9,1*30
{"class":"TPV","mode":3,"time":"2022-09-20T05:13:47.000Z","ept":0.005,"lat":60.022279983,"lon":30.236150133,"altHAE":34.5000,"altMSL":16.5000,"alt":16.5000,"epv":20.700,"track":0.0000,"magtrack":351.6000,"magvar":8.4,"speed":0.000,"geoidSep":18.000,"eph":17.100,"sep":22.800}
$GNGSA,A,3,69,76,78,85,,,,,,,,,1.2,0.9,0.9,2*3D
{"class":"TPV","mode":3,"time":"2022-09-20T05:13:47.000Z","ept":0.005,"lat":60.022279983,"lon":30.236150133,"altHAE":34.5000,"altMSL":16.5000,"alt":16.5000,"epv":20.700,"track":0.0000,"magtrack":351.6000,"magvar":8.4,"speed":0.000,"geoidSep":18.000,"eph":17.100,"sep":22.800}
{"class":"SKY","hdop":0.90,"pdop":1.20,"vdop":0.90,"uSat":5}
$GNGSA,A,3,,,,,,,,,,,,,1.2,0.9,0.9,3*30
{"class":"TPV","mode":3,"time":"2022-09-20T05:13:47.000Z","ept":0.005,"lat":60.022279983,"lon":30.236150133,"altHAE":34.5000,"altMSL":16.5000,"alt":16.5000,"epv":20.700,"track":0.0000,"magtrack":351.6000,"magvar":8.4,"speed":0.000,"geoidSep":18.000,"eph":17.100,"sep":22.800}
{"class":"SKY","hdop":0.90,"pdop":1.20,"vdop":0.90,"uSat":5}
$PQGSA,A,3,12,,,,,,,,,,,,1.2,0.9,0.9,4*3C
{"class":"TPV","mode":3,"time":"2022-09-20T05:13:47.000Z","ept":0.005,"lat":60.022279983,"lon":30.236150133,"altHAE":34.5000,"altMSL":16.5000,"alt":16.5000,"epv":20.700,"track":0.0000,"magtrack":351.6000,"magvar":8.4,"speed":0.000,"geoidSep":18.000,"eph":17.100,"sep":22.800}
{"class":"SKY","hdop":0.90,"pdop":1.20,"vdop":0.90,"uSat":5}
$PQGSA,A,3,,,,,,,,,,,,,1.2,0.9,0.9,5*3E
{"class":"TPV","mode":3,"time":"2022-09-20T05:13:47.000Z","ept":0.005,"lat":60.022279983,"lon":30.236150133,"altHAE":34.5000,"altMSL":16.5000,"alt":16.5000,"epv":20.700,"track":0.0000,"magtrack":351.6000,"magvar":8.4,"speed":0.000,"geoidSep":18.000,"eph":17.100,"sep":22.800}
{"class":"SKY","hdop":0.90,"pdop":1.20,"vdop":0.90,"uSat":5}
$GLGSV,2,1,08,78,20,345,17,76,09,239,19,69,14,018,16,87,25,289,11,1*7D
$GLGSV,2,2,08,85,38,099,26,71,33,151,12,70,53,080,,77,30,284,,1*76
{"class":"SKY","gdop":6.35,"hdop":0.90,"pdop":1.20,"tdop":2.13,"xdop":1.67,"ydop":0.94,"vdop":0.90,"nSat":8,"uSat":4,"satellites":[{"PRN":78,"gnssid":6,"svid":14,"az":345.0,"el":20.0,"ss":17.0,"used":true},{"PRN":76,"gnssid":6,"svid":12,"az":239.0,"el":9.0,"ss":19.0,"used":true},{"PRN":69,"gnssid":6,"svid":5,"az":18.0,"el":14.0,"ss":16.0,"used":true},{"PRN":87,"gnssid":6,"svid":23,"az":289.0,"el":25.0,"ss":11.0,"used":false},{"PRN":85,"gnssid":6,"svid":21,"az":99.0,"el":38.0,"ss":26.0,"used":true},{"PRN":71,"gnssid":6,"svid":7,"az":151.0,"el":33.0,"ss":12.0,"used":false},{"PRN":70,"gnssid":6,"svid":6,"az":80.0,"el":53.0,"ss":0.0,"used":false},{"PRN":77,"gnssid":6,"svid":13,"az":284.0,"el":30.0,"ss":0.0,"used":false}]}
$PQGSV,4,1,14,04,,,32,12,46,282,30,19,50,092,31,25,17,302,26,0,4*54
$PQGSV,4,2,14,02,08,120,,05,18,146,,06,05,099,,08,21,061,,0,4*61
$PQGSV,4,3,14,13,35,066,,16,08,092,,20,20,039,,22,31,164,,0,4*62
$PQGSV,4,4,14,23,09,350,,24,04,248,,0,4*6C
{"class":"SKY","gdop":6.35,"hdop":0.90,"pdop":1.20,"tdop":2.13,"xdop":1.67,"ydop":0.94,"vdop":0.90,"nSat":22,"uSat":5,"satellites":[{"PRN":78,"gnssid":6,"svid":14,"az":345.0,"el":20.0,"ss":17.0,"used":true},{"PRN":76,"gnssid":6,"svid":12,"az":239.0,"el":9.0,"ss":19.0,"used":true},{"PRN":69,"gnssid":6,"svid":5,"az":18.0,"el":14.0,"ss":16.0,"used":true},{"PRN":87,"gnssid":6,"svid":23,"az":289.0,"el":25.0,"ss":11.0,"used":false},{"PRN":85,"gnssid":6,"svid":21,"az":99.0,"el":38.0,"ss":26.0,"used":true},{"PRN":71,"gnssid":6,"svid":7,"az":151.0,"el":33.0,"ss":12.0,"used":false},{"PRN":70,"gnssid":6,"svid":6,"az":80.0,"el":53.0,"ss":0.0,"used":false},{"PRN":77,"gnssid":6,"svid":13,"az":284.0,"el":30.0,"ss":0.0,"used":false},{"PRN":404,"gnssid":3,"svid":4,"az":0.0,"el":0.0,"ss":32.0,"used":false},{"PRN":412,"gnssid":3,"svid":12,"az":282.0,"el":46.0,"ss":30.0,"used":true},{"PRN":419,"gnssid":3,"svid":19,"az":92.0,"el":50.0,"ss":31.0,"used":false},{"PRN":425,"gnssid":3,"svid":25,"az":302.0,"el":17.0,"ss":26.0,"used":false},{"PRN":402,"gnssid":3,"svid":2,"az":120.0,"el":8.0,"ss":0.0,"used":false},{"PRN":405,"gnssid":3,"svid":5,"az":146.0,"el":18.0,"ss":0.0,"used":false},{"PRN":406,"gnssid":3,"svid":6,"az":99.0,"el":5.0,"ss":0.0,"used":false},{"PRN":408,"gnssid":3,"svid":8,"az":61.0,"el":21.0,"ss":0.0,"used":false},{"PRN":413,"gnssid":3,"svid":13,"az":66.0,"el":35.0,"ss":0.0,"used":false},{"PRN":416,"gnssid":3,"svid":16,"az":92.0,"el":8.0,"ss":0.0,"used":false},{"PRN":420,"gnssid":3,"svid":20,"az":39.0,"el":20.0,"ss":0.0,"used":false},{"PRN":422,"gnssid":3,"svid":22,"az":164.0,"el":31.0,"ss":0.0,"used":false},{"PRN":423,"gnssid":3,"svid":23,"az":350.0,"el":9.0,"ss":0.0,"used":false},{"PRN":424,"gnssid":3,"svid":24,"az":248.0,"el":4.0,"ss":0.0,"used":false}]}
$GAGSV,1,1,03,07,23,126,,12,,,,24,19,329,,7*76
{"class":"SKY","gdop":6.35,"hdop":0.90,"pdop":1.20,"tdop":2.13,"xdop":1.67,"ydop":0.94,"vdop":0.90,"nSat":25,"uSat":5,"satellites":[{"PRN":78,"gnssid":6,"svid":14,"az":345.0,"el":20.0,"ss":17.0,"used":true},{"PRN":76,"gnssid":6,"svid":12,"az":239.0,"el":9.0,"ss":19.0,"used":true},{"PRN":69,"gnssid":6,"svid":5,"az":18.0,"el":14.0,"ss":16.0,"used":true},{"PRN":87,"gnssid":6,"svid":23,"az":289.0,"el":25.0,"ss":11.0,"used":false},{"PRN":85,"gnssid":6,"svid":21,"az":99.0,"el":38.0,"ss":26.0,"used":true},{"PRN":71,"gnssid":6,"svid":7,"az":151.0,"el":33.0,"ss":12.0,"used":false},{"PRN":70,"gnssid":6,"svid":6,"az":80.0,"el":53.0,"ss":0.0,"used":false},{"PRN":77,"gnssid":6,"svid":13,"az":284.0,"el":30.0,"ss":0.0,"used":false},{"PRN":404,"gnssid":3,"svid":4,"az":0.0,"el":0.0,"ss":32.0,"used":false},{"PRN":412,"gnssid":3,"svid":12,"az":282.0,"el":46.0,"ss":30.0,"used":true},{"PRN":419,"gnssid":3,"svid":19,"az":92.0,"el":50.0,"ss":31.0,"used":false},{"PRN":425,"gnssid":3,"svid":25,"az":302.0,"el":17.0,"ss":26.0,"used":false},{"PRN":402,"gnssid":3,"svid":2,"az":120.0,"el":8.0,"ss":0.0,"used":false},{"PRN":405,"gnssid":3,"svid":5,"az":146.0,"el":18.0,"ss":0.0,"used":false},{"PRN":406,"gnssid":3,"svid":6,"az":99.0,"el":5.0,"ss":0.0,"used":false},{"PRN":408,"gnssid":3,"svid":8,"az":61.0,"el":21.0,"ss":0.0,"used":false},{"PRN":413,"gnssid":3,"svid":13,"az":66.0,"el":35.0,"ss":0.0,"used":false},{"PRN":416,"gnssid":3,"svid":16,"az":92.0,"el":8.0,"ss":0.0,"used":false},{"PRN":420,"gnssid":3,"svid":20,"az":39.0,"el":20.0,"ss":0.0,"used":false},{"PRN":422,"gnssid":3,"svid":22,"az":164.0,"el":31.0,"ss":0.0,"used":false},{"PRN":423,"gnssid":3,"svid":23,"az":350.0,"el":9.0,"ss":0.0,"used":false},{"PRN":424,"gnssid":3,"svid":24,"az":248.0,"el":4.0,"ss":0.0,"used":false},{"PRN":307,"gnssid":2,"svid":7,"az":126.0,"el":23.0,"ss":0.0,"used":false},{"PRN":312,"gnssid":2,"svid":12,"az":0.0,"el":0.0,"ss":0.0,"used":false},{"PRN":324,"gnssid":2,"svid":24,"az":329.0,"el":19.0,"ss":0.0,"used":false}]}
$GPGSV,3,1,12,08,34,296,19,10,50,180,25,16,27,219,26,18,36,088,31,1*67
$GPGSV,3,2,12,23,64,118,23,27,66,255,27,07,06,312,,13,16,026,,1*6E
$GPGSV,3,3,12,15,27,056,,21,02,265,,26,07,203,,30,09,343,,1*69
$GPGGA,051348.00,6001.336431,N,03014.169236,E,1,05,0.9,15.8,M,18.0,M,,*56
{"class":"SKY","gdop":6.35,"hdop":0.90,"pdop":1.20,"tdop":2.13,"xdop":1.67,"ydop":0.94,"vdop":0.90,"uSat":5}
$GNGNS,051348.00,6001.336431,N,03014.169236,E,AAN,09,0.9,15.8,18.0,,,V*5A
$GPVTG,0.0,T,351.6,M,0.0,N,0.0,K,A*22
$GPRMC,051348.00,A,6001.336431,N,03014.169236,E,0.0,0.0,200922,8.4,E,A,V*4B
{"class":"TPV","mode":3,"time":"2022-09-20T05:13:48.000Z","ept":0.005,"lat":60.022273850,"lon":30.236153933,"altHAE":33.8000,"altMSL":15.8000,"alt":15.8000,"epx":24.989,"epy":14.074,"epv":20.700,"track":0.0000,"magtrack":351.6000,"magvar":8.4,"speed":0.000,"climb":-0.700,"eps":49.98,"epc":41.40,"geoidSep":18.000,"eph":17.100,"sep":22.800}
$GPGSA,A,3,08,10,16,18,27,,,,,,,,1.2,0.9,0.9,1*2E
$GNGSA,A,3,08,10,16,18,27,,,,,,,,1.2,0.9,0.9,1*30
{"class":"TPV","mode":3,"time":"2022-09-20T05:13:48.000Z","ept":0.005,"lat":60.022273850,"lon":30.236153933,"altHAE":33.8000,"altMSL":15.8000,"alt":15.8000,"epx":24.989,"epy":14.074,"epv":20.700,"track":0.0000,"magtrack":351.6000,"magvar":8.4,"speed":0.000,"climb":-0.700,"eps":49.98,"epc":41.40,"geoidSep":18.000,"eph":17.100,"sep":22.800}
$GNGSA,A,3,69,76,78,85,,,,,,,,,1.2,0.9,0.9,2*3D
{"class":"TPV","mode":3,"time":"2022-09-20T05:13:48.000Z","ept":0.005,"lat":60.022273850,"lon":30.236153933,"altHAE":33.8000,"altMSL":15.8000,"alt":15.8000,"epx":24.989,"epy":14.074,"epv":20.700,"track":0.0000,"magtrack":351.6000,"magvar":8.4,"speed":0.000,"climb":-0.700,"eps":49.98,"epc":41.40,"geoidSep":18.000,"eph":17.100,"sep":22.800}
{"class":"SKY","gdop":6.35,"hdop":0.90,"pdop":1.20,"tdop":2.13,"xdop":1.67,"ydop":0.94,"vdop":0.90,"uSat":5}
$GNGSA,A,3,,,,,,,,,,,,,1.2,0.9,0.9,3*30
{"class":"TPV","mode":3,"time":"2022-09-20T05:13:48.000Z","ept":0.005,"lat":60.022273850,"lon":30.236153933,"altHAE":33.8000,"altMSL":15.8000,"alt":15.8000,"epx":24.989,"epy":14.074,"epv":20.700,"track":0.0000,"magtrack":351.6000,"magvar":8.4,"speed":0.000,"climb":-0.700,"eps":49.98,"epc":41.40,"geoidSep":18.000,"eph":17.100,"sep":22.800}
{"class":"SKY","gdop":6.35,"hdop":0.90,"pdop":1.20,"tdop":2.13,"xdop":1.67,"ydop":0.94,"vdop":0.90,"uSat":5}
$PQGSA,A,3,12,,,,,,,,,,,,1.2,0.9,0.9,4*3C
{"class":"TPV","mode":3,"time":"2022-09-20T05:13:48.000Z","ept":0.005,"lat":60.022273850,"lon":30.236153933,"altHAE":33.8000,"altMSL":15.8000,"alt":15.8000,"epx":24.989,"epy":14.074,"epv":20.700,"track":0.0000,"magtrack":351.6000,"magvar":8.4,"speed":0.000,"climb":-0.700,"eps":49.98,"epc":41.40,"geoidSep":18.000,"eph":17.100,"sep":22.800}
{"class":"SKY","gdop":6.35,"hdop":0.90,"pdop":1.20,"tdop":2.13,"xdop":1.67,"ydop":0.94,"vdop":0.90,"uSat":5}
$PQGSA,A,3,,,,,,,,,,,,,1.2,0.9,0.9,5*3E
{"class":"TPV","mode":3,"time":"2022-09-20T05:13:48.000Z","ept":0.005,"lat":60.022273850,"lon":30.236153933,"altHAE":33.8000,"altMSL":15.8000,"alt":15.8000,"epx":24.989,"epy":14.074,"epv":20.700,"track":0.0000,"magtrack":351.6000,"magvar":8.4,"speed":0.000,"climb":-0.700,"eps":49.98,"epc":41.40,"geoidSep":18.000,"eph":17.100,"sep":22.800}
{"class":"SKY","gdop":6.35,"hdop":0.90,"pdop":1.20,"tdop":2.13,"xdop":1.67,"ydop":0.94,"vdop":0.90,"uSat":5}
$GLGSV,2,1,08,78,20,345,17,76,09,239,22,69,14,018,16,87,25,289,11,1*75
$GLGSV,2,2,08,85,38,099,26,71,33,151,12,70,53,080,,77,30,284,,1*76
{"class":"TPV","mode":3,"time":"2022-09-20T05:13:48.000Z","ept":0.005,"lat":60.022273850,"lon":30.236153933,"altHAE":33.8000,"altMSL":15.8000,"alt":15.8000,"epx":24.989,"epy":14.074,"epv":20.700,"track":0.0000,"magtrack":351.6000,"magvar":8.4,"speed":0.000,"climb":-0.700,"eps":49.98,"epc":41.40,"geoidSep":18.000,"eph":17.100,"sep":22.800}
{"class":"SKY","gdop":6.35,"hdop":0.90,"pdop":1.20,"tdop":2.13,"xdop":1.67,"ydop":0.94,"vdop":0.90,"nSat":8,"uSat":4,"satellites":[{"PRN":78,"gnssid":6,"svid":14,"az":345.0,"el":20.0,"ss":17.0,"used":true},{"PRN":76,"gnssid":6,"svid":12,"az":239.0,"el":9.0,"ss":22.0,"used":true},{"PRN":69,"gnssid":6,"svid":5,"az":18.0,"el":14.0,"ss":16.0,"used":true},{"PRN":87,"gnssid":6,"svid":23,"az":289.0,"el":25.0,"ss":11.0,"used":false},{"PRN":85,"gnssid":6,"svid":21,"az":99.0,"el":38.0,"ss":26.0,"used":true},{"PRN":71,"gnssid":6,"svid":7,"az":151.0,"el":33.0,"ss":12.0,"used":false},{"PRN":70,"gnssid":6,"svid":6,"az":80.0,"el":53.0,"ss":0.0,"used":false},{"PRN":77,"gnssid":6,"svid":13,"az":284.0,"el":30.0,"ss":0.0,"used":false}]}
$PQGSV,4,1,14,04,,,32,12,46,282,30,19,50,092,29,25,17,302,28,0,4*53
$PQGSV,4,2,14,02,08,120,,05,18,146,,06,05,099,,08,21,061,,0,4*61
$PQGSV,4,3,14,13,35,066,,16,08,092,,20,20,039,,22,31,164,,0,4*62
$PQGSV,4,4,14,23,09,350,,24,04,248,,0,4*6C
{"class":"TPV","mode":3,"time":"2022-09-20T05:13:48.000Z","ept":0.005,"lat":60.022273850,"lon":30.236153933,"altHAE":33.8000,"altMSL":15.8000,"alt":15.8000,"epx":24.989,"epy":14.074,"epv":20.700,"track":0.0000,"magtrack":351.6000,"magvar":8.4,"speed":0.000,"climb":-0.700,"eps":49.98,"epc":41.40,"geoidSep":18.000,"eph":17.100,"sep":22.800}
{"class":"SKY","gdop":6.35,"hdop":0.90,"pdop":1.20,"tdop":2.13,"xdop":1.67,"ydop":0.94,"vdop":0.90,"nSat":22,"uSat":5,"satellites":[{"PRN":78,"gnssid":6,"svid":14,"az":345.0,"el":20.0,"ss":17.0,"used":true},{"PRN":76,"gnssid":6,"svid":12,"az":239.0,"el":9.0,"ss":22.0,"used":true},{"PRN":69,"gnssid":6,"svid":5,"az":18.0,"el":14.0,"ss":16.0,"used":true},{"PRN":87,"gnssid":6,"svid":23,"az":289.0,"el":25.0,"ss":11.0,"used":false},{"PRN":85,"gnssid":6,"svid":21,"az":99.0,"el":38.0,"ss":26.0,"used":true},{"PRN":71,"gnssid":6,"svid":7,"az":151.0,"el":33.0,"ss":12.0,"used":false},{"PRN":70,"gnssid":6,"svid":6,"az":80.0,"el":53.0,"ss":0.0,"used":false},{"PRN":77,"gnssid":6,"svid":13,"az":284.0,"el":30.0,"ss":0.0,"used":false},{"PRN":404,"gnssid":3,"svid":4,"az":0.0,"el":0.0,"ss":32.0,"used":false},{"PRN":412,"gnssid":3,"svid":12,"az":282.0,"el":46.0,"ss":30.0,"used":true},{"PRN":419,"gnssid":3,"svid":19,"az":92.0,"el":50.0,"ss":29.0,"used":false},{"PRN":425,"gnssid":3,"svid":25,"az":302.0,"el":17.0,"ss":28.0,"used":false},{"PRN":402,"gnssid":3,"svid":2,"az":120.0,"el":8.0,"ss":0.0,"used":false},{"PRN":405,"gnssid":3,"svid":5,"az":146.0,"el":18.0,"ss":0.0,"used":false},{"PRN":406,"gnssid":3,"svid":6,"az":99.0,"el":5.0,"ss":0.0,"used":false},{"PRN":408,"gnssid":3,"svid":8,"az":61.0,"el":21.0,"ss":0.0,"used":false},{"PRN":413,"gnssid":3,"svid":13,"az":66.0,"el":35.0,"ss":0.0,"used":false},{"PRN":416,"gnssid":3,"svid":16,"az":92.0,"el":8.0,"ss":0.0,"used":false},{"PRN":420,"gnssid":3,"svid":20,"az":39.0,"el":20.0,"ss":0.0,"used":false},{"PRN":422,"gnssid":3,"svid":22,"az":164.0,"el":31.0,"ss":0.0,"used":false},{"PRN":423,"gnssid":3,"svid":23,"az":350.0,"el":9.0,"ss":0.0,"used":false},{"PRN":424,"gnssid":3,"svid":24,"az":248.0,"el":4.0,"ss":0.0,"used":false}]}
$GAGSV,1,1,03,07,23,126,,12,,,,24,19,329,,7*76
{"class":"TPV","mode":3,"time":"2022-09-20T05:13:48.000Z","ept":0.005,"lat":60.022273850,"lon":30.236153933,"altHAE":33.8000,"altMSL":15.8000,"alt":15.8000,"epx":24.989,"epy":14.074,"epv":20.700,"track":0.0000,"magtrack":351.6000,"magvar":8.4,"speed":0.000,"climb":-0.700,"eps":49.98,"epc":41.40,"geoidSep":18.000,"eph":17.100,"sep":22.800}
{"class":"SKY","gdop":6.35,"hdop":0.90,"pdop":1.20,"tdop":2.13,"xdop":1.67,"ydop":0.94,"vdop":0.90,"nSat":25,"uSat":5,"satellites":[{"PRN":78,"gnssid":6,"svid":14,"az":345.0,"el":20.0,"ss":17.0,"used":true},{"PRN":76,"gnssid":6,"svid":12,"az":239.0,"el":9.0,"ss":22.0,"used":true},{"PRN":69,"gnssid":6,"svid":5,"az":18.0,"el":14.0,"ss":16.0,"used":true},{"PRN":87,"gnssid":6,"svid":23,"az":289.0,"el":25.0,"ss":11.0,"used":false},{"PRN":85,"gnssid":6,"svid":21,"az":99.0,"el":38.0,"ss":26.0,"used":true},{"PRN":71,"gnssid":6,"svid":7,"az":151.0,"el":33.0,"ss":12.0,"used":false},{"PRN":70,"gnssid":6,"svid":6,"az":80.0,"el":53.0,"ss":0.0,"used":false},{"PRN":77,"gnssid":6,"svid":13,"az":284.0,"el":30.0,"ss":0.0,"used":false},{"PRN":404,"gnssid":3,"svid":4,"az":0.0,"el":0.0,"ss":32.0,"used":false},{"PRN":412,"gnssid":3,"svid":12,"az":282.0,"el":46.0,"ss":30.0,"used":true},{"PRN":419,"gnssid":3,"svid":19,"az":92.0,"el":50.0,"ss":29.0,"used":false},{"PRN":425,"gnssid":3,"svid":25,"az":302.0,"el":17.0,"ss":28.0,"used":false},{"PRN":402,"gnssid":3,"svid":2,"az":120.0,"el":8.0,"ss":0.0,"used":false},{"PRN":405,"gnssid":3,"svid":5,"az":146.0,"el":18.0,"ss":0.0,"used":false},{"PRN":406,"gnssid":3,"svid":6,"az":99.0,"el":5.0,"ss":0.0,"used":false},{"PRN":408,"gnssid":3,"svid":8,"az":61.0,"el":21.0,"ss":0.0,"used":false},{"PRN":413,"gnssid":3,"svid":13,"az":66.0,"el":35.0,"ss":0.0,"used":false},{"PRN":416,"gnssid":3,"svid":16,"az":92.0,"el":8.0,"ss":0.0,"used":false},{"PRN":420,"gnssid":3,"svid":20,"az":39.0,"el":20.0,"ss":0.0,"used":false},{"PRN":422,"gnssid":3,"svid":22,"az":164.0,"el":31.0,"ss":0.0,"used":false},{"PRN":423,"gnssid":3,"svid":23,"az":350.0,"el":9.0,"ss":0.0,"used":false},{"PRN":424,"gnssid":3,"svid":24,"az":248.0,"el":4.0,"ss":0.0,"used":false},{"PRN":307,"gnssid":2,"svid":7,"az":126.0,"el":23.0,"ss":0.0,"used":false},{"PRN":312,"gnssid":2,"svid":12,"az":0.0,"el":0.0,"ss":0.0,"used":false},{"PRN":324,"gnssid":2,"svid":24,"az":329.0,"el":19.0,"ss":0.0,"used":false}]}
$GPGSV,3,1,12,08,34,296,19,10,50,180,24,16,27,219,26,18,36,088,32,1*65
$GPGSV,3,2,12,23,64,118,21,27,66,255,28,07,06,312,,13,16,026,,1*63
$GPGSV,3,3,12,15,27,056,,21,02,265,,26,07,203,,30,09,343,,1*69
{"class":"TPV","mode":3,"time":"2022-09-20T05:13:48.000Z","ept":0.005,"lat":60.022273850,"lon":30.236153933,"altHAE":33.8000,"altMSL":15.8000,"alt":15.8000,"epx":24.989,"epy":14.074,"epv":20.700,"track":0.0000,"magtrack":351.6000,"magvar":8.4,"speed":0.000,"climb":-0.700,"eps":49.98,"epc":41.40,"geoidSep":18.000,"eph":17.100,"sep":22.800}
{"class":"SKY","gdop":6.35,"hdop":0.90,"pdop":1.20,"tdop":2.13,"xdop":1.67,"ydop":0.94,"vdop":0.90,"nSat":37,"uSat":10,"satellites":[{"PRN":78,"gnssid":6,"svid":14,"az":345.0,"el":20.0,"ss":17.0,"used":true},{"PRN":76,"gnssid":6,"svid":12,"az":239.0,"el":9.0,"ss":22.0,"used":true},{"PRN":69,"gnssid":6,"svid":5,"az":18.0,"el":14.0,"ss":16.0,"used":true},{"PRN":87,"gnssid":6,"svid":23,"az":289.0,"el":25.0,"ss":11.0,"used":false},{"PRN":85,"gnssid":6,"svid":21,"az":99.0,"el":38.0,"ss":26.0,"used":true},{"PRN":71,"gnssid":6,"svid":7,"az":151.0,"el":33.0,"ss":12.0,"used":false},{"PRN":70,"gnssid":6,"svid":6,"az":80.0,"el":53.0,"ss":0.0,"used":false},{"PRN":77,"gnssid":6,"svid":13,"az":284.0,"el":30.0,"ss":0.0,"used":false},{"PRN":404,"gnssid":3,"svid":4,"az":0.0,"el":0.0,"ss":32.0,"used":false},{"PRN":412,"gnssid":3,"svid":12,"az":282.0,"el":46.0,"ss":30.0,"used":true},{"PRN":419,"gnssid":3,"svid":19,"az":92.0,"el":50.0,"ss":29.0,"used":false},{"PRN":425,"gnssid":3,"svid":25,"az":302.0,"el":17.0,"ss":28.0,"used":false},{"PRN":402,"gnssid":3,"svid":2,"az":120.0,"el":8.0,"ss":0.0,"used":false},{"PRN":405,"gnssid":3,"svid":5,"az":146.0,"el":18.0,"ss":0.0,"used":false},{"PRN":406,"gnssid":3,"svid":6,"az":99.0,"el":5.0,"ss":0.0,"used":false},{"PRN":408,"gnssid":3,"svid":8,"az":61.0,"el":21.0,"ss":0.0,"used":false},{"PRN":413,"gnssid":3,"svid":13,"az":66.0,"el":35.0,"ss":0.0,"used":false},{"PRN":416,"gnssid":3,"svid":16,"az":92.0,"el":8.0,"ss":0.0,"used":false},{"PRN":420,"gnssid":3,"svid":20,"az":39.0,"el":20.0,"ss":0.0,"used":false},{"PRN":422,"gnssid":3,"svid":22,"az":164.0,"el":31.0,"ss":0.0,"used":false},{"PRN":423,"gnssid":3,"svid":23,"az":350.0,"el":9.0,"ss":0.0,"used":false},{"PRN":424,"gnssid":3,"svid":24,"az":248.0,"el":4.0,"ss":0.0,"used":false},{"PRN":307,"gnssid":2,"svid":7,"az":126.0,"el":23.0,"ss":0.0,"used":false},{"PRN":312,"gnssid":2,"svid":12,"az":0.0,"el":0.0,"ss":0.0,"used":false},{"PRN":324,"gnssid":2,"svid":24,"az":329.0,"el":19.0,"ss":0.0,"used":false},{"PRN":8,"gnssid":0,"svid":8,"az":296.0,"el":34.0,"ss":19.0,"used":true},{"PRN":10,"gnssid":0,"svid":10,"az":180.0,"el":50.0,"ss":24.0,"used":true},{"PRN":16,"gnssid":0,"svid":16,"az":219.0,"el":27.0,"ss":26.0,"used":true},{"PRN":18,"gnssid":0,"svid":18,"az":88.0,"el":36.0,"ss":32.0,"used":true},{"PRN":23,"gnssid":0,"svid":23,"az":118.0,"el":64.0,"ss":21.0,"used":false},{"PRN":27,"gnssid":0,"svid":27,"az":255.0,"el":66.0,"ss":28.0,"used":true},{"PRN":7,"gnssid":0,"svid":7,"az":312.0,"el":6.0,"ss":0.0,"used":false},{"PRN":13,"gnssid":0,"svid":13,"az":26.0,"el":16.0,"ss":0.0,"used":false},{"PRN":15,"gnssid":0,"svid":15,"az":56.0,"el":27.0,"ss":0.0,"used":false},{"PRN":21,"gnssid":0,"svid":21,"az":265.0,"el":2.0,"ss":0.0,"used":false},{"PRN":26,"gnssid":0,"svid":26,"az":203.0,"el":7.0,"ss":0.0,"used":false},{"PRN":30,"gnssid":0,"svid":30,"az":343.0,"el":9.0,"ss":0.0,"used":false}]}
$GPGGA,051349.00,6001.336351,N,03014.169007,E,1,05,0.9,13.9,M,18.0,M,,*51
{"class":"SKY","gdop":6.35,"hdop":0.90,"pdop":1.20,"tdop":2.13,"xdop":1.67,"ydop":0.94,"vdop":0.90,"uSat":5}
$GNGNS,051349.00,6001.336351,N,03014.169007,E,AAN,09,0.9,13.9,18.0,,,V*5D
$GPVTG,0.0,T,351.6,M,0.0,N,0.0,K,A*22
$GPRMC,051349.00,A,6001.336351,N,03014.169007,E,0.0,0.0,200922,8.4,E,A,V*4B
{"class":"TPV","mode":3,"time":"2022-09-20T05:13:49.000Z","ept":0.005,"lat":60.022272517,"lon":30.236150117,"altHAE":31.9000,"altMSL":13.9000,"alt":13.9000,"epx":24.989,"epy":14.074,"epv":20.700,"track":0.0000,"magtrack":351.6000,"magvar":8.4,"speed":0.000,"climb":-1.900,"eps":49.98,"epc":41.40,"geoidSep":18.000,"eph":17.100,"sep":22.800}
$GPGSA,A,3,08,10,16,18,27,,,,,,,,1.2,0.9,0.9,1*2E
$GNGSA,A,3,08,10,16,18,27,,,,,,,,1.2,0.9,0.9,1*30
{"class":"TPV","mode":3,"time":"2022-09-20T05:13:49.000Z","ept":0.005,"lat":60.022272517,"lon":30.236150117,"altHAE":31.9000,"altMSL":13.9000,"alt":13.9000,"epx":24.989,"epy":14.074,"epv":20.700,"track":0.0000,"magtrack":351.6000,"magvar":8.4,"speed":0.000,"climb":-1.900,"eps":49.98,"epc":41.40,"geoidSep":18.000,"eph":17.100,"sep":22.800}
$GNGSA,A,3,69,76,78,85,,,,,,,,,1.2,0.9,0.9,2*3D
{"class":"TPV","mode":3,"time":"2022-09-20T05:13:49.000Z","ept":0.005,"lat":60.022272517,"lon":30.236150117,"altHAE":31.9000,"altMSL":13.9000,"alt":13.9000,"epx":24.989,"epy":14.074,"epv":20.700,"track":0.0000,"magtrack":351.6000,"magvar":8.4,"speed":0.000,"climb":-1.900,"eps":49.98,"epc":41.40,"geoidSep":18.000,"eph":17.100,"sep":22.800}
{"class":"SKY","gdop":6.35,"hdop":0.90,"pdop":1.20,"tdop":2.13,"xdop":1.67,"ydop":0.94,"vdop":0.90,"uSat":5}
$GNGSA,A,3,,,,,,,,,,,,,1.2,0.9,0.9,3*30
{"class":"TPV","mode":3,"time":"2022-09-20T05:13:49.000Z","ept":0.005,"lat":60.022272517,"lon":30.236150117,"altHAE":31.9000,"altMSL":13.9000,"alt":13.9000,"epx":24.989,"epy":14.074,"epv":20.700,"track":0.0000,"magtrack":351.6000,"magvar":8.4,"speed":0.000,"climb":-1.900,"eps":49.98,"epc":41.40,"geoidSep":18.000,"eph":17.100,"sep":22.800}
{"class":"SKY","gdop":6.35,"hdop":0.90,"pdop":1.20,"tdop":2.13,"xdop":1.67,"ydop":0.94,"vdop":0.90,"uSat":5}
$PQGSA,A,3,12,,,,,,,,,,,,1.2,0.9,0.9,4*3C
{"class":"TPV","mode":3,"time":"2022-09-20T05:13:49.000Z","ept":0.005,"lat":60.022272517,"lon":30.236150117,"altHAE":31.9000,"altMSL":13.9000,"alt":13.9000,"epx":24.989,"epy":14.074,"epv":20.700,"track":0.0000,"magtrack":351.6000,"magvar":8.4,"speed":0.000,"climb":-1.900,"eps":49.98,"epc":41.40,"geoidSep":18.000,"eph":17.100,"sep":22.800}
{"class":"SKY","gdop":6.35,"hdop":0.90,"pdop":1.20,"tdop":2.13,"xdop":1.67,"ydop":0.94,"vdop":0.90,"uSat":5}
$PQGSA,A,3,,,,,,,,,,,,,1.2,0.9,0.9,5*3E
{"class":"TPV","mode":3,"time":"2022-09-20T05:13:49.000Z","ept":0.005,"lat":60.022272517,"lon":30.236150117,"altHAE":31.9000,"altMSL":13.9000,"alt":13.9000,"epx":24.989,"epy":14.074,"epv":20.700,"track":0.0000,"magtrack":351.6000,"magvar":8.4,"speed":0.000,"climb":-1.900,"eps":49.98,"epc":41.40,"geoidSep":18.000,"eph":17.100,"sep":22.800}
{"class":"SKY","gdop":6.35,"hdop":0.90,"pdop":1.20,"tdop":2.13,"xdop":1.67,"ydop":0.94,"vdop":0.90,"uSat":5}
$GLGSV,2,1,08,78,20,345,18,76,09,239,21,69,14,018,16,87,25,289,12,1*7A
$GLGSV,2,2,08,85,38,099,25,71,33,151,10,70,53,080,,77,29,284,,1*7F
{"class":"TPV","mode":3,"time":"2022-09-20T05:13:49.000Z","ept":0.005,"lat":60.022272517,"lon":30.236150117,"altHAE":31.9000,"altMSL":13.9000,"alt":13.9000,"epx":24.989,"epy":14.074,"epv":20.700,"track":0.0000,"magtrack":351.6000,"magvar":8.4,"speed":0.000,"climb":-1.900,"eps":49.98,"epc":41.40,"geoidSep":18.000,"eph":17.100,"sep":22.800}
{"class":"SKY","gdop":6.35,"hdop":0.90,"pdop":1.20,"tdop":2.13,"xdop":1.67,"ydop":0.94,"vdop":0.90,"nSat":8,"uSat":4,"satellites":[{"PRN":78,"gnssid":6,"svid":14,"az":345.0,"el":20.0,"ss":18.0,"used":true},{"PRN":76,"gnssid":6,"svid":12,"az":239.0,"el":9.0,"ss":21.0,"used":true},{"PRN":69,"gnssid":6,"svid":5,"az":18.0,"el":14.0,"ss":16.0,"used":true},{"PRN":87,"gnssid":6,"svid":23,"az":289.0,"el":25.0,"ss":12.0,"used":false},{"PRN":85,"gnssid":6,"svid":21,"az":99.0,"el":38.0,"ss":25.0,"used":true},{"PRN":71,"gnssid":6,"svid":7,"az":151.0,"el":33.0,"ss":10.0,"used":false},{"PRN":70,"gnssid":6,"svid":6,"az":80.0,"el":53.0,"ss":0.0,"used":false},{"PRN":77,"gnssid":6,"svid":13,"az":284.0,"el":29.0,"ss":0.0,"used":false}]}
$PQGSV,4,1,14,04,,,32,12,46,282,30,19,50,092,28,25,17,302,27,0,4*5D
$PQGSV,4,2,14,02,08,120,,05,18,146,,06,05,099,,08,21,061,,0,4*61
$PQGSV,4,3,14,13,35,066,,16,09,092,,20,20,039,,22,31,164,,0,4*63
$PQGSV,4,4,14,23,09,350,,24,04,248,,0,4*6C
{"class":"TPV","mode":3,"time":"2022-09-20T05:13:49.000Z","ept":0.005,"lat":60.022272517,"lon":30.236150117,"altHAE":31.9000,"altMSL":13.9000,"alt":13.9000,"epx":24.989,"epy":14.074,"epv":20.700,"track":0.0000,"magtrack":351.6000,"magvar":8.4,"speed":0.000,"climb":-1.900,"eps":49.98,"epc":41.40,"geoidSep":18.000,"eph":17.100,"sep":22.800}
{"class":"SKY","gdop":6.35,"hdop":0.90,"pdop":1.20,"tdop":2.13,"xdop":1.67,"ydop":0.94,"vdop":0.90,"nSat":22,"uSat":5,"satellites":[{"PRN":78,"gnssid":6,"svid":14,"az":345.0,"el":20.0,"ss":18.0,"used":true},{"PRN":76,"gnssid":6,"svid":12,"az":239.0,"el":9.0,"ss":21.0,"used":true},{"PRN":69,"gnssid":6,"svid":5,"az":18.0,"el":14.0,"ss":16.0,"used":true},{"PRN":87,"gnssid":6,"svid":23,"az":289.0,"el":25.0,"ss":12.0,"used":false},{"PRN":85,"gnssid":6,"svid":21,"az":99.0,"el":38.0,"ss":25.0,"used":true},{"PRN":71,"gnssid":6,"svid":7,"az":151.0,"el":33.0,"ss":10.0,"used":false},{"PRN":70,"gnssid":6,"svid":6,"az":80.0,"el":53.0,"ss":0.0,"used":false},{"PRN":77,"gnssid":6,"svid":13,"az":284.0,"el":29.0,"ss":0.0,"used":false},{"PRN":404,"gnssid":3,"svid":4,"az":0.0,"el":0.0,"ss":32.0,"used":false},{"PRN":412,"gnssid":3,"svid":12,"az":282.0,"el":46.0,"ss":30.0,"used":true},{"PRN":419,"gnssid":3,"svid":19,"az":92.0,"el":50.0,"ss":28.0,"used":false},{"PRN":425,"gnssid":3,"svid":25,"az":302.0,"el":17.0,"ss":27.0,"used":false},{"PRN":402,"gnssid":3,"svid":2,"az":120.0,"el":8.0,"ss":0.0,"used":false},{"PRN":405,"gnssid":3,"svid":5,"az":146.0,"el":18.0,"ss":0.0,"used":false},{"PRN":406,"gnssid":3,"svid":6,"az":99.0,"el":5.0,"ss":0.0,"used":false},{"PRN":408,"gnssid":3,"svid":8,"az":61.0,"el":21.0,"ss":0.0,"used":false},{"PRN":413,"gnssid":3,"svid":13,"az":66.0,"el":35.0,"ss":0.0,"used":false},{"PRN":416,"gnssid":3,"svid":16,"az":92.0,"el":9.0,"ss":0.0,"used":false},{"PRN":420,"gnssid":3,"svid":20,"az":39.0,"el":20.0,"ss":0.0,"used":false},{"PRN":422,"gnssid":3,"svid":22,"az":164.0,"el":31.0,"ss":0.0,"used":false},{"PRN":423,"gnssid":3,"svid":23,"az":350.0,"el":9.0,"ss":0.0,"used":false},{"PRN":424,"gnssid":3,"svid":24,"az":248.0,"el":4.0,"ss":0.0,"used":false}]}
$GAGSV,1,1,03,07,23,126,,12,,,,24,19,329,,7*76
{"class":"TPV","mode":3,"time":"2022-09-20T05:13:49.000Z","ept":0.005,"lat":60.022272517,"lon":30.236150117,"altHAE":31.9000,"altMSL":13.9000,"alt":13.9000,"epx":24.989,"epy":14.074,"epv":20.700,"track":0.0000,"magtrack":351.6000,"magvar":8.4,"speed":0.000,"climb":-1.900,"eps":49.98,"epc":41.40,"geoidSep":18.000,"eph":17.100,"sep":22.800}
{"class":"SKY","gdop":6.35,"hdop":0.90,"pdop":1.20,"tdop":2.13,"xdop":1.67,"ydop":0.94,"vdop":0.90,"nSat":25,"uSat":5,"satellites":[{"PRN":78,"gnssid":6,"svid":14,"az":345.0,"el":20.0,"ss":18.0,"used":true},{"PRN":76,"gnssid":6,"svid":12,"az":239.0,"el":9.0,"ss":21.0,"used":true},{"PRN":69,"gnssid":6,"svid":5,"az":18.0,"el":14.0,"ss":16.0,"used":true},{"PRN":87,"gnssid":6,"svid":23,"az":289.0,"el":25.0,"ss":12.0,"used":false},{"PRN":85,"gnssid":6,"svid":21,"az":99.0,"el":38.0,"ss":25.0,"used":true},{"PRN":71,"gnssid":6,"svid":7,"az":151.0,"el":33.0,"ss":10.0,"used":false},{"PRN":70,"gnssid":6,"svid":6,"az":80.0,"el":53.0,"ss":0.0,"used":false},{"PRN":77,"gnssid":6,"svid":13,"az":284.0,"el":29.0,"ss":0.0,"used":false},{"PRN":404,"gnssid":3,"svid":4,"az":0.0,"el":0.0,"ss":32.0,"used":false},{"PRN":412,"gnssid":3,"svid":12,"az":282.0,"el":46.0,"ss":30.0,"used":true},{"PRN":419,"gnssid":3,"svid":19,"az":92.0,"el":50.0,"ss":28.0,"used":false},{"PRN":425,"gnssid":3,"svid":25,"az":302.0,"el":17.0,"ss":27.0,"used":false},{"PRN":402,"gnssid":3,"svid":2,"az":120.0,"el":8.0,"ss":0.0,"used":false},{"PRN":405,"gnssid":3,"svid":5,"az":146.0,"el":18.0,"ss":0.0,"used":false},{"PRN":406,"gnssid":3,"svid":6,"az":99.0,"el":5.0,"ss":0.0,"used":false},{"PRN":408,"gnssid":3,"svid":8,"az":61.0,"el":21.0,"ss":0.0,"used":false},{"PRN":413,"gnssid":3,"svid":13,"az":66.0,"el":35.0,"ss":0.0,"used":false},{"PRN":416,"gnssid":3,"svid":16,"az":92.0,"el":9.0,"ss":0.0,"used":false},{"PRN":420,"gnssid":3,"svid":20,"az":39.0,"el":20.0,"ss":0.0,"used":false},{"PRN":422,"gnssid":3,"svid":22,"az":164.0,"el":31.0,"ss":0.0,"used":false},{"PRN":423,"gnssid":3,"svid":23,"az":350.0,"el":9.0,"ss":0.0,"used":false},{"PRN":424,"gnssid":3,"svid":24,"az":248.0,"el":4.0,"ss":0.0,"used":false},{"PRN":307,"gnssid":2,"svid":7,"az":126.0,"el":23.0,"ss":0.0,"used":false},{"PRN":312,"gnssid":2,"svid":12,"az":0.0,"el":0.0,"ss":0.0,"used":false},{"PRN":324,"gnssid":2,"svid":24,"az":329.0,"el":19.0,"ss":0.0,"used":false}]}
$GPGSV,3,1,12,08,34,296,20,10,51,180,24,16,27,219,25,18,36,088,32,1*6D
$GPGSV,3,2,12,23,64,118,21,27,66,255,28,07,06,312,,13,16,026,,1*63
$GPGSV,3,3,12,15,27,056,,21,02,265,,26,07,203,,30,09,343,,1*69
{"class":"TPV","mode":3,"time":"2022-09-20T05:13:49.000Z","ept":0.005,"lat":60.022272517,"lon":30.236150117,"altHAE":31.9000,"altMSL":13.9000,"alt":13.9000,"epx":24.989,"epy":14.074,"epv":20.700,"track":0.0000,"magtrack":351.6000,"magvar":8.4,"speed":0.000,"climb":-1.900,"eps":49.98,"epc":41.40,"geoidSep":18.000,"eph":17.100,"sep":22.800}
{"class":"SKY","gdop":6.35,"hdop":0.90,"pdop":1.20,"tdop":2.13,"xdop":1.67,"ydop":0.94,"vdop":0.90,"nSat":37,"uSat":10,"satellites":[{"PRN":78,"gnssid":6,"svid":14,"az":345.0,"el":20.0,"ss":18.0,"used":true},{"PRN":76,"gnssid":6,"svid":12,"az":239.0,"el":9.0,"ss":21.0,"used":true},{"PRN":69,"gnssid":6,"svid":5,"az":18.0,"el":14.0,"ss":16.0,"used":true},{"PRN":87,"gnssid":6,"svid":23,"az":289.0,"el":25.0,"ss":12.0,"used":false},{"PRN":85,"gnssid":6,"svid":21,"az":99.0,"el":38.0,"ss":25.0,"used":true},{"PRN":71,"gnssid":6,"svid":7,"az":151.0,"el":33.0,"ss":10.0,"used":false},{"PRN":70,"gnssid":6,"svid":6,"az":80.0,"el":53.0,"ss":0.0,"used":false},{"PRN":77,"gnssid":6,"svid":13,"az":284.0,"el":29.0,"ss":0.0,"used":false},{"PRN":404,"gnssid":3,"svid":4,"az":0.0,"el":0.0,"ss":32.0,"used":false},{"PRN":412,"gnssid":3,"svid":12,"az":282.0,"el":46.0,"ss":30.0,"used":true},{"PRN":419,"gnssid":3,"svid":19,"az":92.0,"el":50.0,"ss":28.0,"used":false},{"PRN":425,"gnssid":3,"svid":25,"az":302.0,"el":17.0,"ss":27.0,"used":false},{"PRN":402,"gnssid":3,"svid":2,"az":120.0,"el":8.0,"ss":0.0,"used":false},{"PRN":405,"gnssid":3,"svid":5,"az":146.0,"el":18.0,"ss":0.0,"used":false},{"PRN":406,"gnssid":3,"svid":6,"az":99.0,"el":5.0,"ss":0.0,"used":false},{"PRN":408,"gnssid":3,"svid":8,"az":61.0,"el":21.0,"ss":0.0,"used":false},{"PRN":413,"gnssid":3,"svid":13,"az":66.0,"el":35.0,"ss":0.0,"used":false},{"PRN":416,"gnssid":3,"svid":16,"az":92.0,"el":9.0,"ss":0.0,"used":false},{"PRN":420,"gnssid":3,"svid":20,"az":39.0,"el":20.0,"ss":0.0,"used":false},{"PRN":422,"gnssid":3,"svid":22,"az":164.0,"el":31.0,"ss":0.0,"used":false},{"PRN":423,"gnssid":3,"svid":23,"az":350.0,"el":9.0,"ss":0.0,"used":false},{"PRN":424,"gnssid":3,"svid":24,"az":248.0,"el":4.0,"ss":0.0,"used":false},{"PRN":307,"gnssid":2,"svid":7,"az":126.0,"el":23.0,"ss":0.0,"used":false},{"PRN":312,"gnssid":2,"svid":12,"az":0.0,"el":0.0,"ss":0.0,"used":false},{"PRN":324,"gnssid":2,"svid":24,"az":329.0,"el":19.0,"ss":0.0,"used":false},{"PRN":8,"gnssid":0,"svid":8,"az":296.0,"el":34.0,"ss":20.0,"used":true},{"PRN":10,"gnssid":0,"svid":10,"az":180.0,"el":51.0,"ss":24.0,"used":true},{"PRN":16,"gnssid":0,"svid":16,"az":219.0,"el":27.0,"ss":25.0,"used":true},{"PRN":18,"gnssid":0,"svid":18,"az":88.0,"el":36.0,"ss":32.0,"used":true},{"PRN":23,"gnssid":0,"svid":23,"az":118.0,"el":64.0,"ss":21.0,"used":false},{"PRN":27,"gnssid":0,"svid":27,"az":255.0,"el":66.0,"ss":28.0,"used":true},{"PRN":7,"gnssid":0,"svid":7,"az":312.0,"el":6.0,"ss":0.0,"used":false},{"PRN":13,"gnssid":0,"svid":13,"az":26.0,"el":16.0,"ss":0.0,"used":false},{"PRN":15,"gnssid":0,"svid":15,"az":56.0,"el":27.0,"ss":0.0,"used":false},{"PRN":21,"gnssid":0,"svid":21,"az":265.0,"el":2.0,"ss":0.0,"used":false},{"PRN":26,"gnssid":0,"svid":26,"az":203.0,"el":7.0,"ss":0.0,"used":false},{"PRN":30,"gnssid":0,"svid":30,"az":343.0,"el":9.0,"ss":0.0,"used":false}]}
