$GAGSV,2,1,04,102,28,167,40,103,69,097,33*61
$GAGSV,2,2,04,102,,,40,103,,,29,1*7F
{"class":"SKY","nSat":4,"uSat":0,"satellites":[{"PRN":302,"el":28.0,"az":167.0,"ss":40.0,"used":false,"gnssid":2,"svid":2},{"PRN":303,"el":69.0,"az":97.0,"ss":33.0,"used":false,"gnssid":2,"svid":3},{"PRN":302,"el":0.0,"az":0.0,"ss":40.0,"used":false,"gnssid":2,"svid":2},{"PRN":303,"el":0.0,"az":0.0,"ss":29.0,"used":false,"gnssid":2,"svid":3}]}
$PGLOR,0,SPD,0,301120,115033.00,s,0.00,l,0.00,c,0.00,D,0,15.7*20
$PGLOR,1,FIX,1.0,1.0*20
$PGLOR,6,STA,115033.00,0.000,0.000,0,1,4,0,P,D,L,0,C,0,S,0000,15,5,R,0000,tpef,0,247326,LC,,*21
$PGLOR,4,PWR,mA,29.9,RFTm,1000,OscTm,1000,MeasTm,1000,UTC,115033.00,GNSSmA,29.9,CPUTm,359,COPTm,111,SrchTm,66,TrkTm,615,RpcTm,161*01
$PGLOR,1,LSQ,115033.00,,,,,,,,,,,,,,,,00,,*3E
$GPGGA,115033.00,5002.457296,N,01958.828604,E,1,20,0.4,246.0,M,,M,,*78
{"class":"TPV","mode":3,"lat":50.040954933,"lon":19.980476733,"altHAE":285.6327,"altMSL":246.0000,"alt":246.0000,"magvar":5.5,"geoidSep":39.633,"eph":7.600}
{"class":"SKY","hdop":0.40}
$GPGSV,3,1,10,02,25,260,39,04,15,092,27,05,,,14,06,12,215,45*4D
$GPGSV,3,2,10,07,80,137,44,09,53,089,27,30,55,211,49*44
$GPGSV,3,3,10,06,,,40,09,,,27,30,,,39,8*6B
$GLGSV,2,1,06,74,20,191,42,70,38,115,43,73,64,151,49,88,15,341,22*6C
$GLGSV,2,2,06,71,,,27,72,32,310,16*51
{"class":"SKY","hdop":0.40,"nSat":16,"uSat":0,"satellites":[{"PRN":2,"el":25.0,"az":260.0,"ss":39.0,"used":false,"gnssid":0,"svid":2},{"PRN":4,"el":15.0,"az":92.0,"ss":27.0,"used":false,"gnssid":0,"svid":4},{"PRN":5,"el":0.0,"az":0.0,"ss":14.0,"used":false,"gnssid":0,"svid":5},{"PRN":6,"el":12.0,"az":215.0,"ss":45.0,"used":false,"gnssid":0,"svid":6},{"PRN":7,"el":80.0,"az":137.0,"ss":44.0,"used":false,"gnssid":0,"svid":7},{"PRN":9,"el":53.0,"az":89.0,"ss":27.0,"used":false,"gnssid":0,"svid":9},{"PRN":30,"el":55.0,"az":211.0,"ss":49.0,"used":false,"gnssid":0,"svid":30},{"PRN":6,"el":0.0,"az":0.0,"ss":40.0,"used":false,"gnssid":0,"svid":6},{"PRN":9,"el":0.0,"az":0.0,"ss":27.0,"used":false,"gnssid":0,"svid":9},{"PRN":30,"el":0.0,"az":0.0,"ss":39.0,"used":false,"gnssid":0,"svid":30},{"PRN":74,"el":20.0,"az":191.0,"ss":42.0,"used":false,"gnssid":6,"svid":10},{"PRN":70,"el":38.0,"az":115.0,"ss":43.0,"used":false,"gnssid":6,"svid":6},{"PRN":73,"el":64.0,"az":151.0,"ss":49.0,"used":false,"gnssid":6,"svid":9},{"PRN":88,"el":15.0,"az":341.0,"ss":22.0,"used":false,"gnssid":6,"svid":24},{"PRN":71,"el":0.0,"az":0.0,"ss":27.0,"used":false,"gnssid":6,"svid":7},{"PRN":72,"el":32.0,"az":310.0,"ss":16.0,"used":false,"gnssid":6,"svid":8}]}
$QZGSV,1,1,01,02,05,042,29*5E
{"class":"SKY","hdop":0.40,"nSat":17,"uSat":0,"satellites":[{"PRN":2,"el":25.0,"az":260.0,"ss":39.0,"used":false,"gnssid":0,"svid":2},{"PRN":4,"el":15.0,"az":92.0,"ss":27.0,"used":false,"gnssid":0,"svid":4},{"PRN":5,"el":0.0,"az":0.0,"ss":14.0,"used":false,"gnssid":0,"svid":5},{"PRN":6,"el":12.0,"az":215.0,"ss":45.0,"used":false,"gnssid":0,"svid":6},{"PRN":7,"el":80.0,"az":137.0,"ss":44.0,"used":false,"gnssid":0,"svid":7},{"PRN":9,"el":53.0,"az":89.0,"ss":27.0,"used":false,"gnssid":0,"svid":9},{"PRN":30,"el":55.0,"az":211.0,"ss":49.0,"used":false,"gnssid":0,"svid":30},{"PRN":6,"el":0.0,"az":0.0,"ss":40.0,"used":false,"gnssid":0,"svid":6},{"PRN":9,"el":0.0,"az":0.0,"ss":27.0,"used":false,"gnssid":0,"svid":9},{"PRN":30,"el":0.0,"az":0.0,"ss":39.0,"used":false,"gnssid":0,"svid":30},{"PRN":74,"el":20.0,"az":191.0,"ss":42.0,"used":false,"gnssid":6,"svid":10},{"PRN":70,"el":38.0,"az":115.0,"ss":43.0,"used":false,"gnssid":6,"svid":6},{"PRN":73,"el":64.0,"az":151.0,"ss":49.0,"used":false,"gnssid":6,"svid":9},{"PRN":88,"el":15.0,"az":341.0,"ss":22.0,"used":false,"gnssid":6,"svid":24},{"PRN":71,"el":0.0,"az":0.0,"ss":27.0,"used":false,"gnssid":6,"svid":7},{"PRN":72,"el":32.0,"az":310.0,"ss":16.0,"used":false,"gnssid":6,"svid":8},{"PRN":194,"el":5.0,"az":42.0,"ss":29.0,"used":false,"gnssid":5,"svid":2}]}
$BDGSV,1,1,01,219,,,47*50
{"class":"SKY","hdop":0.40,"nSat":18,"uSat":0,"satellites":[{"PRN":2,"el":25.0,"az":260.0,"ss":39.0,"used":false,"gnssid":0,"svid":2},{"PRN":4,"el":15.0,"az":92.0,"ss":27.0,"used":false,"gnssid":0,"svid":4},{"PRN":5,"el":0.0,"az":0.0,"ss":14.0,"used":false,"gnssid":0,"svid":5},{"PRN":6,"el":12.0,"az":215.0,"ss":45.0,"used":false,"gnssid":0,"svid":6},{"PRN":7,"el":80.0,"az":137.0,"ss":44.0,"used":false,"gnssid":0,"svid":7},{"PRN":9,"el":53.0,"az":89.0,"ss":27.0,"used":false,"gnssid":0,"svid":9},{"PRN":30,"el":55.0,"az":211.0,"ss":49.0,"used":false,"gnssid":0,"svid":30},{"PRN":6,"el":0.0,"az":0.0,"ss":40.0,"used":false,"gnssid":0,"svid":6},{"PRN":9,"el":0.0,"az":0.0,"ss":27.0,"used":false,"gnssid":0,"svid":9},{"PRN":30,"el":0.0,"az":0.0,"ss":39.0,"used":false,"gnssid":0,"svid":30},{"PRN":74,"el":20.0,"az":191.0,"ss":42.0,"used":false,"gnssid":6,"svid":10},{"PRN":70,"el":38.0,"az":115.0,"ss":43.0,"used":false,"gnssid":6,"svid":6},{"PRN":73,"el":64.0,"az":151.0,"ss":49.0,"used":false,"gnssid":6,"svid":9},{"PRN":88,"el":15.0,"az":341.0,"ss":22.0,"used":false,"gnssid":6,"svid":24},{"PRN":71,"el":0.0,"az":0.0,"ss":27.0,"used":false,"gnssid":6,"svid":7},{"PRN":72,"el":32.0,"az":310.0,"ss":16.0,"used":false,"gnssid":6,"svid":8},{"PRN":194,"el":5.0,"az":42.0,"ss":29.0,"used":false,"gnssid":5,"svid":2},{"PRN":419,"el":0.0,"az":0.0,"ss":47.0,"used":false,"gnssid":3,"svid":19}]}
$GAGSV,2,1,04,102,28,167,40,103,69,097,33*61
$GAGSV,2,2,04,102,,,40,103,,,29,1*7F
{"class":"SKY","hdop":0.40,"nSat":22,"uSat":0,"satellites":[{"PRN":2,"el":25.0,"az":260.0,"ss":39.0,"used":false,"gnssid":0,"svid":2},{"PRN":4,"el":15.0,"az":92.0,"ss":27.0,"used":false,"gnssid":0,"svid":4},{"PRN":5,"el":0.0,"az":0.0,"ss":14.0,"used":false,"gnssid":0,"svid":5},{"PRN":6,"el":12.0,"az":215.0,"ss":45.0,"used":false,"gnssid":0,"svid":6},{"PRN":7,"el":80.0,"az":137.0,"ss":44.0,"used":false,"gnssid":0,"svid":7},{"PRN":9,"el":53.0,"az":89.0,"ss":27.0,"used":false,"gnssid":0,"svid":9},{"PRN":30,"el":55.0,"az":211.0,"ss":49.0,"used":false,"gnssid":0,"svid":30},{"PRN":6,"el":0.0,"az":0.0,"ss":40.0,"used":false,"gnssid":0,"svid":6},{"PRN":9,"el":0.0,"az":0.0,"ss":27.0,"used":false,"gnssid":0,"svid":9},{"PRN":30,"el":0.0,"az":0.0,"ss":39.0,"used":false,"gnssid":0,"svid":30},{"PRN":74,"el":20.0,"az":191.0,"ss":42.0,"used":false,"gnssid":6,"svid":10},{"PRN":70,"el":38.0,"az":115.0,"ss":43.0,"used":false,"gnssid":6,"svid":6},{"PRN":73,"el":64.0,"az":151.0,"ss":49.0,"used":false,"gnssid":6,"svid":9},{"PRN":88,"el":15.0,"az":341.0,"ss":22.0,"used":false,"gnssid":6,"svid":24},{"PRN":71,"el":0.0,"az":0.0,"ss":27.0,"used":false,"gnssid":6,"svid":7},{"PRN":72,"el":32.0,"az":310.0,"ss":16.0,"used":false,"gnssid":6,"svid":8},{"PRN":194,"el":5.0,"az":42.0,"ss":29.0,"used":false,"gnssid":5,"svid":2},{"PRN":419,"el":0.0,"az":0.0,"ss":47.0,"used":false,"gnssid":3,"svid":19},{"PRN":302,"el":28.0,"az":167.0,"ss":40.0,"used":false,"gnssid":2,"svid":2},{"PRN":303,"el":69.0,"az":97.0,"ss":33.0,"used":false,"gnssid":2,"svid":3},{"PRN":302,"el":0.0,"az":0.0,"ss":40.0,"used":false,"gnssid":2,"svid":2},{"PRN":303,"el":0.0,"az":0.0,"ss":29.0,"used":false,"gnssid":2,"svid":3}]}
$GPGSA,A,3,02,04,06,07,09,30,,,,,,,1.37,0.77,1.14*0E
{"class":"TPV","mode":3,"lat":50.040954933,"lon":19.980476733,"altHAE":285.6327,"altMSL":246.0000,"alt":246.0000,"epv":26.220,"magvar":5.5,"geoidSep":39.633,"eph":7.600,"sep":26.030}
{"class":"SKY","vdop":1.14,"hdop":0.77,"pdop":1.37}
$GNGSA,A,3,02,04,06,07,09,30,,,,,,,1.37,0.77,1.14*10
{"class":"TPV","mode":3,"lat":50.040954933,"lon":19.980476733,"altHAE":285.6327,"altMSL":246.0000,"alt":246.0000,"epv":26.220,"magvar":5.5,"geoidSep":39.633,"eph":7.600,"sep":26.030}
$GNGSA,A,3,70,72,73,74,88,,,,,,,,1.37,0.77,1.14*18
{"class":"TPV","mode":3,"lat":50.040954933,"lon":19.980476733,"altHAE":285.6327,"altMSL":246.0000,"alt":246.0000,"epv":26.220,"magvar":5.5,"geoidSep":39.633,"eph":7.600,"sep":26.030}
{"class":"SKY","vdop":1.14,"hdop":0.77,"pdop":1.37}
$GPRMC,115033.00,A,5002.457296,N,01958.828604,E,0.0,,301120,,,A*7D
{"class":"TPV","mode":3,"time":"2020-11-30T11:50:33.000Z","ept":0.005,"lat":50.040954933,"lon":19.980476733,"altHAE":285.6327,"altMSL":246.0000,"alt":246.0000,"epv":26.220,"magvar":5.5,"speed":0.000,"geoidSep":39.633,"eph":7.600,"sep":26.030}
$PGLOR,2,SAT,5,1,G02,039,C,G04,027,C,G05,014,0,G06,045,C,G07,044,C,G09,027,C*40
$PGLOR,2,SAT,5,2,G30,049,C,G06,040,C,G09,027,C,G30,039,C,R10,042,C,R06,043,C*3A
$PGLOR,2,SAT,5,3,R09,049,C,R24,022,C,R07,027,0,R08,016,4,Q02,029,0,B19,047,0*2E
$PGLOR,2,SAT,5,4,E02,040,C,E03,033,C,E02,040,C,E03,029,C,N01,030,0,N02,037,8*34
$PGLOR,2,SAT,5,5,N06,034,8*59
$PGLOR,0,SPD,0,301120,115034.00,s,0.00,l,0.00,c,0.00,D,0,15.7*27
$PGLOR,1,FIX,1.0,1.0*20
$PGLOR,6,STA,115034.00,0.000,0.000,0,1,4,0,P,D,L,0,C,0,S,0000,15,5,R,0000,tpef,0,248326,LC,,*29
$PGLOR,4,PWR,mA,29.8,RFTm,999,OscTm,999,MeasTm,999,UTC,115034.00,GNSSmA,29.8,CPUTm,349,COPTm,103,SrchTm,66,TrkTm,603,RpcTm,157*3E
$PGLOR,1,LSQ,115034.00,,,,,,,,,,,,,,,,00,,*39
$GPGGA,115034.00,5002.457296,N,01958.828604,E,1,19,0.4,246.0,M,,M,,*75
{"class":"SKY","vdop":1.14,"hdop":0.40,"pdop":1.37}
$GPGSV,3,1,10,02,25,260,40,04,15,092,27,05,,,14,06,12,215,45*43
$GPGSV,3,2,10,07,80,137,44,09,53,089,27,30,55,211,49*44
$GPGSV,3,3,10,06,,,40,09,,,27,30,,,39,8*6B
$GLGSV,2,1,06,74,20,191,42,70,38,115,43,73,64,151,48,88,15,341,23*6C
$GLGSV,2,2,06,71,,,26,72,32,310,15*53
{"class":"SKY","xdop":0.54,"ydop":0.48,"vdop":1.14,"tdop":0.53,"hdop":0.40,"gdop":1.32,"pdop":1.37,"nSat":16,"uSat":14,"satellites":[{"PRN":2,"el":25.0,"az":260.0,"ss":40.0,"used":true,"gnssid":0,"svid":2},{"PRN":4,"el":15.0,"az":92.0,"ss":27.0,"used":true,"gnssid":0,"svid":4},{"PRN":5,"el":0.0,"az":0.0,"ss":14.0,"used":false,"gnssid":0,"svid":5},{"PRN":6,"el":12.0,"az":215.0,"ss":45.0,"used":true,"gnssid":0,"svid":6},{"PRN":7,"el":80.0,"az":137.0,"ss":44.0,"used":true,"gnssid":0,"svid":7},{"PRN":9,"el":53.0,"az":89.0,"ss":27.0,"used":true,"gnssid":0,"svid":9},{"PRN":30,"el":55.0,"az":211.0,"ss":49.0,"used":true,"gnssid":0,"svid":30},{"PRN":6,"el":0.0,"az":0.0,"ss":40.0,"used":true,"gnssid":0,"svid":6},{"PRN":9,"el":0.0,"az":0.0,"ss":27.0,"used":true,"gnssid":0,"svid":9},{"PRN":30,"el":0.0,"az":0.0,"ss":39.0,"used":true,"gnssid":0,"svid":30},{"PRN":74,"el":20.0,"az":191.0,"ss":42.0,"used":true,"gnssid":6,"svid":10},{"PRN":70,"el":38.0,"az":115.0,"ss":43.0,"used":true,"gnssid":6,"svid":6},{"PRN":73,"el":64.0,"az":151.0,"ss":48.0,"used":true,"gnssid":6,"svid":9},{"PRN":88,"el":15.0,"az":341.0,"ss":23.0,"used":true,"gnssid":6,"svid":24},{"PRN":71,"el":0.0,"az":0.0,"ss":26.0,"used":false,"gnssid":6,"svid":7},{"PRN":72,"el":32.0,"az":310.0,"ss":15.0,"used":true,"gnssid":6,"svid":8}]}
$QZGSV,1,1,01,02,05,042,29*5E
{"class":"SKY","xdop":0.54,"ydop":0.48,"vdop":1.14,"tdop":0.53,"hdop":0.40,"gdop":1.32,"pdop":1.37,"nSat":17,"uSat":14,"satellites":[{"PRN":2,"el":25.0,"az":260.0,"ss":40.0,"used":true,"gnssid":0,"svid":2},{"PRN":4,"el":15.0,"az":92.0,"ss":27.0,"used":true,"gnssid":0,"svid":4},{"PRN":5,"el":0.0,"az":0.0,"ss":14.0,"used":false,"gnssid":0,"svid":5},{"PRN":6,"el":12.0,"az":215.0,"ss":45.0,"used":true,"gnssid":0,"svid":6},{"PRN":7,"el":80.0,"az":137.0,"ss":44.0,"used":true,"gnssid":0,"svid":7},{"PRN":9,"el":53.0,"az":89.0,"ss":27.0,"used":true,"gnssid":0,"svid":9},{"PRN":30,"el":55.0,"az":211.0,"ss":49.0,"used":true,"gnssid":0,"svid":30},{"PRN":6,"el":0.0,"az":0.0,"ss":40.0,"used":true,"gnssid":0,"svid":6},{"PRN":9,"el":0.0,"az":0.0,"ss":27.0,"used":true,"gnssid":0,"svid":9},{"PRN":30,"el":0.0,"az":0.0,"ss":39.0,"used":true,"gnssid":0,"svid":30},{"PRN":74,"el":20.0,"az":191.0,"ss":42.0,"used":true,"gnssid":6,"svid":10},{"PRN":70,"el":38.0,"az":115.0,"ss":43.0,"used":true,"gnssid":6,"svid":6},{"PRN":73,"el":64.0,"az":151.0,"ss":48.0,"used":true,"gnssid":6,"svid":9},{"PRN":88,"el":15.0,"az":341.0,"ss":23.0,"used":true,"gnssid":6,"svid":24},{"PRN":71,"el":0.0,"az":0.0,"ss":26.0,"used":false,"gnssid":6,"svid":7},{"PRN":72,"el":32.0,"az":310.0,"ss":15.0,"used":true,"gnssid":6,"svid":8},{"PRN":194,"el":5.0,"az":42.0,"ss":29.0,"used":false,"gnssid":5,"svid":2}]}
$GAGSV,2,1,04,102,28,167,40,103,69,097,34*66
$GAGSV,2,2,04,102,,,40,103,,,28,1*7E
{"class":"SKY","xdop":0.54,"ydop":0.48,"vdop":1.14,"tdop":0.53,"hdop":0.40,"gdop":1.32,"pdop":1.37,"nSat":21,"uSat":14,"satellites":[{"PRN":2,"el":25.0,"az":260.0,"ss":40.0,"used":true,"gnssid":0,"svid":2},{"PRN":4,"el":15.0,"az":92.0,"ss":27.0,"used":true,"gnssid":0,"svid":4},{"PRN":5,"el":0.0,"az":0.0,"ss":14.0,"used":false,"gnssid":0,"svid":5},{"PRN":6,"el":12.0,"az":215.0,"ss":45.0,"used":true,"gnssid":0,"svid":6},{"PRN":7,"el":80.0,"az":137.0,"ss":44.0,"used":true,"gnssid":0,"svid":7},{"PRN":9,"el":53.0,"az":89.0,"ss":27.0,"used":true,"gnssid":0,"svid":9},{"PRN":30,"el":55.0,"az":211.0,"ss":49.0,"used":true,"gnssid":0,"svid":30},{"PRN":6,"el":0.0,"az":0.0,"ss":40.0,"used":true,"gnssid":0,"svid":6},{"PRN":9,"el":0.0,"az":0.0,"ss":27.0,"used":true,"gnssid":0,"svid":9},{"PRN":30,"el":0.0,"az":0.0,"ss":39.0,"used":true,"gnssid":0,"svid":30},{"PRN":74,"el":20.0,"az":191.0,"ss":42.0,"used":true,"gnssid":6,"svid":10},{"PRN":70,"el":38.0,"az":115.0,"ss":43.0,"used":true,"gnssid":6,"svid":6},{"PRN":73,"el":64.0,"az":151.0,"ss":48.0,"used":true,"gnssid":6,"svid":9},{"PRN":88,"el":15.0,"az":341.0,"ss":23.0,"used":true,"gnssid":6,"svid":24},{"PRN":71,"el":0.0,"az":0.0,"ss":26.0,"used":false,"gnssid":6,"svid":7},{"PRN":72,"el":32.0,"az":310.0,"ss":15.0,"used":true,"gnssid":6,"svid":8},{"PRN":194,"el":5.0,"az":42.0,"ss":29.0,"used":false,"gnssid":5,"svid":2},{"PRN":302,"el":28.0,"az":167.0,"ss":40.0,"used":false,"gnssid":2,"svid":2},{"PRN":303,"el":69.0,"az":97.0,"ss":34.0,"used":false,"gnssid":2,"svid":3},{"PRN":302,"el":0.0,"az":0.0,"ss":40.0,"used":false,"gnssid":2,"svid":2},{"PRN":303,"el":0.0,"az":0.0,"ss":28.0,"used":false,"gnssid":2,"svid":3}]}
$GPGSA,A,3,02,04,06,07,09,30,,,,,,,1.35,0.83,1.06*04
$GNGSA,A,3,02,04,06,07,09,30,,,,,,,1.35,0.83,1.06*1A
$GNGSA,A,3,70,73,74,88,,,,,,,,,1.35,0.83,1.06*17
{"class":"SKY","xdop":0.54,"ydop":0.48,"vdop":1.06,"tdop":0.53,"hdop":0.83,"gdop":1.32,"pdop":1.35}
$GPRMC,115034.00,A,5002.457296,N,01958.828604,E,0.0,,301120,,,A*7A
{"class":"TPV","mode":3,"time":"2020-11-30T11:50:34.000Z","ept":0.005,"lat":50.040954933,"lon":19.980476733,"altHAE":285.6327,"altMSL":246.0000,"alt":246.0000,"epx":8.028,"epy":7.251,"epv":26.220,"magvar":5.5,"speed":0.000,"climb":0.000,"epc":52.44,"geoidSep":39.633,"eph":7.600,"sep":26.030}
$PGLOR,2,SAT,4,1,G02,040,C,G04,027,C,G05,014,0,G06,045,C,G07,044,C,G09,027,C*4F
$PGLOR,2,SAT,4,2,G30,049,C,G06,040,C,G09,027,C,G30,039,C,R10,042,C,R06,043,C*3B
$PGLOR,2,SAT,4,3,R09,048,C,R24,023,C,R07,026,0,R08,015,0,Q02,029,0,E02,040,C*50
$PGLOR,2,SAT,4,4,E03,034,C,E02,040,C,E03,028,C,N01,030,0,N02,036,8,N06,034,8*45
$PGLOR,0,SPD,0,301120,115035.00,s,0.00,l,0.00,c,0.00,D,0,15.7*26
$PGLOR,1,FIX,1.0,1.0*20
$PGLOR,6,STA,115035.00,0.000,0.000,0,1,4,0,P,D,L,0,C,0,S,0000,15,5,R,0000,tpef,0,249326,LC,,*29
$PGLOR,4,PWR,mA,29.7,RFTm,1000,OscTm,1000,MeasTm,1000,UTC,115035.00,GNSSmA,29.7,CPUTm,350,COPTm,104,SrchTm,66,TrkTm,598,RpcTm,155*0B
$PGLOR,1,LSQ,115035.00,,,,,,,,,,,,,,,,00,,*38
$GPGGA,115035.00,5002.457296,N,01958.828604,E,1,19,0.4,246.0,M,,M,,*74
{"class":"SKY","xdop":0.54,"ydop":0.48,"vdop":1.06,"tdop":0.53,"hdop":0.40,"gdop":1.32,"pdop":1.35}
$GPGSV,3,1,10,02,25,260,40,04,15,092,27,05,,,19,06,12,215,45*4E
$GPGSV,3,2,10,07,80,137,44,09,53,089,26,30,55,211,49*45
$GPGSV,3,3,10,06,,,40,09,,,28,30,,,39,8*64
$GLGSV,2,1,06,74,20,191,42,70,38,115,43,73,64,151,49,88,15,341,22*6C
$GLGSV,2,2,06,71,,,26,72,32,310,13*55
{"class":"SKY","xdop":0.54,"ydop":0.48,"vdop":1.06,"tdop":0.53,"hdop":0.40,"gdop":1.32,"pdop":1.35,"nSat":16,"uSat":13,"satellites":[{"PRN":2,"el":25.0,"az":260.0,"ss":40.0,"used":true,"gnssid":0,"svid":2},{"PRN":4,"el":15.0,"az":92.0,"ss":27.0,"used":true,"gnssid":0,"svid":4},{"PRN":5,"el":0.0,"az":0.0,"ss":19.0,"used":false,"gnssid":0,"svid":5},{"PRN":6,"el":12.0,"az":215.0,"ss":45.0,"used":true,"gnssid":0,"svid":6},{"PRN":7,"el":80.0,"az":137.0,"ss":44.0,"used":true,"gnssid":0,"svid":7},{"PRN":9,"el":53.0,"az":89.0,"ss":26.0,"used":true,"gnssid":0,"svid":9},{"PRN":30,"el":55.0,"az":211.0,"ss":49.0,"used":true,"gnssid":0,"svid":30},{"PRN":6,"el":0.0,"az":0.0,"ss":40.0,"used":true,"gnssid":0,"svid":6},{"PRN":9,"el":0.0,"az":0.0,"ss":28.0,"used":true,"gnssid":0,"svid":9},{"PRN":30,"el":0.0,"az":0.0,"ss":39.0,"used":true,"gnssid":0,"svid":30},{"PRN":74,"el":20.0,"az":191.0,"ss":42.0,"used":true,"gnssid":6,"svid":10},{"PRN":70,"el":38.0,"az":115.0,"ss":43.0,"used":true,"gnssid":6,"svid":6},{"PRN":73,"el":64.0,"az":151.0,"ss":49.0,"used":true,"gnssid":6,"svid":9},{"PRN":88,"el":15.0,"az":341.0,"ss":22.0,"used":true,"gnssid":6,"svid":24},{"PRN":71,"el":0.0,"az":0.0,"ss":26.0,"used":false,"gnssid":6,"svid":7},{"PRN":72,"el":32.0,"az":310.0,"ss":13.0,"used":false,"gnssid":6,"svid":8}]}
$QZGSV,1,1,01,02,05,042,29*5E
{"class":"SKY","xdop":0.54,"ydop":0.48,"vdop":1.06,"tdop":0.53,"hdop":0.40,"gdop":1.32,"pdop":1.35,"nSat":17,"uSat":13,"satellites":[{"PRN":2,"el":25.0,"az":260.0,"ss":40.0,"used":true,"gnssid":0,"svid":2},{"PRN":4,"el":15.0,"az":92.0,"ss":27.0,"used":true,"gnssid":0,"svid":4},{"PRN":5,"el":0.0,"az":0.0,"ss":19.0,"used":false,"gnssid":0,"svid":5},{"PRN":6,"el":12.0,"az":215.0,"ss":45.0,"used":true,"gnssid":0,"svid":6},{"PRN":7,"el":80.0,"az":137.0,"ss":44.0,"used":true,"gnssid":0,"svid":7},{"PRN":9,"el":53.0,"az":89.0,"ss":26.0,"used":true,"gnssid":0,"svid":9},{"PRN":30,"el":55.0,"az":211.0,"ss":49.0,"used":true,"gnssid":0,"svid":30},{"PRN":6,"el":0.0,"az":0.0,"ss":40.0,"used":true,"gnssid":0,"svid":6},{"PRN":9,"el":0.0,"az":0.0,"ss":28.0,"used":true,"gnssid":0,"svid":9},{"PRN":30,"el":0.0,"az":0.0,"ss":39.0,"used":true,"gnssid":0,"svid":30},{"PRN":74,"el":20.0,"az":191.0,"ss":42.0,"used":true,"gnssid":6,"svid":10},{"PRN":70,"el":38.0,"az":115.0,"ss":43.0,"used":true,"gnssid":6,"svid":6},{"PRN":73,"el":64.0,"az":151.0,"ss":49.0,"used":true,"gnssid":6,"svid":9},{"PRN":88,"el":15.0,"az":341.0,"ss":22.0,"used":true,"gnssid":6,"svid":24},{"PRN":71,"el":0.0,"az":0.0,"ss":26.0,"used":false,"gnssid":6,"svid":7},{"PRN":72,"el":32.0,"az":310.0,"ss":13.0,"used":false,"gnssid":6,"svid":8},{"PRN":194,"el":5.0,"az":42.0,"ss":29.0,"used":false,"gnssid":5,"svid":2}]}
$GAGSV,2,1,04,102,28,167,40,103,69,097,34*66
$GAGSV,2,2,04,102,,,40,103,,,28,1*7E
{"class":"SKY","xdop":0.54,"ydop":0.48,"vdop":1.06,"tdop":0.53,"hdop":0.40,"gdop":1.32,"pdop":1.35,"nSat":21,"uSat":13,"satellites":[{"PRN":2,"el":25.0,"az":260.0,"ss":40.0,"used":true,"gnssid":0,"svid":2},{"PRN":4,"el":15.0,"az":92.0,"ss":27.0,"used":true,"gnssid":0,"svid":4},{"PRN":5,"el":0.0,"az":0.0,"ss":19.0,"used":false,"gnssid":0,"svid":5},{"PRN":6,"el":12.0,"az":215.0,"ss":45.0,"used":true,"gnssid":0,"svid":6},{"PRN":7,"el":80.0,"az":137.0,"ss":44.0,"used":true,"gnssid":0,"svid":7},{"PRN":9,"el":53.0,"az":89.0,"ss":26.0,"used":true,"gnssid":0,"svid":9},{"PRN":30,"el":55.0,"az":211.0,"ss":49.0,"used":true,"gnssid":0,"svid":30},{"PRN":6,"el":0.0,"az":0.0,"ss":40.0,"used":true,"gnssid":0,"svid":6},{"PRN":9,"el":0.0,"az":0.0,"ss":28.0,"used":true,"gnssid":0,"svid":9},{"PRN":30,"el":0.0,"az":0.0,"ss":39.0,"used":true,"gnssid":0,"svid":30},{"PRN":74,"el":20.0,"az":191.0,"ss":42.0,"used":true,"gnssid":6,"svid":10},{"PRN":70,"el":38.0,"az":115.0,"ss":43.0,"used":true,"gnssid":6,"svid":6},{"PRN":73,"el":64.0,"az":151.0,"ss":49.0,"used":true,"gnssid":6,"svid":9},{"PRN":88,"el":15.0,"az":341.0,"ss":22.0,"used":true,"gnssid":6,"svid":24},{"PRN":71,"el":0.0,"az":0.0,"ss":26.0,"used":false,"gnssid":6,"svid":7},{"PRN":72,"el":32.0,"az":310.0,"ss":13.0,"used":false,"gnssid":6,"svid":8},{"PRN":194,"el":5.0,"az":42.0,"ss":29.0,"used":false,"gnssid":5,"svid":2},{"PRN":302,"el":28.0,"az":167.0,"ss":40.0,"used":false,"gnssid":2,"svid":2},{"PRN":303,"el":69.0,"az":97.0,"ss":34.0,"used":false,"gnssid":2,"svid":3},{"PRN":302,"el":0.0,"az":0.0,"ss":40.0,"used":false,"gnssid":2,"svid":2},{"PRN":303,"el":0.0,"az":0.0,"ss":28.0,"used":false,"gnssid":2,"svid":3}]}
$GPGSA,A,3,02,04,06,07,09,30,,,,,,,1.35,0.83,1.06*04
$GNGSA,A,3,02,04,06,07,09,30,,,,,,,1.35,0.83,1.06*1A
$GNGSA,A,3,70,73,74,88,,,,,,,,,1.35,0.83,1.06*17
{"class":"SKY","xdop":0.54,"ydop":0.48,"vdop":1.06,"tdop":0.53,"hdop":0.83,"gdop":1.32,"pdop":1.35}
$GPRMC,115035.00,A,5002.457296,N,01958.828604,E,0.0,,301120,,,A*7B
{"class":"TPV","mode":3,"time":"2020-11-30T11:50:35.000Z","ept":0.005,"lat":50.040954933,"lon":19.980476733,"altHAE":285.6327,"altMSL":246.0000,"alt":246.0000,"epx":8.028,"epy":7.251,"epv":24.380,"magvar":5.5,"speed":0.000,"climb":0.000,"eps":16.06,"epc":50.60,"geoidSep":39.633,"eph":7.600,"sep":25.650}
$PGLOR,2,SAT,4,1,G02,040,C,G04,027,C,G05,019,0,G06,045,C,G07,044,C,G09,026,C*43
$PGLOR,2,SAT,4,2,G30,049,C,G06,040,C,G09,028,C,G30,039,C,R10,042,C,R06,043,C*34
$PGLOR,2,SAT,4,3,R09,049,C,R24,022,C,R07,026,0,R08,013,0,Q02,029,0,E02,040,C*56
$PGLOR,2,SAT,4,4,E03,034,C,E02,040,C,E03,028,C,N01,030,0,N02,037,8,N06,035,8*45
$PGLOR,0,SPD,0,301120,115036.00,s,0.00,l,0.00,c,0.00,D,0,15.7*25
$PGLOR,1,FIX,1.0,1.0*20
$PGLOR,6,STA,115036.00,0.000,0.000,0,1,4,0,P,D,L,0,C,0,S,0000,15,5,R,0000,tpef,0,250326,LC,,*22
$PGLOR,4,PWR,mA,29.7,RFTm,1000,OscTm,1000,MeasTm,1000,UTC,115036.00,GNSSmA,29.7,CPUTm,347,COPTm,98,SrchTm,66,TrkTm,598,RpcTm,156*39
$PGLOR,1,LSQ,115036.00,,,,,,,,,,,,,,,,00,,*3B
$GPGGA,115036.00,5002.457296,N,01958.828604,E,1,20,0.4,246.0,M,,M,,*7D
{"class":"SKY","xdop":0.54,"ydop":0.48,"vdop":1.06,"tdop":0.53,"hdop":0.40,"gdop":1.32,"pdop":1.35}
$GPGSV,3,1,10,02,25,260,40,04,15,092,27,05,,,19,06,12,215,45*4E
$GPGSV,3,2,10,07,80,137,44,09,53,089,26,30,55,211,49*45
$GPGSV,3,3,10,06,,,40,09,,,28,30,,,39,8*64
$GLGSV,2,1,06,74,20,191,42,70,38,115,43,73,64,151,49,88,15,341,22*6C
$GLGSV,2,2,06,71,78,010,27,72,32,310,13*6A
{"class":"SKY","xdop":0.54,"ydop":0.48,"vdop":1.06,"tdop":0.53,"hdop":0.40,"gdop":1.32,"pdop":1.35,"nSat":16,"uSat":13,"satellites":[{"PRN":2,"el":25.0,"az":260.0,"ss":40.0,"used":true,"gnssid":0,"svid":2},{"PRN":4,"el":15.0,"az":92.0,"ss":27.0,"used":true,"gnssid":0,"svid":4},{"PRN":5,"el":0.0,"az":0.0,"ss":19.0,"used":false,"gnssid":0,"svid":5},{"PRN":6,"el":12.0,"az":215.0,"ss":45.0,"used":true,"gnssid":0,"svid":6},{"PRN":7,"el":80.0,"az":137.0,"ss":44.0,"used":true,"gnssid":0,"svid":7},{"PRN":9,"el":53.0,"az":89.0,"ss":26.0,"used":true,"gnssid":0,"svid":9},{"PRN":30,"el":55.0,"az":211.0,"ss":49.0,"used":true,"gnssid":0,"svid":30},{"PRN":6,"el":0.0,"az":0.0,"ss":40.0,"used":true,"gnssid":0,"svid":6},{"PRN":9,"el":0.0,"az":0.0,"ss":28.0,"used":true,"gnssid":0,"svid":9},{"PRN":30,"el":0.0,"az":0.0,"ss":39.0,"used":true,"gnssid":0,"svid":30},{"PRN":74,"el":20.0,"az":191.0,"ss":42.0,"used":true,"gnssid":6,"svid":10},{"PRN":70,"el":38.0,"az":115.0,"ss":43.0,"used":true,"gnssid":6,"svid":6},{"PRN":73,"el":64.0,"az":151.0,"ss":49.0,"used":true,"gnssid":6,"svid":9},{"PRN":88,"el":15.0,"az":341.0,"ss":22.0,"used":true,"gnssid":6,"svid":24},{"PRN":71,"el":78.0,"az":10.0,"ss":27.0,"used":false,"gnssid":6,"svid":7},{"PRN":72,"el":32.0,"az":310.0,"ss":13.0,"used":false,"gnssid":6,"svid":8}]}
$QZGSV,1,1,01,02,05,042,29*5E
{"class":"SKY","xdop":0.54,"ydop":0.48,"vdop":1.06,"tdop":0.53,"hdop":0.40,"gdop":1.32,"pdop":1.35,"nSat":17,"uSat":13,"satellites":[{"PRN":2,"el":25.0,"az":260.0,"ss":40.0,"used":true,"gnssid":0,"svid":2},{"PRN":4,"el":15.0,"az":92.0,"ss":27.0,"used":true,"gnssid":0,"svid":4},{"PRN":5,"el":0.0,"az":0.0,"ss":19.0,"used":false,"gnssid":0,"svid":5},{"PRN":6,"el":12.0,"az":215.0,"ss":45.0,"used":true,"gnssid":0,"svid":6},{"PRN":7,"el":80.0,"az":137.0,"ss":44.0,"used":true,"gnssid":0,"svid":7},{"PRN":9,"el":53.0,"az":89.0,"ss":26.0,"used":true,"gnssid":0,"svid":9},{"PRN":30,"el":55.0,"az":211.0,"ss":49.0,"used":true,"gnssid":0,"svid":30},{"PRN":6,"el":0.0,"az":0.0,"ss":40.0,"used":true,"gnssid":0,"svid":6},{"PRN":9,"el":0.0,"az":0.0,"ss":28.0,"used":true,"gnssid":0,"svid":9},{"PRN":30,"el":0.0,"az":0.0,"ss":39.0,"used":true,"gnssid":0,"svid":30},{"PRN":74,"el":20.0,"az":191.0,"ss":42.0,"used":true,"gnssid":6,"svid":10},{"PRN":70,"el":38.0,"az":115.0,"ss":43.0,"used":true,"gnssid":6,"svid":6},{"PRN":73,"el":64.0,"az":151.0,"ss":49.0,"used":true,"gnssid":6,"svid":9},{"PRN":88,"el":15.0,"az":341.0,"ss":22.0,"used":true,"gnssid":6,"svid":24},{"PRN":71,"el":78.0,"az":10.0,"ss":27.0,"used":false,"gnssid":6,"svid":7},{"PRN":72,"el":32.0,"az":310.0,"ss":13.0,"used":false,"gnssid":6,"svid":8},{"PRN":194,"el":5.0,"az":42.0,"ss":29.0,"used":false,"gnssid":5,"svid":2}]}
$GAGSV,2,1,04,102,28,167,40,103,69,097,34*66
$GAGSV,2,2,04,102,,,40,103,,,29,1*7F
{"class":"SKY","xdop":0.54,"ydop":0.48,"vdop":1.06,"tdop":0.53,"hdop":0.40,"gdop":1.32,"pdop":1.35,"nSat":21,"uSat":13,"satellites":[{"PRN":2,"el":25.0,"az":260.0,"ss":40.0,"used":true,"gnssid":0,"svid":2},{"PRN":4,"el":15.0,"az":92.0,"ss":27.0,"used":true,"gnssid":0,"svid":4},{"PRN":5,"el":0.0,"az":0.0,"ss":19.0,"used":false,"gnssid":0,"svid":5},{"PRN":6,"el":12.0,"az":215.0,"ss":45.0,"used":true,"gnssid":0,"svid":6},{"PRN":7,"el":80.0,"az":137.0,"ss":44.0,"used":true,"gnssid":0,"svid":7},{"PRN":9,"el":53.0,"az":89.0,"ss":26.0,"used":true,"gnssid":0,"svid":9},{"PRN":30,"el":55.0,"az":211.0,"ss":49.0,"used":true,"gnssid":0,"svid":30},{"PRN":6,"el":0.0,"az":0.0,"ss":40.0,"used":true,"gnssid":0,"svid":6},{"PRN":9,"el":0.0,"az":0.0,"ss":28.0,"used":true,"gnssid":0,"svid":9},{"PRN":30,"el":0.0,"az":0.0,"ss":39.0,"used":true,"gnssid":0,"svid":30},{"PRN":74,"el":20.0,"az":191.0,"ss":42.0,"used":true,"gnssid":6,"svid":10},{"PRN":70,"el":38.0,"az":115.0,"ss":43.0,"used":true,"gnssid":6,"svid":6},{"PRN":73,"el":64.0,"az":151.0,"ss":49.0,"used":true,"gnssid":6,"svid":9},{"PRN":88,"el":15.0,"az":341.0,"ss":22.0,"used":true,"gnssid":6,"svid":24},{"PRN":71,"el":78.0,"az":10.0,"ss":27.0,"used":false,"gnssid":6,"svid":7},{"PRN":72,"el":32.0,"az":310.0,"ss":13.0,"used":false,"gnssid":6,"svid":8},{"PRN":194,"el":5.0,"az":42.0,"ss":29.0,"used":false,"gnssid":5,"svid":2},{"PRN":302,"el":28.0,"az":167.0,"ss":40.0,"used":false,"gnssid":2,"svid":2},{"PRN":303,"el":69.0,"az":97.0,"ss":34.0,"used":false,"gnssid":2,"svid":3},{"PRN":302,"el":0.0,"az":0.0,"ss":40.0,"used":false,"gnssid":2,"svid":2},{"PRN":303,"el":0.0,"az":0.0,"ss":29.0,"used":false,"gnssid":2,"svid":3}]}
$GPGSA,A,3,02,04,06,07,09,30,,,,,,,1.31,0.81,1.03*07
$GNGSA,A,3,02,04,06,07,09,30,,,,,,,1.31,0.81,1.03*19
$GNGSA,A,3,70,71,73,74,88,,,,,,,,1.31,0.81,1.03*12
{"class":"SKY","xdop":0.54,"ydop":0.48,"vdop":1.03,"tdop":0.53,"hdop":0.81,"gdop":1.32,"pdop":1.31}
$GPRMC,115036.00,A,5002.457296,N,01958.828604,E,0.0,,301120,,,A*78
{"class":"TPV","mode":3,"time":"2020-11-30T11:50:36.000Z","ept":0.005,"lat":50.040954933,"lon":19.980476733,"altHAE":285.6327,"altMSL":246.0000,"alt":246.0000,"epx":8.028,"epy":7.251,"epv":24.380,"magvar":5.5,"speed":0.000,"climb":0.000,"eps":16.06,"epc":48.76,"geoidSep":39.633,"eph":7.600,"sep":25.650}
$PGLOR,2,SAT,4,1,G02,040,C,G04,027,C,G05,019,0,G06,045,C,G07,044,C,G09,026,C*43
$PGLOR,2,SAT,4,2,G30,049,C,G06,040,C,G09,028,C,G30,039,C,R10,042,C,R06,043,C*34
$PGLOR,2,SAT,4,3,R09,049,C,R24,022,C,R07,027,C,R08,013,0,Q02,029,0,E02,040,C*24
$PGLOR,2,SAT,4,4,E03,034,C,E02,040,C,E03,029,C,N01,030,0,N02,037,8,N06,034,8*45
$PGLOR,0,SPD,0,301120,115037.00,s,0.00,l,0.00,c,0.00,D,0,15.7*24
$PGLOR,1,FIX,1.0,1.0*20
$PGLOR,6,STA,115037.00,0.000,0.000,0,1,4,0,P,D,L,0,C,0,S,0000,15,5,R,0000,tpef,0,251326,LC,,*22
$PGLOR,4,PWR,mA,29.7,RFTm,999,OscTm,999,MeasTm,999,UTC,115037.00,GNSSmA,29.7,CPUTm,349,COPTm,107,SrchTm,65,TrkTm,598,RpcTm,155*39
$PGLOR,1,LSQ,115037.00,,,,,,,,,,,,,,,,00,,*3A
$GPGGA,115037.00,5002.457296,N,01958.828604,E,1,21,0.4,245.0,M,,M,,*7E
{"class":"SKY","xdop":0.54,"ydop":0.48,"vdop":1.03,"tdop":0.53,"hdop":0.40,"gdop":1.32,"pdop":1.31}
$GPGSV,3,1,10,02,25,260,40,04,15,092,27,05,36,306,19,06,12,215,45*7E
$GPGSV,3,2,10,07,80,137,44,09,52,089,26,30,55,211,49*44
$GPGSV,3,3,10,06,,,40,09,,,28,30,,,39,8*64
$GLGSV,2,1,06,74,20,191,42,70,38,115,43,73,64,151,49,88,15,341,21*6F
$GLGSV,2,2,06,71,78,010,26,72,32,310,12*6A
{"class":"SKY","xdop":0.54,"ydop":0.48,"vdop":1.03,"tdop":0.53,"hdop":0.40,"gdop":1.32,"pdop":1.31,"nSat":16,"uSat":14,"satellites":[{"PRN":2,"el":25.0,"az":260.0,"ss":40.0,"used":true,"gnssid":0,"svid":2},{"PRN":4,"el":15.0,"az":92.0,"ss":27.0,"used":true,"gnssid":0,"svid":4},{"PRN":5,"el":36.0,"az":306.0,"ss":19.0,"used":false,"gnssid":0,"svid":5},{"PRN":6,"el":12.0,"az":215.0,"ss":45.0,"used":true,"gnssid":0,"svid":6},{"PRN":7,"el":80.0,"az":137.0,"ss":44.0,"used":true,"gnssid":0,"svid":7},{"PRN":9,"el":52.0,"az":89.0,"ss":26.0,"used":true,"gnssid":0,"svid":9},{"PRN":30,"el":55.0,"az":211.0,"ss":49.0,"used":true,"gnssid":0,"svid":30},{"PRN":6,"el":0.0,"az":0.0,"ss":40.0,"used":true,"gnssid":0,"svid":6},{"PRN":9,"el":0.0,"az":0.0,"ss":28.0,"used":true,"gnssid":0,"svid":9},{"PRN":30,"el":0.0,"az":0.0,"ss":39.0,"used":true,"gnssid":0,"svid":30},{"PRN":74,"el":20.0,"az":191.0,"ss":42.0,"used":true,"gnssid":6,"svid":10},{"PRN":70,"el":38.0,"az":115.0,"ss":43.0,"used":true,"gnssid":6,"svid":6},{"PRN":73,"el":64.0,"az":151.0,"ss":49.0,"used":true,"gnssid":6,"svid":9},{"PRN":88,"el":15.0,"az":341.0,"ss":21.0,"used":true,"gnssid":6,"svid":24},{"PRN":71,"el":78.0,"az":10.0,"ss":26.0,"used":true,"gnssid":6,"svid":7},{"PRN":72,"el":32.0,"az":310.0,"ss":12.0,"used":false,"gnssid":6,"svid":8}]}
$QZGSV,1,1,01,02,05,042,29*5E
{"class":"SKY","xdop":0.54,"ydop":0.48,"vdop":1.03,"tdop":0.53,"hdop":0.40,"gdop":1.32,"pdop":1.31,"nSat":17,"uSat":14,"satellites":[{"PRN":2,"el":25.0,"az":260.0,"ss":40.0,"used":true,"gnssid":0,"svid":2},{"PRN":4,"el":15.0,"az":92.0,"ss":27.0,"used":true,"gnssid":0,"svid":4},{"PRN":5,"el":36.0,"az":306.0,"ss":19.0,"used":false,"gnssid":0,"svid":5},{"PRN":6,"el":12.0,"az":215.0,"ss":45.0,"used":true,"gnssid":0,"svid":6},{"PRN":7,"el":80.0,"az":137.0,"ss":44.0,"used":true,"gnssid":0,"svid":7},{"PRN":9,"el":52.0,"az":89.0,"ss":26.0,"used":true,"gnssid":0,"svid":9},{"PRN":30,"el":55.0,"az":211.0,"ss":49.0,"used":true,"gnssid":0,"svid":30},{"PRN":6,"el":0.0,"az":0.0,"ss":40.0,"used":true,"gnssid":0,"svid":6},{"PRN":9,"el":0.0,"az":0.0,"ss":28.0,"used":true,"gnssid":0,"svid":9},{"PRN":30,"el":0.0,"az":0.0,"ss":39.0,"used":true,"gnssid":0,"svid":30},{"PRN":74,"el":20.0,"az":191.0,"ss":42.0,"used":true,"gnssid":6,"svid":10},{"PRN":70,"el":38.0,"az":115.0,"ss":43.0,"used":true,"gnssid":6,"svid":6},{"PRN":73,"el":64.0,"az":151.0,"ss":49.0,"used":true,"gnssid":6,"svid":9},{"PRN":88,"el":15.0,"az":341.0,"ss":21.0,"used":true,"gnssid":6,"svid":24},{"PRN":71,"el":78.0,"az":10.0,"ss":26.0,"used":true,"gnssid":6,"svid":7},{"PRN":72,"el":32.0,"az":310.0,"ss":12.0,"used":false,"gnssid":6,"svid":8},{"PRN":194,"el":5.0,"az":42.0,"ss":29.0,"used":false,"gnssid":5,"svid":2}]}
$GAGSV,2,1,04,102,28,167,40,103,69,097,34*66
$GAGSV,2,2,04,102,,,40,103,,,29,1*7F
{"class":"SKY","xdop":0.54,"ydop":0.48,"vdop":1.03,"tdop":0.53,"hdop":0.40,"gdop":1.32,"pdop":1.31,"nSat":21,"uSat":14,"satellites":[{"PRN":2,"el":25.0,"az":260.0,"ss":40.0,"used":true,"gnssid":0,"svid":2},{"PRN":4,"el":15.0,"az":92.0,"ss":27.0,"used":true,"gnssid":0,"svid":4},{"PRN":5,"el":36.0,"az":306.0,"ss":19.0,"used":false,"gnssid":0,"svid":5},{"PRN":6,"el":12.0,"az":215.0,"ss":45.0,"used":true,"gnssid":0,"svid":6},{"PRN":7,"el":80.0,"az":137.0,"ss":44.0,"used":true,"gnssid":0,"svid":7},{"PRN":9,"el":52.0,"az":89.0,"ss":26.0,"used":true,"gnssid":0,"svid":9},{"PRN":30,"el":55.0,"az":211.0,"ss":49.0,"used":true,"gnssid":0,"svid":30},{"PRN":6,"el":0.0,"az":0.0,"ss":40.0,"used":true,"gnssid":0,"svid":6},{"PRN":9,"el":0.0,"az":0.0,"ss":28.0,"used":true,"gnssid":0,"svid":9},{"PRN":30,"el":0.0,"az":0.0,"ss":39.0,"used":true,"gnssid":0,"svid":30},{"PRN":74,"el":20.0,"az":191.0,"ss":42.0,"used":true,"gnssid":6,"svid":10},{"PRN":70,"el":38.0,"az":115.0,"ss":43.0,"used":true,"gnssid":6,"svid":6},{"PRN":73,"el":64.0,"az":151.0,"ss":49.0,"used":true,"gnssid":6,"svid":9},{"PRN":88,"el":15.0,"az":341.0,"ss":21.0,"used":true,"gnssid":6,"svid":24},{"PRN":71,"el":78.0,"az":10.0,"ss":26.0,"used":true,"gnssid":6,"svid":7},{"PRN":72,"el":32.0,"az":310.0,"ss":12.0,"used":false,"gnssid":6,"svid":8},{"PRN":194,"el":5.0,"az":42.0,"ss":29.0,"used":false,"gnssid":5,"svid":2},{"PRN":302,"el":28.0,"az":167.0,"ss":40.0,"used":false,"gnssid":2,"svid":2},{"PRN":303,"el":69.0,"az":97.0,"ss":34.0,"used":false,"gnssid":2,"svid":3},{"PRN":302,"el":0.0,"az":0.0,"ss":40.0,"used":false,"gnssid":2,"svid":2},{"PRN":303,"el":0.0,"az":0.0,"ss":29.0,"used":false,"gnssid":2,"svid":3}]}
$GPGSA,A,3,02,04,05,06,07,09,30,,,,,,1.29,0.78,1.03*0D
$GNGSA,A,3,02,04,05,06,07,09,30,,,,,,1.29,0.78,1.03*13
$GNGSA,A,3,70,71,73,74,88,,,,,,,,1.29,0.78,1.03*1D
{"class":"SKY","xdop":0.54,"ydop":0.48,"vdop":1.03,"tdop":0.53,"hdop":0.78,"gdop":1.32,"pdop":1.29}
$GPRMC,115037.00,A,5002.457296,N,01958.828604,E,0.0,,301120,,,A*79
{"class":"TPV","mode":3,"time":"2020-11-30T11:50:37.000Z","ept":0.005,"lat":50.040954933,"lon":19.980476733,"altHAE":284.6327,"altMSL":245.0000,"alt":245.0000,"epx":8.028,"epy":7.251,"epv":23.690,"magvar":5.5,"speed":0.000,"climb":-1.000,"eps":16.06,"epc":48.07,"geoidSep":39.633,"eph":7.600,"sep":24.890}
$PGLOR,2,SAT,4,1,G02,040,C,G04,027,C,G05,019,C,G06,045,C,G07,044,C,G09,026,C*30
$PGLOR,2,SAT,4,2,G30,049,C,G06,040,C,G09,028,C,G30,039,C,R10,042,C,R06,043,C*34
$PGLOR,2,SAT,4,3,R09,049,C,R24,021,C,R07,026,C,R08,012,0,Q02,029,0,E02,040,C*27
$PGLOR,2,SAT,4,4,E03,034,C,E02,040,C,E03,029,C,N01,030,0,N02,037,8,N06,034,8*45
$PGLOR,0,SPD,0,301120,115038.00,s,0.00,l,0.00,c,0.00,D,0,15.7*2B
$PGLOR,1,FIX,1.0,1.0*20
$PGLOR,6,STA,115038.00,0.000,0.000,0,1,4,0,P,D,L,0,C,0,S,0000,15,5,R,0000,tpef,0,252326,LC,,*2E
$PGLOR,4,PWR,mA,29.7,RFTm,1000,OscTm,1001,MeasTm,1001,UTC,115038.00,GNSSmA,29.7,CPUTm,347,COPTm,101,SrchTm,66,TrkTm,598,RpcTm,156*06
$PGLOR,1,LSQ,115038.00,,,,,,,,,,,,,,,,00,,*35
$GPGGA,115038.00,5002.457296,N,01958.828604,E,1,21,0.4,245.0,M,,M,,*71
{"class":"SKY","xdop":0.54,"ydop":0.48,"vdop":1.03,"tdop":0.53,"hdop":0.40,"gdop":1.32,"pdop":1.29}
$GPGSV,3,1,10,02,25,260,40,04,15,092,27,05,36,306,20,06,12,215,45*74
$GPGSV,3,2,10,07,80,137,44,09,52,089,26,30,55,211,49*44
$GPGSV,3,3,10,06,,,40,09,,,28,30,,,39,8*64
$GLGSV,2,1,06,74,20,191,42,70,38,115,43,73,64,151,49,88,15,341,22*6C
$GLGSV,2,2,06,71,78,010,27,72,32,310,13*6A
{"class":"SKY","xdop":0.54,"ydop":0.48,"vdop":1.03,"tdop":0.53,"hdop":0.40,"gdop":1.32,"pdop":1.29,"nSat":16,"uSat":15,"satellites":[{"PRN":2,"el":25.0,"az":260.0,"ss":40.0,"used":true,"gnssid":0,"svid":2},{"PRN":4,"el":15.0,"az":92.0,"ss":27.0,"used":true,"gnssid":0,"svid":4},{"PRN":5,"el":36.0,"az":306.0,"ss":20.0,"used":true,"gnssid":0,"svid":5},{"PRN":6,"el":12.0,"az":215.0,"ss":45.0,"used":true,"gnssid":0,"svid":6},{"PRN":7,"el":80.0,"az":137.0,"ss":44.0,"used":true,"gnssid":0,"svid":7},{"PRN":9,"el":52.0,"az":89.0,"ss":26.0,"used":true,"gnssid":0,"svid":9},{"PRN":30,"el":55.0,"az":211.0,"ss":49.0,"used":true,"gnssid":0,"svid":30},{"PRN":6,"el":0.0,"az":0.0,"ss":40.0,"used":true,"gnssid":0,"svid":6},{"PRN":9,"el":0.0,"az":0.0,"ss":28.0,"used":true,"gnssid":0,"svid":9},{"PRN":30,"el":0.0,"az":0.0,"ss":39.0,"used":true,"gnssid":0,"svid":30},{"PRN":74,"el":20.0,"az":191.0,"ss":42.0,"used":true,"gnssid":6,"svid":10},{"PRN":70,"el":38.0,"az":115.0,"ss":43.0,"used":true,"gnssid":6,"svid":6},{"PRN":73,"el":64.0,"az":151.0,"ss":49.0,"used":true,"gnssid":6,"svid":9},{"PRN":88,"el":15.0,"az":341.0,"ss":22.0,"used":true,"gnssid":6,"svid":24},{"PRN":71,"el":78.0,"az":10.0,"ss":27.0,"used":true,"gnssid":6,"svid":7},{"PRN":72,"el":32.0,"az":310.0,"ss":13.0,"used":false,"gnssid":6,"svid":8}]}
$QZGSV,1,1,01,02,05,042,29*5E
{"class":"SKY","xdop":0.54,"ydop":0.48,"vdop":1.03,"tdop":0.53,"hdop":0.40,"gdop":1.32,"pdop":1.29,"nSat":17,"uSat":15,"satellites":[{"PRN":2,"el":25.0,"az":260.0,"ss":40.0,"used":true,"gnssid":0,"svid":2},{"PRN":4,"el":15.0,"az":92.0,"ss":27.0,"used":true,"gnssid":0,"svid":4},{"PRN":5,"el":36.0,"az":306.0,"ss":20.0,"used":true,"gnssid":0,"svid":5},{"PRN":6,"el":12.0,"az":215.0,"ss":45.0,"used":true,"gnssid":0,"svid":6},{"PRN":7,"el":80.0,"az":137.0,"ss":44.0,"used":true,"gnssid":0,"svid":7},{"PRN":9,"el":52.0,"az":89.0,"ss":26.0,"used":true,"gnssid":0,"svid":9},{"PRN":30,"el":55.0,"az":211.0,"ss":49.0,"used":true,"gnssid":0,"svid":30},{"PRN":6,"el":0.0,"az":0.0,"ss":40.0,"used":true,"gnssid":0,"svid":6},{"PRN":9,"el":0.0,"az":0.0,"ss":28.0,"used":true,"gnssid":0,"svid":9},{"PRN":30,"el":0.0,"az":0.0,"ss":39.0,"used":true,"gnssid":0,"svid":30},{"PRN":74,"el":20.0,"az":191.0,"ss":42.0,"used":true,"gnssid":6,"svid":10},{"PRN":70,"el":38.0,"az":115.0,"ss":43.0,"used":true,"gnssid":6,"svid":6},{"PRN":73,"el":64.0,"az":151.0,"ss":49.0,"used":true,"gnssid":6,"svid":9},{"PRN":88,"el":15.0,"az":341.0,"ss":22.0,"used":true,"gnssid":6,"svid":24},{"PRN":71,"el":78.0,"az":10.0,"ss":27.0,"used":true,"gnssid":6,"svid":7},{"PRN":72,"el":32.0,"az":310.0,"ss":13.0,"used":false,"gnssid":6,"svid":8},{"PRN":194,"el":5.0,"az":42.0,"ss":29.0,"used":false,"gnssid":5,"svid":2}]}
$GAGSV,2,1,04,102,28,167,40,103,69,097,34*66
$GAGSV,2,2,04,102,,,40,103,,,29,1*7F
{"class":"SKY","xdop":0.54,"ydop":0.48,"vdop":1.03,"tdop":0.53,"hdop":0.40,"gdop":1.32,"pdop":1.29,"nSat":21,"uSat":15,"satellites":[{"PRN":2,"el":25.0,"az":260.0,"ss":40.0,"used":true,"gnssid":0,"svid":2},{"PRN":4,"el":15.0,"az":92.0,"ss":27.0,"used":true,"gnssid":0,"svid":4},{"PRN":5,"el":36.0,"az":306.0,"ss":20.0,"used":true,"gnssid":0,"svid":5},{"PRN":6,"el":12.0,"az":215.0,"ss":45.0,"used":true,"gnssid":0,"svid":6},{"PRN":7,"el":80.0,"az":137.0,"ss":44.0,"used":true,"gnssid":0,"svid":7},{"PRN":9,"el":52.0,"az":89.0,"ss":26.0,"used":true,"gnssid":0,"svid":9},{"PRN":30,"el":55.0,"az":211.0,"ss":49.0,"used":true,"gnssid":0,"svid":30},{"PRN":6,"el":0.0,"az":0.0,"ss":40.0,"used":true,"gnssid":0,"svid":6},{"PRN":9,"el":0.0,"az":0.0,"ss":28.0,"used":true,"gnssid":0,"svid":9},{"PRN":30,"el":0.0,"az":0.0,"ss":39.0,"used":true,"gnssid":0,"svid":30},{"PRN":74,"el":20.0,"az":191.0,"ss":42.0,"used":true,"gnssid":6,"svid":10},{"PRN":70,"el":38.0,"az":115.0,"ss":43.0,"used":true,"gnssid":6,"svid":6},{"PRN":73,"el":64.0,"az":151.0,"ss":49.0,"used":true,"gnssid":6,"svid":9},{"PRN":88,"el":15.0,"az":341.0,"ss":22.0,"used":true,"gnssid":6,"svid":24},{"PRN":71,"el":78.0,"az":10.0,"ss":27.0,"used":true,"gnssid":6,"svid":7},{"PRN":72,"el":32.0,"az":310.0,"ss":13.0,"used":false,"gnssid":6,"svid":8},{"PRN":194,"el":5.0,"az":42.0,"ss":29.0,"used":false,"gnssid":5,"svid":2},{"PRN":302,"el":28.0,"az":167.0,"ss":40.0,"used":false,"gnssid":2,"svid":2},{"PRN":303,"el":69.0,"az":97.0,"ss":34.0,"used":false,"gnssid":2,"svid":3},{"PRN":302,"el":0.0,"az":0.0,"ss":40.0,"used":false,"gnssid":2,"svid":2},{"PRN":303,"el":0.0,"az":0.0,"ss":29.0,"used":false,"gnssid":2,"svid":3}]}
$GPGSA,A,3,02,04,05,06,07,09,30,,,,,,1.29,0.78,1.03*0D
$GNGSA,A,3,02,04,05,06,07,09,30,,,,,,1.29,0.78,1.03*13
$GNGSA,A,3,70,71,73,74,88,,,,,,,,1.29,0.78,1.03*1D
{"class":"SKY","xdop":0.54,"ydop":0.48,"vdop":1.03,"tdop":0.53,"hdop":0.78,"gdop":1.32,"pdop":1.29}
$GPRMC,115038.00,A,5002.457296,N,01958.828604,E,0.0,,301120,,,A*76
{"class":"TPV","mode":3,"time":"2020-11-30T11:50:38.000Z","ept":0.005,"lat":50.040954933,"lon":19.980476733,"altHAE":284.6327,"altMSL":245.0000,"alt":245.0000,"epx":8.028,"epy":7.251,"epv":23.690,"magvar":5.5,"speed":0.000,"climb":0.000,"eps":16.06,"epc":47.38,"geoidSep":39.633,"eph":7.600,"sep":24.510}
$PGLOR,2,SAT,4,1,G02,040,C,G04,027,C,G05,020,C,G06,045,C,G07,044,C,G09,026,C*3A
$PGLOR,2,SAT,4,2,G30,049,C,G06,040,C,G09,028,C,G30,039,C,R10,042,C,R06,043,C*34
$PGLOR,2,SAT,4,3,R09,049,C,R24,022,C,R07,027,C,R08,013,0,Q02,029,0,E02,040,C*24
$PGLOR,2,SAT,4,4,E03,034,C,E02,040,C,E03,029,C,N01,030,0,N02,037,8,N06,034,8*45
$PGLOR,0,SPD,0,301120,115039.00,s,0.00,l,0.00,c,0.00,D,0,15.7*2A
$PGLOR,1,FIX,1.0,1.0*20
$PGLOR,6,STA,115039.00,0.000,0.000,0,1,4,0,P,D,L,0,C,0,S,0000,15,5,R,0000,tpef,0,253326,LC,,*2E
$PGLOR,4,PWR,mA,29.7,RFTm,1000,OscTm,1000,MeasTm,1000,UTC,115039.00,GNSSmA,29.7,CPUTm,348,COPTm,103,SrchTm,67,TrkTm,598,RpcTm,155*08
$PGLOR,1,LSQ,115039.00,,,,,,,,,,,,,,,,00,,*34
$GPGGA,115039.00,5002.457296,N,01958.828604,E,1,21,0.4,245.0,M,,M,,*70
{"class":"SKY","xdop":0.54,"ydop":0.48,"vdop":1.03,"tdop":0.53,"hdop":0.40,"gdop":1.32,"pdop":1.29}
$GPGSV,3,1,10,02,25,260,40,04,15,092,27,05,36,306,20,06,12,215,45*74
$GPGSV,3,2,10,07,80,137,44,09,52,089,26,30,55,211,49*44
$GPGSV,3,3,10,06,,,40,09,,,28,30,,,39,8*64
$GLGSV,2,1,06,74,20,191,42,70,38,115,43,73,64,151,49,88,15,341,22*6C
$GLGSV,2,2,06,71,78,010,27,72,32,310,14*6D
{"class":"SKY","xdop":0.54,"ydop":0.48,"vdop":1.03,"tdop":0.53,"hdop":0.40,"gdop":1.32,"pdop":1.29,"nSat":16,"uSat":15,"satellites":[{"PRN":2,"el":25.0,"az":260.0,"ss":40.0,"used":true,"gnssid":0,"svid":2},{"PRN":4,"el":15.0,"az":92.0,"ss":27.0,"used":true,"gnssid":0,"svid":4},{"PRN":5,"el":36.0,"az":306.0,"ss":20.0,"used":true,"gnssid":0,"svid":5},{"PRN":6,"el":12.0,"az":215.0,"ss":45.0,"used":true,"gnssid":0,"svid":6},{"PRN":7,"el":80.0,"az":137.0,"ss":44.0,"used":true,"gnssid":0,"svid":7},{"PRN":9,"el":52.0,"az":89.0,"ss":26.0,"used":true,"gnssid":0,"svid":9},{"PRN":30,"el":55.0,"az":211.0,"ss":49.0,"used":true,"gnssid":0,"svid":30},{"PRN":6,"el":0.0,"az":0.0,"ss":40.0,"used":true,"gnssid":0,"svid":6},{"PRN":9,"el":0.0,"az":0.0,"ss":28.0,"used":true,"gnssid":0,"svid":9},{"PRN":30,"el":0.0,"az":0.0,"ss":39.0,"used":true,"gnssid":0,"svid":30},{"PRN":74,"el":20.0,"az":191.0,"ss":42.0,"used":true,"gnssid":6,"svid":10},{"PRN":70,"el":38.0,"az":115.0,"ss":43.0,"used":true,"gnssid":6,"svid":6},{"PRN":73,"el":64.0,"az":151.0,"ss":49.0,"used":true,"gnssid":6,"svid":9},{"PRN":88,"el":15.0,"az":341.0,"ss":22.0,"used":true,"gnssid":6,"svid":24},{"PRN":71,"el":78.0,"az":10.0,"ss":27.0,"used":true,"gnssid":6,"svid":7},{"PRN":72,"el":32.0,"az":310.0,"ss":14.0,"used":false,"gnssid":6,"svid":8}]}
$QZGSV,1,1,01,02,05,042,28*5F
{"class":"SKY","xdop":0.54,"ydop":0.48,"vdop":1.03,"tdop":0.53,"hdop":0.40,"gdop":1.32,"pdop":1.29,"nSat":17,"uSat":15,"satellites":[{"PRN":2,"el":25.0,"az":260.0,"ss":40.0,"used":true,"gnssid":0,"svid":2},{"PRN":4,"el":15.0,"az":92.0,"ss":27.0,"used":true,"gnssid":0,"svid":4},{"PRN":5,"el":36.0,"az":306.0,"ss":20.0,"used":true,"gnssid":0,"svid":5},{"PRN":6,"el":12.0,"az":215.0,"ss":45.0,"used":true,"gnssid":0,"svid":6},{"PRN":7,"el":80.0,"az":137.0,"ss":44.0,"used":true,"gnssid":0,"svid":7},{"PRN":9,"el":52.0,"az":89.0,"ss":26.0,"used":true,"gnssid":0,"svid":9},{"PRN":30,"el":55.0,"az":211.0,"ss":49.0,"used":true,"gnssid":0,"svid":30},{"PRN":6,"el":0.0,"az":0.0,"ss":40.0,"used":true,"gnssid":0,"svid":6},{"PRN":9,"el":0.0,"az":0.0,"ss":28.0,"used":true,"gnssid":0,"svid":9},{"PRN":30,"el":0.0,"az":0.0,"ss":39.0,"used":true,"gnssid":0,"svid":30},{"PRN":74,"el":20.0,"az":191.0,"ss":42.0,"used":true,"gnssid":6,"svid":10},{"PRN":70,"el":38.0,"az":115.0,"ss":43.0,"used":true,"gnssid":6,"svid":6},{"PRN":73,"el":64.0,"az":151.0,"ss":49.0,"used":true,"gnssid":6,"svid":9},{"PRN":88,"el":15.0,"az":341.0,"ss":22.0,"used":true,"gnssid":6,"svid":24},{"PRN":71,"el":78.0,"az":10.0,"ss":27.0,"used":true,"gnssid":6,"svid":7},{"PRN":72,"el":32.0,"az":310.0,"ss":14.0,"used":false,"gnssid":6,"svid":8},{"PRN":194,"el":5.0,"az":42.0,"ss":28.0,"used":false,"gnssid":5,"svid":2}]}
$GAGSV,2,1,04,102,28,167,40,103,69,097,34*66
$GAGSV,2,2,04,102,,,40,103,,,29,1*7F
{"class":"SKY","xdop":0.54,"ydop":0.48,"vdop":1.03,"tdop":0.53,"hdop":0.40,"gdop":1.32,"pdop":1.29,"nSat":21,"uSat":15,"satellites":[{"PRN":2,"el":25.0,"az":260.0,"ss":40.0,"used":true,"gnssid":0,"svid":2},{"PRN":4,"el":15.0,"az":92.0,"ss":27.0,"used":true,"gnssid":0,"svid":4},{"PRN":5,"el":36.0,"az":306.0,"ss":20.0,"used":true,"gnssid":0,"svid":5},{"PRN":6,"el":12.0,"az":215.0,"ss":45.0,"used":true,"gnssid":0,"svid":6},{"PRN":7,"el":80.0,"az":137.0,"ss":44.0,"used":true,"gnssid":0,"svid":7},{"PRN":9,"el":52.0,"az":89.0,"ss":26.0,"used":true,"gnssid":0,"svid":9},{"PRN":30,"el":55.0,"az":211.0,"ss":49.0,"used":true,"gnssid":0,"svid":30},{"PRN":6,"el":0.0,"az":0.0,"ss":40.0,"used":true,"gnssid":0,"svid":6},{"PRN":9,"el":0.0,"az":0.0,"ss":28.0,"used":true,"gnssid":0,"svid":9},{"PRN":30,"el":0.0,"az":0.0,"ss":39.0,"used":true,"gnssid":0,"svid":30},{"PRN":74,"el":20.0,"az":191.0,"ss":42.0,"used":true,"gnssid":6,"svid":10},{"PRN":70,"el":38.0,"az":115.0,"ss":43.0,"used":true,"gnssid":6,"svid":6},{"PRN":73,"el":64.0,"az":151.0,"ss":49.0,"used":true,"gnssid":6,"svid":9},{"PRN":88,"el":15.0,"az":341.0,"ss":22.0,"used":true,"gnssid":6,"svid":24},{"PRN":71,"el":78.0,"az":10.0,"ss":27.0,"used":true,"gnssid":6,"svid":7},{"PRN":72,"el":32.0,"az":310.0,"ss":14.0,"used":false,"gnssid":6,"svid":8},{"PRN":194,"el":5.0,"az":42.0,"ss":28.0,"used":false,"gnssid":5,"svid":2},{"PRN":302,"el":28.0,"az":167.0,"ss":40.0,"used":false,"gnssid":2,"svid":2},{"PRN":303,"el":69.0,"az":97.0,"ss":34.0,"used":false,"gnssid":2,"svid":3},{"PRN":302,"el":0.0,"az":0.0,"ss":40.0,"used":false,"gnssid":2,"svid":2},{"PRN":303,"el":0.0,"az":0.0,"ss":29.0,"used":false,"gnssid":2,"svid":3}]}
$GPGSA,A,3,02,04,05,06,07,09,30,,,,,,1.29,0.78,1.03*0D
$GNGSA,A,3,02,04,05,06,07,09,30,,,,,,1.29,0.78,1.03*13
$GNGSA,A,3,70,71,73,74,88,,,,,,,,1.29,0.78,1.03*1D
{"class":"SKY","xdop":0.54,"ydop":0.48,"vdop":1.03,"tdop":0.53,"hdop":0.78,"gdop":1.32,"pdop":1.29}
$GPRMC,115039.00,A,5002.457296,N,01958.828604,E,0.0,,301120,,,A*77
{"class":"TPV","mode":3,"time":"2020-11-30T11:50:39.000Z","ept":0.005,"lat":50.040954933,"lon":19.980476733,"altHAE":284.6327,"altMSL":245.0000,"alt":245.0000,"epx":8.028,"epy":7.251,"epv":23.690,"magvar":5.5,"speed":0.000,"climb":0.000,"eps":16.06,"epc":47.38,"geoidSep":39.633,"eph":7.600,"sep":24.510}
$PGLOR,2,SAT,4,1,G02,040,C,G04,027,C,G05,020,C,G06,045,C,G07,044,C,G09,026,C*3A
$PGLOR,2,SAT,4,2,G30,049,C,G06,040,C,G09,028,C,G30,039,C,R10,042,C,R06,043,C*34
$PGLOR,2,SAT,4,3,R09,049,C,R24,022,C,R07,027,C,R08,014,0,Q02,028,0,E02,040,C*22
$PGLOR,2,SAT,4,4,E03,034,C,E02,040,C,E03,029,C,N01,031,0,N02,037,8,N06,034,8*44
$PGLOR,0,SPD,0,301120,115040.00,s,0.00,l,0.00,c,0.00,D,0,15.7*24
$PGLOR,1,FIX,1.0,1.0*20
$PGLOR,6,STA,115040.00,0.000,0.000,0,1,4,0,P,D,L,0,C,0,S,0000,15,5,R,0000,tpef,0,254326,LC,,*27
$PGLOR,4,PWR,mA,29.7,RFTm,1000,OscTm,1000,MeasTm,1000,UTC,115040.00,GNSSmA,29.7,CPUTm,348,COPTm,101,SrchTm,66,TrkTm,598,RpcTm,156*06
$PGLOR,1,LSQ,115040.00,,,,,,,,,,,,,,,,00,,*3A
$GPGGA,115040.00,5002.457296,N,01958.828604,E,1,21,0.4,245.0,M,,M,,*7E
{"class":"SKY","xdop":0.54,"ydop":0.48,"vdop":1.03,"tdop":0.53,"hdop":0.40,"gdop":1.32,"pdop":1.29}
$GPGSV,3,1,10,02,25,260,40,04,15,092,27,05,36,306,21,06,12,215,45*75
$GPGSV,3,2,10,07,80,137,44,09,52,089,26,30,55,211,49*44
$GPGSV,3,3,10,06,,,40,09,,,28,30,,,39,8*64
$GLGSV,2,1,06,74,20,191,42,70,38,115,43,73,64,151,49,88,15,341,22*6C
$GLGSV,2,2,06,71,78,010,28,72,,,15*50
{"class":"SKY","xdop":0.54,"ydop":0.48,"vdop":1.03,"tdop":0.53,"hdop":0.40,"gdop":1.32,"pdop":1.29,"nSat":16,"uSat":15,"satellites":[{"PRN":2,"el":25.0,"az":260.0,"ss":40.0,"used":true,"gnssid":0,"svid":2},{"PRN":4,"el":15.0,"az":92.0,"ss":27.0,"used":true,"gnssid":0,"svid":4},{"PRN":5,"el":36.0,"az":306.0,"ss":21.0,"used":true,"gnssid":0,"svid":5},{"PRN":6,"el":12.0,"az":215.0,"ss":45.0,"used":true,"gnssid":0,"svid":6},{"PRN":7,"el":80.0,"az":137.0,"ss":44.0,"used":true,"gnssid":0,"svid":7},{"PRN":9,"el":52.0,"az":89.0,"ss":26.0,"used":true,"gnssid":0,"svid":9},{"PRN":30,"el":55.0,"az":211.0,"ss":49.0,"used":true,"gnssid":0,"svid":30},{"PRN":6,"el":0.0,"az":0.0,"ss":40.0,"used":true,"gnssid":0,"svid":6},{"PRN":9,"el":0.0,"az":0.0,"ss":28.0,"used":true,"gnssid":0,"svid":9},{"PRN":30,"el":0.0,"az":0.0,"ss":39.0,"used":true,"gnssid":0,"svid":30},{"PRN":74,"el":20.0,"az":191.0,"ss":42.0,"used":true,"gnssid":6,"svid":10},{"PRN":70,"el":38.0,"az":115.0,"ss":43.0,"used":true,"gnssid":6,"svid":6},{"PRN":73,"el":64.0,"az":151.0,"ss":49.0,"used":true,"gnssid":6,"svid":9},{"PRN":88,"el":15.0,"az":341.0,"ss":22.0,"used":true,"gnssid":6,"svid":24},{"PRN":71,"el":78.0,"az":10.0,"ss":28.0,"used":true,"gnssid":6,"svid":7},{"PRN":72,"el":0.0,"az":0.0,"ss":15.0,"used":false,"gnssid":6,"svid":8}]}
$QZGSV,2,1,02,02,05,042,28*5F
$QZGSV,2,2,02,02,,,09,8*78
{"class":"SKY","xdop":0.54,"ydop":0.48,"vdop":1.03,"tdop":0.53,"hdop":0.40,"gdop":1.32,"pdop":1.29,"nSat":18,"uSat":15,"satellites":[{"PRN":2,"el":25.0,"az":260.0,"ss":40.0,"used":true,"gnssid":0,"svid":2},{"PRN":4,"el":15.0,"az":92.0,"ss":27.0,"used":true,"gnssid":0,"svid":4},{"PRN":5,"el":36.0,"az":306.0,"ss":21.0,"used":true,"gnssid":0,"svid":5},{"PRN":6,"el":12.0,"az":215.0,"ss":45.0,"used":true,"gnssid":0,"svid":6},{"PRN":7,"el":80.0,"az":137.0,"ss":44.0,"used":true,"gnssid":0,"svid":7},{"PRN":9,"el":52.0,"az":89.0,"ss":26.0,"used":true,"gnssid":0,"svid":9},{"PRN":30,"el":55.0,"az":211.0,"ss":49.0,"used":true,"gnssid":0,"svid":30},{"PRN":6,"el":0.0,"az":0.0,"ss":40.0,"used":true,"gnssid":0,"svid":6},{"PRN":9,"el":0.0,"az":0.0,"ss":28.0,"used":true,"gnssid":0,"svid":9},{"PRN":30,"el":0.0,"az":0.0,"ss":39.0,"used":true,"gnssid":0,"svid":30},{"PRN":74,"el":20.0,"az":191.0,"ss":42.0,"used":true,"gnssid":6,"svid":10},{"PRN":70,"el":38.0,"az":115.0,"ss":43.0,"used":true,"gnssid":6,"svid":6},{"PRN":73,"el":64.0,"az":151.0,"ss":49.0,"used":true,"gnssid":6,"svid":9},{"PRN":88,"el":15.0,"az":341.0,"ss":22.0,"used":true,"gnssid":6,"svid":24},{"PRN":71,"el":78.0,"az":10.0,"ss":28.0,"used":true,"gnssid":6,"svid":7},{"PRN":72,"el":0.0,"az":0.0,"ss":15.0,"used":false,"gnssid":6,"svid":8},{"PRN":194,"el":5.0,"az":42.0,"ss":28.0,"used":false,"gnssid":5,"svid":2},{"PRN":194,"el":0.0,"az":0.0,"ss":9.0,"used":false,"gnssid":5,"svid":2}]}
$GAGSV,2,1,04,102,28,167,41,103,69,097,34*67
$GAGSV,2,2,04,102,,,40,103,,,29,1*7F
{"class":"SKY","xdop":0.54,"ydop":0.48,"vdop":1.03,"tdop":0.53,"hdop":0.40,"gdop":1.32,"pdop":1.29,"nSat":22,"uSat":15,"satellites":[{"PRN":2,"el":25.0,"az":260.0,"ss":40.0,"used":true,"gnssid":0,"svid":2},{"PRN":4,"el":15.0,"az":92.0,"ss":27.0,"used":true,"gnssid":0,"svid":4},{"PRN":5,"el":36.0,"az":306.0,"ss":21.0,"used":true,"gnssid":0,"svid":5},{"PRN":6,"el":12.0,"az":215.0,"ss":45.0,"used":true,"gnssid":0,"svid":6},{"PRN":7,"el":80.0,"az":137.0,"ss":44.0,"used":true,"gnssid":0,"svid":7},{"PRN":9,"el":52.0,"az":89.0,"ss":26.0,"used":true,"gnssid":0,"svid":9},{"PRN":30,"el":55.0,"az":211.0,"ss":49.0,"used":true,"gnssid":0,"svid":30},{"PRN":6,"el":0.0,"az":0.0,"ss":40.0,"used":true,"gnssid":0,"svid":6},{"PRN":9,"el":0.0,"az":0.0,"ss":28.0,"used":true,"gnssid":0,"svid":9},{"PRN":30,"el":0.0,"az":0.0,"ss":39.0,"used":true,"gnssid":0,"svid":30},{"PRN":74,"el":20.0,"az":191.0,"ss":42.0,"used":true,"gnssid":6,"svid":10},{"PRN":70,"el":38.0,"az":115.0,"ss":43.0,"used":true,"gnssid":6,"svid":6},{"PRN":73,"el":64.0,"az":151.0,"ss":49.0,"used":true,"gnssid":6,"svid":9},{"PRN":88,"el":15.0,"az":341.0,"ss":22.0,"used":true,"gnssid":6,"svid":24},{"PRN":71,"el":78.0,"az":10.0,"ss":28.0,"used":true,"gnssid":6,"svid":7},{"PRN":72,"el":0.0,"az":0.0,"ss":15.0,"used":false,"gnssid":6,"svid":8},{"PRN":194,"el":5.0,"az":42.0,"ss":28.0,"used":false,"gnssid":5,"svid":2},{"PRN":194,"el":0.0,"az":0.0,"ss":9.0,"used":false,"gnssid":5,"svid":2},{"PRN":302,"el":28.0,"az":167.0,"ss":41.0,"used":false,"gnssid":2,"svid":2},{"PRN":303,"el":69.0,"az":97.0,"ss":34.0,"used":false,"gnssid":2,"svid":3},{"PRN":302,"el":0.0,"az":0.0,"ss":40.0,"used":false,"gnssid":2,"svid":2},{"PRN":303,"el":0.0,"az":0.0,"ss":29.0,"used":false,"gnssid":2,"svid":3}]}
$GPGSA,A,3,02,04,05,06,07,09,30,,,,,,1.31,0.81,1.03*02
$GNGSA,A,3,02,04,05,06,07,09,30,,,,,,1.31,0.81,1.03*1C
$GNGSA,A,3,70,71,73,74,88,,,,,,,,1.31,0.81,1.03*12
{"class":"SKY","xdop":0.54,"ydop":0.48,"vdop":1.03,"tdop":0.53,"hdop":0.81,"gdop":1.32,"pdop":1.31}
$GPRMC,115040.00,A,5002.457296,N,01958.828604,E,0.0,,301120,,,A*79
{"class":"TPV","mode":3,"time":"2020-11-30T11:50:40.000Z","ept":0.005,"lat":50.040954933,"lon":19.980476733,"altHAE":284.6327,"altMSL":245.0000,"alt":245.0000,"epx":8.028,"epy":7.251,"epv":23.690,"magvar":5.5,"speed":0.000,"climb":0.000,"eps":16.06,"epc":47.38,"geoidSep":39.633,"eph":7.600,"sep":24.510}
$PGLOR,2,SAT,5,1,G02,040,C,G04,027,C,G05,021,8,G06,045,C,G07,044,C,G09,026,C*41
$PGLOR,2,SAT,5,2,G30,049,C,G06,040,C,G09,028,C,G30,039,C,R10,042,C,R06,043,C*35
$PGLOR,2,SAT,5,3,R09,049,C,R24,022,C,R07,028,C,R08,015,0,Q02,028,0,Q02,009,0*47
$PGLOR,2,SAT,5,4,E02,041,C,E03,034,C,E02,040,C,E03,029,C,N01,031,0,N02,037,8*33
$PGLOR,2,SAT,5,5,N06,035,8*58
$PGLOR,0,SPD,0,301120,115041.00,s,0.00,l,0.00,c,0.00,D,0,15.7*25
$PGLOR,1,FIX,1.0,1.0*20
$PGLOR,6,STA,115041.00,0.000,0.000,0,1,4,0,P,D,L,0,C,0,S,0000,15,5,R,0000,tpef,0,255326,LC,,*27
$PGLOR,4,PWR,mA,29.8,RFTm,1000,OscTm,1000,MeasTm,1000,UTC,115041.00,GNSSmA,29.8,CPUTm,351,COPTm,103,SrchTm,67,TrkTm,598,RpcTm,156*0C
$PGLOR,1,LSQ,115041.00,,,,,,,,,,,,,,,,00,,*3B
$GPGGA,115041.00,5002.457296,N,01958.828604,E,1,21,0.4,245.0,M,,M,,*7F
{"class":"SKY","xdop":0.54,"ydop":0.48,"vdop":1.03,"tdop":0.53,"hdop":0.40,"gdop":1.32,"pdop":1.31}
$GPGSV,3,1,10,02,25,260,40,04,15,092,28,05,36,306,22,06,12,215,45*79
$GPGSV,3,2,10,07,80,137,44,09,52,089,27,30,55,211,49*45
$GPGSV,3,3,10,06,,,40,09,,,28,30,,,39,8*64
$GLGSV,2,1,06,74,20,191,42,70,38,115,43,73,64,151,49,88,15,341,21*6F
$GLGSV,2,2,06,71,78,010,28,72,,,19*5C
{"class":"SKY","xdop":0.54,"ydop":0.48,"vdop":1.03,"tdop":0.53,"hdop":0.40,"gdop":1.32,"pdop":1.31,"nSat":16,"uSat":15,"satellites":[{"PRN":2,"el":25.0,"az":260.0,"ss":40.0,"used":true,"gnssid":0,"svid":2},{"PRN":4,"el":15.0,"az":92.0,"ss":28.0,"used":true,"gnssid":0,"svid":4},{"PRN":5,"el":36.0,"az":306.0,"ss":22.0,"used":true,"gnssid":0,"svid":5},{"PRN":6,"el":12.0,"az":215.0,"ss":45.0,"used":true,"gnssid":0,"svid":6},{"PRN":7,"el":80.0,"az":137.0,"ss":44.0,"used":true,"gnssid":0,"svid":7},{"PRN":9,"el":52.0,"az":89.0,"ss":27.0,"used":true,"gnssid":0,"svid":9},{"PRN":30,"el":55.0,"az":211.0,"ss":49.0,"used":true,"gnssid":0,"svid":30},{"PRN":6,"el":0.0,"az":0.0,"ss":40.0,"used":true,"gnssid":0,"svid":6},{"PRN":9,"el":0.0,"az":0.0,"ss":28.0,"used":true,"gnssid":0,"svid":9},{"PRN":30,"el":0.0,"az":0.0,"ss":39.0,"used":true,"gnssid":0,"svid":30},{"PRN":74,"el":20.0,"az":191.0,"ss":42.0,"used":true,"gnssid":6,"svid":10},{"PRN":70,"el":38.0,"az":115.0,"ss":43.0,"used":true,"gnssid":6,"svid":6},{"PRN":73,"el":64.0,"az":151.0,"ss":49.0,"used":true,"gnssid":6,"svid":9},{"PRN":88,"el":15.0,"az":341.0,"ss":21.0,"used":true,"gnssid":6,"svid":24},{"PRN":71,"el":78.0,"az":10.0,"ss":28.0,"used":true,"gnssid":6,"svid":7},{"PRN":72,"el":0.0,"az":0.0,"ss":19.0,"used":false,"gnssid":6,"svid":8}]}
$QZGSV,2,1,02,02,05,042,28*5F
$QZGSV,2,2,02,02,,,09,8*78
{"class":"SKY","xdop":0.54,"ydop":0.48,"vdop":1.03,"tdop":0.53,"hdop":0.40,"gdop":1.32,"pdop":1.31,"nSat":18,"uSat":15,"satellites":[{"PRN":2,"el":25.0,"az":260.0,"ss":40.0,"used":true,"gnssid":0,"svid":2},{"PRN":4,"el":15.0,"az":92.0,"ss":28.0,"used":true,"gnssid":0,"svid":4},{"PRN":5,"el":36.0,"az":306.0,"ss":22.0,"used":true,"gnssid":0,"svid":5},{"PRN":6,"el":12.0,"az":215.0,"ss":45.0,"used":true,"gnssid":0,"svid":6},{"PRN":7,"el":80.0,"az":137.0,"ss":44.0,"used":true,"gnssid":0,"svid":7},{"PRN":9,"el":52.0,"az":89.0,"ss":27.0,"used":true,"gnssid":0,"svid":9},{"PRN":30,"el":55.0,"az":211.0,"ss":49.0,"used":true,"gnssid":0,"svid":30},{"PRN":6,"el":0.0,"az":0.0,"ss":40.0,"used":true,"gnssid":0,"svid":6},{"PRN":9,"el":0.0,"az":0.0,"ss":28.0,"used":true,"gnssid":0,"svid":9},{"PRN":30,"el":0.0,"az":0.0,"ss":39.0,"used":true,"gnssid":0,"svid":30},{"PRN":74,"el":20.0,"az":191.0,"ss":42.0,"used":true,"gnssid":6,"svid":10},{"PRN":70,"el":38.0,"az":115.0,"ss":43.0,"used":true,"gnssid":6,"svid":6},{"PRN":73,"el":64.0,"az":151.0,"ss":49.0,"used":true,"gnssid":6,"svid":9},{"PRN":88,"el":15.0,"az":341.0,"ss":21.0,"used":true,"gnssid":6,"svid":24},{"PRN":71,"el":78.0,"az":10.0,"ss":28.0,"used":true,"gnssid":6,"svid":7},{"PRN":72,"el":0.0,"az":0.0,"ss":19.0,"used":false,"gnssid":6,"svid":8},{"PRN":194,"el":5.0,"az":42.0,"ss":28.0,"used":false,"gnssid":5,"svid":2},{"PRN":194,"el":0.0,"az":0.0,"ss":9.0,"used":false,"gnssid":5,"svid":2}]}
$GAGSV,2,1,04,102,28,167,41,103,69,097,35*66
$GAGSV,2,2,04,102,,,40,103,,,29,1*7F
{"class":"SKY","xdop":0.54,"ydop":0.48,"vdop":1.03,"tdop":0.53,"hdop":0.40,"gdop":1.32,"pdop":1.31,"nSat":22,"uSat":15,"satellites":[{"PRN":2,"el":25.0,"az":260.0,"ss":40.0,"used":true,"gnssid":0,"svid":2},{"PRN":4,"el":15.0,"az":92.0,"ss":28.0,"used":true,"gnssid":0,"svid":4},{"PRN":5,"el":36.0,"az":306.0,"ss":22.0,"used":true,"gnssid":0,"svid":5},{"PRN":6,"el":12.0,"az":215.0,"ss":45.0,"used":true,"gnssid":0,"svid":6},{"PRN":7,"el":80.0,"az":137.0,"ss":44.0,"used":true,"gnssid":0,"svid":7},{"PRN":9,"el":52.0,"az":89.0,"ss":27.0,"used":true,"gnssid":0,"svid":9},{"PRN":30,"el":55.0,"az":211.0,"ss":49.0,"used":true,"gnssid":0,"svid":30},{"PRN":6,"el":0.0,"az":0.0,"ss":40.0,"used":true,"gnssid":0,"svid":6},{"PRN":9,"el":0.0,"az":0.0,"ss":28.0,"used":true,"gnssid":0,"svid":9},{"PRN":30,"el":0.0,"az":0.0,"ss":39.0,"used":true,"gnssid":0,"svid":30},{"PRN":74,"el":20.0,"az":191.0,"ss":42.0,"used":true,"gnssid":6,"svid":10},{"PRN":70,"el":38.0,"az":115.0,"ss":43.0,"used":true,"gnssid":6,"svid":6},{"PRN":73,"el":64.0,"az":151.0,"ss":49.0,"used":true,"gnssid":6,"svid":9},{"PRN":88,"el":15.0,"az":341.0,"ss":21.0,"used":true,"gnssid":6,"svid":24},{"PRN":71,"el":78.0,"az":10.0,"ss":28.0,"used":true,"gnssid":6,"svid":7},{"PRN":72,"el":0.0,"az":0.0,"ss":19.0,"used":false,"gnssid":6,"svid":8},{"PRN":194,"el":5.0,"az":42.0,"ss":28.0,"used":false,"gnssid":5,"svid":2},{"PRN":194,"el":0.0,"az":0.0,"ss":9.0,"used":false,"gnssid":5,"svid":2},{"PRN":302,"el":28.0,"az":167.0,"ss":41.0,"used":false,"gnssid":2,"svid":2},{"PRN":303,"el":69.0,"az":97.0,"ss":35.0,"used":false,"gnssid":2,"svid":3},{"PRN":302,"el":0.0,"az":0.0,"ss":40.0,"used":false,"gnssid":2,"svid":2},{"PRN":303,"el":0.0,"az":0.0,"ss":29.0,"used":false,"gnssid":2,"svid":3}]}
$GPGSA,A,3,02,04,05,06,07,09,30,,,,,,1.31,0.81,1.03*02
$GNGSA,A,3,02,04,05,06,07,09,30,,,,,,1.31,0.81,1.03*1C
$GNGSA,A,3,70,71,73,74,88,,,,,,,,1.31,0.81,1.03*12
{"class":"SKY","xdop":0.54,"ydop":0.48,"vdop":1.03,"tdop":0.53,"hdop":0.81,"gdop":1.32,"pdop":1.31}
$GPRMC,115041.00,A,5002.457296,N,01958.828604,E,0.0,,301120,,,A*78
{"class":"TPV","mode":3,"time":"2020-11-30T11:50:41.000Z","ept":0.005,"lat":50.040954933,"lon":19.980476733,"altHAE":284.6327,"altMSL":245.0000,"alt":245.0000,"epx":8.028,"epy":7.251,"epv":23.690,"magvar":5.5,"speed":0.000,"climb":0.000,"eps":16.06,"epc":47.38,"geoidSep":39.633,"eph":7.600,"sep":24.890}
$PGLOR,2,SAT,5,1,G02,040,C,G04,028,C,G05,022,8,G06,045,C,G07,044,C,G09,027,C*4C
$PGLOR,2,SAT,5,2,G30,049,C,G06,040,C,G09,028,C,G30,039,C,R10,042,C,R06,043,C*35
$PGLOR,2,SAT,5,3,R09,049,C,R24,021,C,R07,028,C,R08,019,0,Q02,028,0,Q02,009,0*48
$PGLOR,2,SAT,5,4,E02,041,C,E03,035,C,E02,040,C,E03,029,C,N01,031,0,N02,037,8*32
$PGLOR,2,SAT,5,5,N06,034,8*59
$PGLOR,0,SPD,0,301120,115042.00,s,0.00,l,0.00,c,0.00,D,0,15.7*26
$PGLOR,1,FIX,1.0,1.0*20
$PGLOR,6,STA,115042.00,0.000,0.000,0,1,4,0,P,D,L,0,C,0,S,0000,15,5,R,0000,tpef,0,256326,LC,,*27
$PGLOR,4,PWR,mA,29.7,RFTm,1000,OscTm,1000,MeasTm,1000,UTC,115042.00,GNSSmA,29.7,CPUTm,346,COPTm,105,SrchTm,65,TrkTm,598,RpcTm,156*0D
$PGLOR,1,LSQ,115042.00,,,,,,,,,,,,,,,,00,,*38
$GPGGA,115042.00,5002.457296,N,01958.828604,E,1,22,0.4,245.0,M,,M,,*7F
{"class":"SKY","xdop":0.54,"ydop":0.48,"vdop":1.03,"tdop":0.53,"hdop":0.40,"gdop":1.32,"pdop":1.31}
$GPGSV,3,1,10,02,25,260,39,04,15,092,28,05,36,306,23,06,12,215,45*76
$GPGSV,3,2,10,07,80,136,44,09,52,089,26,30,55,211,49*45
$GPGSV,3,3,10,06,,,40,09,,,28,30,,,39,8*64
$GLGSV,2,1,06,74,20,191,42,70,38,115,43,73,64,151,49,88,15,341,21*6F
$GLGSV,2,2,06,71,78,010,28,72,32,310,22*67
