$GPGSV,4,2,12,17,30,269,30,19,,,13,21,19,157,39,22,58,098,35,1*58
$GPGSV,4,3,12,31,29,056,18,1*53
$GPGSV,4,4,12,01,38,160,38,03,80,057,20,09,26,227,40,8*5D
{"class":"SKY","nSat":8,"uSat":0,"satellites":[{"PRN":17,"gnssid":0,"svid":17,"az":269.0,"el":30.0,"ss":30.0,"used":false},{"PRN":19,"gnssid":0,"svid":19,"az":0.0,"el":0.0,"ss":13.0,"used":false},{"PRN":21,"gnssid":0,"svid":21,"az":157.0,"el":19.0,"ss":39.0,"used":false},{"PRN":22,"gnssid":0,"svid":22,"az":98.0,"el":58.0,"ss":35.0,"used":false},{"PRN":31,"gnssid":0,"svid":31,"az":56.0,"el":29.0,"ss":18.0,"used":false},{"PRN":1,"gnssid":0,"svid":1,"az":160.0,"el":38.0,"ss":38.0,"used":false},{"PRN":3,"gnssid":0,"svid":3,"az":57.0,"el":80.0,"ss":20.0,"used":false},{"PRN":9,"gnssid":0,"svid":9,"az":227.0,"el":26.0,"ss":40.0,"used":false}]}
$GLGSV,2,1,05,70,31,264,38,79,13,116,37,84,48,209,33,85,,,13,1*4A
$GLGSV,2,2,05,68,26,060,21,1*42
{"class":"SKY","nSat":13,"uSat":0,"satellites":[{"PRN":17,"gnssid":0,"svid":17,"az":269.0,"el":30.0,"ss":30.0,"used":false},{"PRN":19,"gnssid":0,"svid":19,"az":0.0,"el":0.0,"ss":13.0,"used":false},{"PRN":21,"gnssid":0,"svid":21,"az":157.0,"el":19.0,"ss":39.0,"used":false},{"PRN":22,"gnssid":0,"svid":22,"az":98.0,"el":58.0,"ss":35.0,"used":false},{"PRN":31,"gnssid":0,"svid":31,"az":56.0,"el":29.0,"ss":18.0,"used":false},{"PRN":1,"gnssid":0,"svid":1,"az":160.0,"el":38.0,"ss":38.0,"used":false},{"PRN":3,"gnssid":0,"svid":3,"az":57.0,"el":80.0,"ss":20.0,"used":false},{"PRN":9,"gnssid":0,"svid":9,"az":227.0,"el":26.0,"ss":40.0,"used":false},{"PRN":70,"gnssid":6,"svid":6,"az":264.0,"el":31.0,"ss":38.0,"used":false},{"PRN":79,"gnssid":6,"svid":15,"az":116.0,"el":13.0,"ss":37.0,"used":false},{"PRN":84,"gnssid":6,"svid":20,"az":209.0,"el":48.0,"ss":33.0,"used":false},{"PRN":85,"gnssid":6,"svid":21,"az":0.0,"el":0.0,"ss":13.0,"used":false},{"PRN":68,"gnssid":6,"svid":4,"az":60.0,"el":26.0,"ss":21.0,"used":false}]}
$GAGSV,2,1,04,103,35,240,43,136,20,167,40,6*72
$GAGSV,2,2,04,103,35,240,39,136,20,167,36,1*7A
{"class":"SKY","nSat":17,"uSat":0,"satellites":[{"PRN":17,"gnssid":0,"svid":17,"az":269.0,"el":30.0,"ss":30.0,"used":false},{"PRN":19,"gnssid":0,"svid":19,"az":0.0,"el":0.0,"ss":13.0,"used":false},{"PRN":21,"gnssid":0,"svid":21,"az":157.0,"el":19.0,"ss":39.0,"used":false},{"PRN":22,"gnssid":0,"svid":22,"az":98.0,"el":58.0,"ss":35.0,"used":false},{"PRN":31,"gnssid":0,"svid":31,"az":56.0,"el":29.0,"ss":18.0,"used":false},{"PRN":1,"gnssid":0,"svid":1,"az":160.0,"el":38.0,"ss":38.0,"used":false},{"PRN":3,"gnssid":0,"svid":3,"az":57.0,"el":80.0,"ss":20.0,"used":false},{"PRN":9,"gnssid":0,"svid":9,"az":227.0,"el":26.0,"ss":40.0,"used":false},{"PRN":70,"gnssid":6,"svid":6,"az":264.0,"el":31.0,"ss":38.0,"used":false},{"PRN":79,"gnssid":6,"svid":15,"az":116.0,"el":13.0,"ss":37.0,"used":false},{"PRN":84,"gnssid":6,"svid":20,"az":209.0,"el":48.0,"ss":33.0,"used":false},{"PRN":85,"gnssid":6,"svid":21,"az":0.0,"el":0.0,"ss":13.0,"used":false},{"PRN":68,"gnssid":6,"svid":4,"az":60.0,"el":26.0,"ss":21.0,"used":false},{"PRN":303,"gnssid":2,"svid":3,"sigid":3,"az":240.0,"el":35.0,"ss":43.0,"used":false},{"PRN":336,"gnssid":2,"svid":36,"sigid":3,"az":167.0,"el":20.0,"ss":40.0,"used":false},{"PRN":303,"gnssid":2,"svid":3,"az":240.0,"el":35.0,"ss":39.0,"used":false},{"PRN":336,"gnssid":2,"svid":36,"az":167.0,"el":20.0,"ss":36.0,"used":false}]}
$GNGSA,A,3,01,03,04,09,17,21,22,31,,,,,1.6,0.9,1.3,1*35
{"class":"TPV","mode":3,"epv":29.900,"eph":17.100,"sep":30.400}
$GNGSA,A,3,68,70,79,84,,,,,,,,,1.6,0.9,1.3,2*35
{"class":"TPV","mode":3,"epv":29.900,"eph":17.100,"sep":30.400}
{"class":"SKY","hdop":0.90,"pdop":1.60,"vdop":1.30}
$GNGSA,A,3,103,132,,,,,,,,,,,1.6,0.9,1.3,3*3D
{"class":"TPV","mode":3,"epv":29.900,"eph":17.100,"sep":30.400}
{"class":"SKY","hdop":0.90,"pdop":1.60,"vdop":1.30}
$GNGSA,A,3,,,,,,,,,,,,,1.6,0.9,1.3,4*38
{"class":"TPV","mode":3,"epv":29.900,"eph":17.100,"sep":30.400}
{"class":"SKY","hdop":0.90,"pdop":1.60,"vdop":1.30}
$GNGSA,A,3,,,,,,,,,,,,,1.6,0.9,1.3,5*39
{"class":"TPV","mode":3,"epv":29.900,"eph":17.100,"sep":30.400}
{"class":"SKY","hdop":0.90,"pdop":1.60,"vdop":1.30}
$GNGSA,A,3,,,,,,,,,,,,,1.6,0.9,1.3,6*3A
{"class":"TPV","mode":3,"epv":29.900,"eph":17.100,"sep":30.400}
{"class":"SKY","hdop":0.90,"pdop":1.60,"vdop":1.30}
$GNVTG,16.6,T,,M,0.0,N,0.0,K,A*22
$GNRMC,080359.00,A,5002.453527,N,01958.831794,E,0.0,16.6,301120,,,A,V*0D
{"class":"TPV","mode":3,"time":"2020-11-30T08:03:59.000Z","ept":0.005,"lat":50.040892117,"lon":19.980529900,"track":16.6000,"magtrack":22.0919,"magvar":5.5,"speed":0.000,"geoidSep":39.633}
$GNGGA,080359.00,5002.453527,N,01958.831794,E,1,14,0.9,202.1,M,,M,,*66
{"class":"TPV","mode":3,"time":"2020-11-30T08:03:59.000Z","ept":0.005,"lat":50.040892117,"lon":19.980529900,"altHAE":241.7328,"altMSL":202.1000,"alt":202.1000,"track":16.6000,"magtrack":22.0919,"magvar":5.5,"speed":0.000,"geoidSep":39.633,"eph":17.100}
{"class":"SKY","hdop":0.90}
$GNGLL,5002.453527,N,01958.831794,E,080359.00,A,A*70
{"class":"TPV","mode":3,"time":"2020-11-30T08:03:59.000Z","ept":0.005,"lat":50.040892117,"lon":19.980529900,"altHAE":241.7328,"altMSL":202.1000,"alt":202.1000,"track":16.6000,"magtrack":22.0919,"magvar":5.5,"speed":0.000,"geoidSep":39.633,"eph":17.100}
$GPGSV,4,1,12,01,38,160,35,03,80,057,29,04,65,211,44,09,26,227,36,1*61
$GPGSV,4,2,12,17,30,269,29,19,,,13,21,19,157,39,22,58,098,35,1*50
$GPGSV,4,3,12,31,29,056,18,1*53
$GPGSV,4,4,12,01,38,160,38,03,80,057,20,09,26,227,40,8*5D
$GLGSV,2,1,05,70,31,264,38,79,13,116,37,84,48,209,33,85,,,13,1*4A
$GLGSV,2,2,05,68,26,060,19,1*49
{"class":"SKY","gdop":1.63,"hdop":0.90,"pdop":1.41,"tdop":0.81,"xdop":0.47,"ydop":0.65,"vdop":1.16,"nSat":17,"uSat":15,"satellites":[{"PRN":1,"gnssid":0,"svid":1,"az":160.0,"el":38.0,"ss":35.0,"used":true},{"PRN":3,"gnssid":0,"svid":3,"az":57.0,"el":80.0,"ss":29.0,"used":true},{"PRN":4,"gnssid":0,"svid":4,"az":211.0,"el":65.0,"ss":44.0,"used":true},{"PRN":9,"gnssid":0,"svid":9,"az":227.0,"el":26.0,"ss":36.0,"used":true},{"PRN":17,"gnssid":0,"svid":17,"az":269.0,"el":30.0,"ss":29.0,"used":true},{"PRN":19,"gnssid":0,"svid":19,"az":0.0,"el":0.0,"ss":13.0,"used":false},{"PRN":21,"gnssid":0,"svid":21,"az":157.0,"el":19.0,"ss":39.0,"used":true},{"PRN":22,"gnssid":0,"svid":22,"az":98.0,"el":58.0,"ss":35.0,"used":true},{"PRN":31,"gnssid":0,"svid":31,"az":56.0,"el":29.0,"ss":18.0,"used":true},{"PRN":1,"gnssid":0,"svid":1,"az":160.0,"el":38.0,"ss":38.0,"used":true},{"PRN":3,"gnssid":0,"svid":3,"az":57.0,"el":80.0,"ss":20.0,"used":true},{"PRN":9,"gnssid":0,"svid":9,"az":227.0,"el":26.0,"ss":40.0,"used":true},{"PRN":70,"gnssid":6,"svid":6,"az":264.0,"el":31.0,"ss":38.0,"used":true},{"PRN":79,"gnssid":6,"svid":15,"az":116.0,"el":13.0,"ss":37.0,"used":true},{"PRN":84,"gnssid":6,"svid":20,"az":209.0,"el":48.0,"ss":33.0,"used":true},{"PRN":85,"gnssid":6,"svid":21,"az":0.0,"el":0.0,"ss":13.0,"used":false},{"PRN":68,"gnssid":6,"svid":4,"az":60.0,"el":26.0,"ss":19.0,"used":true}]}
$GAGSV,2,1,04,103,35,240,43,136,20,167,40,6*72
$GAGSV,2,2,04,103,35,240,39,136,20,167,36,1*7A
{"class":"SKY","gdop":1.63,"hdop":0.90,"pdop":1.41,"tdop":0.81,"xdop":0.47,"ydop":0.65,"vdop":1.16,"nSat":21,"uSat":17,"satellites":[{"PRN":1,"gnssid":0,"svid":1,"az":160.0,"el":38.0,"ss":35.0,"used":true},{"PRN":3,"gnssid":0,"svid":3,"az":57.0,"el":80.0,"ss":29.0,"used":true},{"PRN":4,"gnssid":0,"svid":4,"az":211.0,"el":65.0,"ss":44.0,"used":true},{"PRN":9,"gnssid":0,"svid":9,"az":227.0,"el":26.0,"ss":36.0,"used":true},{"PRN":17,"gnssid":0,"svid":17,"az":269.0,"el":30.0,"ss":29.0,"used":true},{"PRN":19,"gnssid":0,"svid":19,"az":0.0,"el":0.0,"ss":13.0,"used":false},{"PRN":21,"gnssid":0,"svid":21,"az":157.0,"el":19.0,"ss":39.0,"used":true},{"PRN":22,"gnssid":0,"svid":22,"az":98.0,"el":58.0,"ss":35.0,"used":true},{"PRN":31,"gnssid":0,"svid":31,"az":56.0,"el":29.0,"ss":18.0,"used":true},{"PRN":1,"gnssid":0,"svid":1,"az":160.0,"el":38.0,"ss":38.0,"used":true},{"PRN":3,"gnssid":0,"svid":3,"az":57.0,"el":80.0,"ss":20.0,"used":true},{"PRN":9,"gnssid":0,"svid":9,"az":227.0,"el":26.0,"ss":40.0,"used":true},{"PRN":70,"gnssid":6,"svid":6,"az":264.0,"el":31.0,"ss":38.0,"used":true},{"PRN":79,"gnssid":6,"svid":15,"az":116.0,"el":13.0,"ss":37.0,"used":true},{"PRN":84,"gnssid":6,"svid":20,"az":209.0,"el":48.0,"ss":33.0,"used":true},{"PRN":85,"gnssid":6,"svid":21,"az":0.0,"el":0.0,"ss":13.0,"used":false},{"PRN":68,"gnssid":6,"svid":4,"az":60.0,"el":26.0,"ss":19.0,"used":true},{"PRN":303,"gnssid":2,"svid":3,"sigid":3,"az":240.0,"el":35.0,"ss":43.0,"used":true},{"PRN":336,"gnssid":2,"svid":36,"sigid":3,"az":167.0,"el":20.0,"ss":40.0,"used":false},{"PRN":303,"gnssid":2,"svid":3,"az":240.0,"el":35.0,"ss":39.0,"used":true},{"PRN":336,"gnssid":2,"svid":36,"az":167.0,"el":20.0,"ss":36.0,"used":false}]}
$GNGSA,A,3,01,03,04,09,17,21,22,31,,,,,1.6,0.9,1.3,1*35
{"class":"TPV","mode":3,"time":"2020-11-30T08:03:59.000Z","ept":0.005,"lat":50.040892117,"lon":19.980529900,"altHAE":241.7328,"altMSL":202.1000,"alt":202.1000,"epx":7.003,"epy":9.799,"epv":26.680,"track":16.6000,"magtrack":22.0919,"magvar":5.5,"speed":0.000,"geoidSep":39.633,"eph":17.100,"sep":26.805}
$GNGSA,A,3,68,70,79,84,,,,,,,,,1.6,0.9,1.3,2*35
{"class":"TPV","mode":3,"time":"2020-11-30T08:03:59.000Z","ept":0.005,"lat":50.040892117,"lon":19.980529900,"altHAE":241.7328,"altMSL":202.1000,"alt":202.1000,"epx":7.003,"epy":9.799,"epv":26.680,"track":16.6000,"magtrack":22.0919,"magvar":5.5,"speed":0.000,"geoidSep":39.633,"eph":17.100,"sep":26.805}
{"class":"SKY","gdop":1.63,"hdop":0.90,"pdop":1.60,"tdop":0.81,"xdop":0.47,"ydop":0.65,"vdop":1.30}
$GNGSA,A,3,103,132,,,,,,,,,,,1.6,0.9,1.3,3*3D
{"class":"TPV","mode":3,"time":"2020-11-30T08:03:59.000Z","ept":0.005,"lat":50.040892117,"lon":19.980529900,"altHAE":241.7328,"altMSL":202.1000,"alt":202.1000,"epx":7.003,"epy":9.799,"epv":26.680,"track":16.6000,"magtrack":22.0919,"magvar":5.5,"speed":0.000,"geoidSep":39.633,"eph":17.100,"sep":26.805}
{"class":"SKY","gdop":1.63,"hdop":0.90,"pdop":1.60,"tdop":0.81,"xdop":0.47,"ydop":0.65,"vdop":1.30}
$GNGSA,A,3,,,,,,,,,,,,,1.6,0.9,1.3,4*38
{"class":"TPV","mode":3,"time":"2020-11-30T08:03:59.000Z","ept":0.005,"lat":50.040892117,"lon":19.980529900,"altHAE":241.7328,"altMSL":202.1000,"alt":202.1000,"epx":7.003,"epy":9.799,"epv":26.680,"track":16.6000,"magtrack":22.0919,"magvar":5.5,"speed":0.000,"geoidSep":39.633,"eph":17.100,"sep":26.805}
{"class":"SKY","gdop":1.63,"hdop":0.90,"pdop":1.60,"tdop":0.81,"xdop":0.47,"ydop":0.65,"vdop":1.30}
$GNGSA,A,3,,,,,,,,,,,,,1.6,0.9,1.3,5*39
{"class":"TPV","mode":3,"time":"2020-11-30T08:03:59.000Z","ept":0.005,"lat":50.040892117,"lon":19.980529900,"altHAE":241.7328,"altMSL":202.1000,"alt":202.1000,"epx":7.003,"epy":9.799,"epv":26.680,"track":16.6000,"magtrack":22.0919,"magvar":5.5,"speed":0.000,"geoidSep":39.633,"eph":17.100,"sep":26.805}
{"class":"SKY","gdop":1.63,"hdop":0.90,"pdop":1.60,"tdop":0.81,"xdop":0.47,"ydop":0.65,"vdop":1.30}
$GNGSA,A,3,,,,,,,,,,,,,1.6,0.9,1.3,6*3A
{"class":"TPV","mode":3,"time":"2020-11-30T08:03:59.000Z","ept":0.005,"lat":50.040892117,"lon":19.980529900,"altHAE":241.7328,"altMSL":202.1000,"alt":202.1000,"epx":7.003,"epy":9.799,"epv":26.680,"track":16.6000,"magtrack":22.0919,"magvar":5.5,"speed":0.000,"geoidSep":39.633,"eph":17.100,"sep":26.805}
{"class":"SKY","gdop":1.63,"hdop":0.90,"pdop":1.60,"tdop":0.81,"xdop":0.47,"ydop":0.65,"vdop":1.30}
$GNVTG,16.6,T,,M,0.0,N,0.0,K,A*22
$GNRMC,080400.00,A,5002.453527,N,01958.831794,E,0.0,16.6,301120,,,A,V*06
$GNGGA,080400.00,5002.453527,N,01958.831794,E,1,14,0.9,202.1,M,,M,,*6D
{"class":"SKY","hdop":0.90}
$GNGLL,5002.453527,N,01958.831794,E,080400.00,A,A*7B
{"class":"TPV","mode":3,"time":"2020-11-30T08:04:00.000Z","ept":0.005,"lat":50.040892117,"lon":19.980529900,"altHAE":241.7328,"altMSL":202.1000,"alt":202.1000,"track":16.6000,"magtrack":22.0919,"magvar":5.5,"speed":0.000,"climb":0.000,"geoidSep":39.633,"eph":17.100}
$GPGSV,4,1,12,01,38,160,35,03,80,057,29,04,65,211,45,09,26,227,36,1*60
$GPGSV,4,2,12,17,30,269,29,19,,,12,21,19,157,39,22,58,098,35,1*51
$GPGSV,4,3,12,31,29,056,18,1*53
$GPGSV,4,4,12,01,38,160,38,03,80,057,21,09,26,227,40,8*5C
$GLGSV,2,1,05,70,31,264,38,79,13,116,37,84,48,209,33,85,,,13,1*4A
$GLGSV,2,2,05,68,26,060,19,1*49
{"class":"TPV","mode":3,"time":"2020-11-30T08:04:00.000Z","ept":0.005,"lat":50.040892117,"lon":19.980529900,"altHAE":241.7328,"altMSL":202.1000,"alt":202.1000,"epx":7.003,"epy":9.799,"epv":26.680,"track":16.6000,"magtrack":22.0919,"magvar":5.5,"speed":0.000,"climb":0.000,"eps":19.60,"epc":53.36,"geoidSep":39.633,"eph":17.100,"sep":26.805}
{"class":"SKY","gdop":1.63,"hdop":0.90,"pdop":1.41,"tdop":0.81,"xdop":0.47,"ydop":0.65,"vdop":1.16,"nSat":17,"uSat":15,"satellites":[{"PRN":1,"gnssid":0,"svid":1,"az":160.0,"el":38.0,"ss":35.0,"used":true},{"PRN":3,"gnssid":0,"svid":3,"az":57.0,"el":80.0,"ss":29.0,"used":true},{"PRN":4,"gnssid":0,"svid":4,"az":211.0,"el":65.0,"ss":45.0,"used":true},{"PRN":9,"gnssid":0,"svid":9,"az":227.0,"el":26.0,"ss":36.0,"used":true},{"PRN":17,"gnssid":0,"svid":17,"az":269.0,"el":30.0,"ss":29.0,"used":true},{"PRN":19,"gnssid":0,"svid":19,"az":0.0,"el":0.0,"ss":12.0,"used":false},{"PRN":21,"gnssid":0,"svid":21,"az":157.0,"el":19.0,"ss":39.0,"used":true},{"PRN":22,"gnssid":0,"svid":22,"az":98.0,"el":58.0,"ss":35.0,"used":true},{"PRN":31,"gnssid":0,"svid":31,"az":56.0,"el":29.0,"ss":18.0,"used":true},{"PRN":1,"gnssid":0,"svid":1,"az":160.0,"el":38.0,"ss":38.0,"used":true},{"PRN":3,"gnssid":0,"svid":3,"az":57.0,"el":80.0,"ss":21.0,"used":true},{"PRN":9,"gnssid":0,"svid":9,"az":227.0,"el":26.0,"ss":40.0,"used":true},{"PRN":70,"gnssid":6,"svid":6,"az":264.0,"el":31.0,"ss":38.0,"used":true},{"PRN":79,"gnssid":6,"svid":15,"az":116.0,"el":13.0,"ss":37.0,"used":true},{"PRN":84,"gnssid":6,"svid":20,"az":209.0,"el":48.0,"ss":33.0,"used":true},{"PRN":85,"gnssid":6,"svid":21,"az":0.0,"el":0.0,"ss":13.0,"used":false},{"PRN":68,"gnssid":6,"svid":4,"az":60.0,"el":26.0,"ss":19.0,"used":true}]}
$GAGSV,2,1,04,103,35,240,43,136,20,167,40,6*72
$GAGSV,2,2,04,103,35,240,39,136,20,167,36,1*7A
{"class":"TPV","mode":3,"time":"2020-11-30T08:04:00.000Z","ept":0.005,"lat":50.040892117,"lon":19.980529900,"altHAE":241.7328,"altMSL":202.1000,"alt":202.1000,"epx":7.003,"epy":9.799,"epv":26.680,"track":16.6000,"magtrack":22.0919,"magvar":5.5,"speed":0.000,"climb":0.000,"eps":19.60,"epc":53.36,"geoidSep":39.633,"eph":17.100,"sep":26.805}
{"class":"SKY","gdop":1.63,"hdop":0.90,"pdop":1.41,"tdop":0.81,"xdop":0.47,"ydop":0.65,"vdop":1.16,"nSat":21,"uSat":17,"satellites":[{"PRN":1,"gnssid":0,"svid":1,"az":160.0,"el":38.0,"ss":35.0,"used":true},{"PRN":3,"gnssid":0,"svid":3,"az":57.0,"el":80.0,"ss":29.0,"used":true},{"PRN":4,"gnssid":0,"svid":4,"az":211.0,"el":65.0,"ss":45.0,"used":true},{"PRN":9,"gnssid":0,"svid":9,"az":227.0,"el":26.0,"ss":36.0,"used":true},{"PRN":17,"gnssid":0,"svid":17,"az":269.0,"el":30.0,"ss":29.0,"used":true},{"PRN":19,"gnssid":0,"svid":19,"az":0.0,"el":0.0,"ss":12.0,"used":false},{"PRN":21,"gnssid":0,"svid":21,"az":157.0,"el":19.0,"ss":39.0,"used":true},{"PRN":22,"gnssid":0,"svid":22,"az":98.0,"el":58.0,"ss":35.0,"used":true},{"PRN":31,"gnssid":0,"svid":31,"az":56.0,"el":29.0,"ss":18.0,"used":true},{"PRN":1,"gnssid":0,"svid":1,"az":160.0,"el":38.0,"ss":38.0,"used":true},{"PRN":3,"gnssid":0,"svid":3,"az":57.0,"el":80.0,"ss":21.0,"used":true},{"PRN":9,"gnssid":0,"svid":9,"az":227.0,"el":26.0,"ss":40.0,"used":true},{"PRN":70,"gnssid":6,"svid":6,"az":264.0,"el":31.0,"ss":38.0,"used":true},{"PRN":79,"gnssid":6,"svid":15,"az":116.0,"el":13.0,"ss":37.0,"used":true},{"PRN":84,"gnssid":6,"svid":20,"az":209.0,"el":48.0,"ss":33.0,"used":true},{"PRN":85,"gnssid":6,"svid":21,"az":0.0,"el":0.0,"ss":13.0,"used":false},{"PRN":68,"gnssid":6,"svid":4,"az":60.0,"el":26.0,"ss":19.0,"used":true},{"PRN":303,"gnssid":2,"svid":3,"sigid":3,"az":240.0,"el":35.0,"ss":43.0,"used":true},{"PRN":336,"gnssid":2,"svid":36,"sigid":3,"az":167.0,"el":20.0,"ss":40.0,"used":false},{"PRN":303,"gnssid":2,"svid":3,"az":240.0,"el":35.0,"ss":39.0,"used":true},{"PRN":336,"gnssid":2,"svid":36,"az":167.0,"el":20.0,"ss":36.0,"used":false}]}
$GNGSA,A,3,01,03,04,09,17,21,22,31,,,,,1.6,0.9,1.3,1*35
{"class":"TPV","mode":3,"time":"2020-11-30T08:04:00.000Z","ept":0.005,"lat":50.040892117,"lon":19.980529900,"altHAE":241.7328,"altMSL":202.1000,"alt":202.1000,"epx":7.003,"epy":9.799,"epv":26.680,"track":16.6000,"magtrack":22.0919,"magvar":5.5,"speed":0.000,"climb":0.000,"eps":19.60,"epc":53.36,"geoidSep":39.633,"eph":17.100,"sep":26.805}
$GNGSA,A,3,68,70,79,84,,,,,,,,,1.6,0.9,1.3,2*35
{"class":"TPV","mode":3,"time":"2020-11-30T08:04:00.000Z","ept":0.005,"lat":50.040892117,"lon":19.980529900,"altHAE":241.7328,"altMSL":202.1000,"alt":202.1000,"epx":7.003,"epy":9.799,"epv":26.680,"track":16.6000,"magtrack":22.0919,"magvar":5.5,"speed":0.000,"climb":0.000,"eps":19.60,"epc":53.36,"geoidSep":39.633,"eph":17.100,"sep":26.805}
{"class":"SKY","gdop":1.63,"hdop":0.90,"pdop":1.60,"tdop":0.81,"xdop":0.47,"ydop":0.65,"vdop":1.30}
$GNGSA,A,3,103,132,,,,,,,,,,,1.6,0.9,1.3,3*3D
{"class":"TPV","mode":3,"time":"2020-11-30T08:04:00.000Z","ept":0.005,"lat":50.040892117,"lon":19.980529900,"altHAE":241.7328,"altMSL":202.1000,"alt":202.1000,"epx":7.003,"epy":9.799,"epv":26.680,"track":16.6000,"magtrack":22.0919,"magvar":5.5,"speed":0.000,"climb":0.000,"eps":19.60,"epc":53.36,"geoidSep":39.633,"eph":17.100,"sep":26.805}
{"class":"SKY","gdop":1.63,"hdop":0.90,"pdop":1.60,"tdop":0.81,"xdop":0.47,"ydop":0.65,"vdop":1.30}
$GNGSA,A,3,,,,,,,,,,,,,1.6,0.9,1.3,4*38
{"class":"TPV","mode":3,"time":"2020-11-30T08:04:00.000Z","ept":0.005,"lat":50.040892117,"lon":19.980529900,"altHAE":241.7328,"altMSL":202.1000,"alt":202.1000,"epx":7.003,"epy":9.799,"epv":26.680,"track":16.6000,"magtrack":22.0919,"magvar":5.5,"speed":0.000,"climb":0.000,"eps":19.60,"epc":53.36,"geoidSep":39.633,"eph":17.100,"sep":26.805}
{"class":"SKY","gdop":1.63,"hdop":0.90,"pdop":1.60,"tdop":0.81,"xdop":0.47,"ydop":0.65,"vdop":1.30}
$GNGSA,A,3,,,,,,,,,,,,,1.6,0.9,1.3,5*39
{"class":"TPV","mode":3,"time":"2020-11-30T08:04:00.000Z","ept":0.005,"lat":50.040892117,"lon":19.980529900,"altHAE":241.7328,"altMSL":202.1000,"alt":202.1000,"epx":7.003,"epy":9.799,"epv":26.680,"track":16.6000,"magtrack":22.0919,"magvar":5.5,"speed":0.000,"climb":0.000,"eps":19.60,"epc":53.36,"geoidSep":39.633,"eph":17.100,"sep":26.805}
{"class":"SKY","gdop":1.63,"hdop":0.90,"pdop":1.60,"tdop":0.81,"xdop":0.47,"ydop":0.65,"vdop":1.30}
$GNGSA,A,3,,,,,,,,,,,,,1.6,0.9,1.3,6*3A
{"class":"TPV","mode":3,"time":"2020-11-30T08:04:00.000Z","ept":0.005,"lat":50.040892117,"lon":19.980529900,"altHAE":241.7328,"altMSL":202.1000,"alt":202.1000,"epx":7.003,"epy":9.799,"epv":26.680,"track":16.6000,"magtrack":22.0919,"magvar":5.5,"speed":0.000,"climb":0.000,"eps":19.60,"epc":53.36,"geoidSep":39.633,"eph":17.100,"sep":26.805}
{"class":"SKY","gdop":1.63,"hdop":0.90,"pdop":1.60,"tdop":0.81,"xdop":0.47,"ydop":0.65,"vdop":1.30}
$GNVTG,16.6,T,,M,0.0,N,0.0,K,A*22
{"class":"TPV","mode":3,"time":"2020-11-30T08:04:00.000Z","ept":0.005,"lat":50.040892117,"lon":19.980529900,"altHAE":241.7328,"altMSL":202.1000,"alt":202.1000,"epx":7.003,"epy":9.799,"epv":26.680,"track":16.6000,"magtrack":22.0919,"magvar":5.5,"speed":0.000,"climb":0.000,"eps":19.60,"epc":53.36,"geoidSep":39.633,"eph":17.100,"sep":26.805}
$GNRMC,080401.00,A,5002.453527,N,01958.831794,E,0.0,16.6,301120,,,A,V*07
$GNGGA,080401.00,5002.453527,N,01958.831794,E,1,14,0.9,202.1,M,,M,,*6C
{"class":"SKY","hdop":0.90}
$GNGLL,5002.453527,N,01958.831794,E,080401.00,A,A*7A
{"class":"TPV","mode":3,"time":"2020-11-30T08:04:01.000Z","ept":0.005,"lat":50.040892117,"lon":19.980529900,"altHAE":241.7328,"altMSL":202.1000,"alt":202.1000,"track":16.6000,"magtrack":22.0919,"magvar":5.5,"speed":0.000,"climb":0.000,"geoidSep":39.633,"eph":17.100}
$GPGSV,4,1,12,01,38,160,35,03,80,057,29,04,65,211,45,09,26,228,36,1*6F
$GPGSV,4,2,12,17,30,269,29,19,,,13,21,19,157,39,22,58,098,35,1*50
$GPGSV,4,3,12,31,29,056,17,1*5C
$GPGSV,4,4,12,01,38,160,38,03,80,057,20,09,26,228,40,8*52
$GLGSV,2,1,05,70,31,264,38,79,13,116,37,84,48,209,33,85,,,12,1*4B
$GLGSV,2,2,05,68,26,060,19,1*49
{"class":"TPV","mode":3,"time":"2020-11-30T08:04:01.000Z","ept":0.005,"lat":50.040892117,"lon":19.980529900,"altHAE":241.7328,"altMSL":202.1000,"alt":202.1000,"epx":6.975,"epy":9.814,"epv":26.656,"track":16.6000,"magtrack":22.0919,"magvar":5.5,"speed":0.000,"climb":0.000,"eps":19.61,"epc":53.34,"geoidSep":39.633,"eph":17.100,"sep":26.786}
{"class":"SKY","gdop":1.62,"hdop":0.90,"pdop":1.41,"tdop":0.81,"xdop":0.47,"ydop":0.65,"vdop":1.16,"nSat":17,"uSat":15,"satellites":[{"PRN":1,"gnssid":0,"svid":1,"az":160.0,"el":38.0,"ss":35.0,"used":true},{"PRN":3,"gnssid":0,"svid":3,"az":57.0,"el":80.0,"ss":29.0,"used":true},{"PRN":4,"gnssid":0,"svid":4,"az":211.0,"el":65.0,"ss":45.0,"used":true},{"PRN":9,"gnssid":0,"svid":9,"az":228.0,"el":26.0,"ss":36.0,"used":true},{"PRN":17,"gnssid":0,"svid":17,"az":269.0,"el":30.0,"ss":29.0,"used":true},{"PRN":19,"gnssid":0,"svid":19,"az":0.0,"el":0.0,"ss":13.0,"used":false},{"PRN":21,"gnssid":0,"svid":21,"az":157.0,"el":19.0,"ss":39.0,"used":true},{"PRN":22,"gnssid":0,"svid":22,"az":98.0,"el":58.0,"ss":35.0,"used":true},{"PRN":31,"gnssid":0,"svid":31,"az":56.0,"el":29.0,"ss":17.0,"used":true},{"PRN":1,"gnssid":0,"svid":1,"az":160.0,"el":38.0,"ss":38.0,"used":true},{"PRN":3,"gnssid":0,"svid":3,"az":57.0,"el":80.0,"ss":20.0,"used":true},{"PRN":9,"gnssid":0,"svid":9,"az":228.0,"el":26.0,"ss":40.0,"used":true},{"PRN":70,"gnssid":6,"svid":6,"az":264.0,"el":31.0,"ss":38.0,"used":true},{"PRN":79,"gnssid":6,"svid":15,"az":116.0,"el":13.0,"ss":37.0,"used":true},{"PRN":84,"gnssid":6,"svid":20,"az":209.0,"el":48.0,"ss":33.0,"used":true},{"PRN":85,"gnssid":6,"svid":21,"az":0.0,"el":0.0,"ss":12.0,"used":false},{"PRN":68,"gnssid":6,"svid":4,"az":60.0,"el":26.0,"ss":19.0,"used":true}]}
$GAGSV,2,1,04,103,35,240,43,136,20,167,40,6*72
$GAGSV,2,2,04,103,35,240,39,136,20,167,36,1*7A
{"class":"TPV","mode":3,"time":"2020-11-30T08:04:01.000Z","ept":0.005,"lat":50.040892117,"lon":19.980529900,"altHAE":241.7328,"altMSL":202.1000,"alt":202.1000,"epx":6.975,"epy":9.814,"epv":26.656,"track":16.6000,"magtrack":22.0919,"magvar":5.5,"speed":0.000,"climb":0.000,"eps":19.61,"epc":53.34,"geoidSep":39.633,"eph":17.100,"sep":26.786}
{"class":"SKY","gdop":1.62,"hdop":0.90,"pdop":1.41,"tdop":0.81,"xdop":0.47,"ydop":0.65,"vdop":1.16,"nSat":21,"uSat":17,"satellites":[{"PRN":1,"gnssid":0,"svid":1,"az":160.0,"el":38.0,"ss":35.0,"used":true},{"PRN":3,"gnssid":0,"svid":3,"az":57.0,"el":80.0,"ss":29.0,"used":true},{"PRN":4,"gnssid":0,"svid":4,"az":211.0,"el":65.0,"ss":45.0,"used":true},{"PRN":9,"gnssid":0,"svid":9,"az":228.0,"el":26.0,"ss":36.0,"used":true},{"PRN":17,"gnssid":0,"svid":17,"az":269.0,"el":30.0,"ss":29.0,"used":true},{"PRN":19,"gnssid":0,"svid":19,"az":0.0,"el":0.0,"ss":13.0,"used":false},{"PRN":21,"gnssid":0,"svid":21,"az":157.0,"el":19.0,"ss":39.0,"used":true},{"PRN":22,"gnssid":0,"svid":22,"az":98.0,"el":58.0,"ss":35.0,"used":true},{"PRN":31,"gnssid":0,"svid":31,"az":56.0,"el":29.0,"ss":17.0,"used":true},{"PRN":1,"gnssid":0,"svid":1,"az":160.0,"el":38.0,"ss":38.0,"used":true},{"PRN":3,"gnssid":0,"svid":3,"az":57.0,"el":80.0,"ss":20.0,"used":true},{"PRN":9,"gnssid":0,"svid":9,"az":228.0,"el":26.0,"ss":40.0,"used":true},{"PRN":70,"gnssid":6,"svid":6,"az":264.0,"el":31.0,"ss":38.0,"used":true},{"PRN":79,"gnssid":6,"svid":15,"az":116.0,"el":13.0,"ss":37.0,"used":true},{"PRN":84,"gnssid":6,"svid":20,"az":209.0,"el":48.0,"ss":33.0,"used":true},{"PRN":85,"gnssid":6,"svid":21,"az":0.0,"el":0.0,"ss":12.0,"used":false},{"PRN":68,"gnssid":6,"svid":4,"az":60.0,"el":26.0,"ss":19.0,"used":true},{"PRN":303,"gnssid":2,"svid":3,"sigid":3,"az":240.0,"el":35.0,"ss":43.0,"used":true},{"PRN":336,"gnssid":2,"svid":36,"sigid":3,"az":167.0,"el":20.0,"ss":40.0,"used":false},{"PRN":303,"gnssid":2,"svid":3,"az":240.0,"el":35.0,"ss":39.0,"used":true},{"PRN":336,"gnssid":2,"svid":36,"az":167.0,"el":20.0,"ss":36.0,"used":false}]}
$GNGSA,A,3,01,03,04,09,17,21,22,31,,,,,1.6,0.9,1.3,1*35
{"class":"TPV","mode":3,"time":"2020-11-30T08:04:01.000Z","ept":0.005,"lat":50.040892117,"lon":19.980529900,"altHAE":241.7328,"altMSL":202.1000,"alt":202.1000,"epx":6.975,"epy":9.814,"epv":26.656,"track":16.6000,"magtrack":22.0919,"magvar":5.5,"speed":0.000,"climb":0.000,"eps":19.61,"epc":53.34,"geoidSep":39.633,"eph":17.100,"sep":26.786}
$GNGSA,A,3,68,70,79,84,,,,,,,,,1.6,0.9,1.3,2*35
{"class":"TPV","mode":3,"time":"2020-11-30T08:04:01.000Z","ept":0.005,"lat":50.040892117,"lon":19.980529900,"altHAE":241.7328,"altMSL":202.1000,"alt":202.1000,"epx":6.975,"epy":9.814,"epv":26.656,"track":16.6000,"magtrack":22.0919,"magvar":5.5,"speed":0.000,"climb":0.000,"eps":19.61,"epc":53.34,"geoidSep":39.633,"eph":17.100,"sep":26.786}
{"class":"SKY","gdop":1.62,"hdop":0.90,"pdop":1.60,"tdop":0.81,"xdop":0.47,"ydop":0.65,"vdop":1.30}
$GNGSA,A,3,103,132,,,,,,,,,,,1.6,0.9,1.3,3*3D
{"class":"TPV","mode":3,"time":"2020-11-30T08:04:01.000Z","ept":0.005,"lat":50.040892117,"lon":19.980529900,"altHAE":241.7328,"altMSL":202.1000,"alt":202.1000,"epx":6.975,"epy":9.814,"epv":26.656,"track":16.6000,"magtrack":22.0919,"magvar":5.5,"speed":0.000,"climb":0.000,"eps":19.61,"epc":53.34,"geoidSep":39.633,"eph":17.100,"sep":26.786}
{"class":"SKY","gdop":1.62,"hdop":0.90,"pdop":1.60,"tdop":0.81,"xdop":0.47,"ydop":0.65,"vdop":1.30}
$GNGSA,A,3,,,,,,,,,,,,,1.6,0.9,1.3,4*38
{"class":"TPV","mode":3,"time":"2020-11-30T08:04:01.000Z","ept":0.005,"lat":50.040892117,"lon":19.980529900,"altHAE":241.7328,"altMSL":202.1000,"alt":202.1000,"epx":6.975,"epy":9.814,"epv":26.656,"track":16.6000,"magtrack":22.0919,"magvar":5.5,"speed":0.000,"climb":0.000,"eps":19.61,"epc":53.34,"geoidSep":39.633,"eph":17.100,"sep":26.786}
{"class":"SKY","gdop":1.62,"hdop":0.90,"pdop":1.60,"tdop":0.81,"xdop":0.47,"ydop":0.65,"vdop":1.30}
$GNGSA,A,3,,,,,,,,,,,,,1.6,0.9,1.3,5*39
{"class":"TPV","mode":3,"time":"2020-11-30T08:04:01.000Z","ept":0.005,"lat":50.040892117,"lon":19.980529900,"altHAE":241.7328,"altMSL":202.1000,"alt":202.1000,"epx":6.975,"epy":9.814,"epv":26.656,"track":16.6000,"magtrack":22.0919,"magvar":5.5,"speed":0.000,"climb":0.000,"eps":19.61,"epc":53.34,"geoidSep":39.633,"eph":17.100,"sep":26.786}
{"class":"SKY","gdop":1.62,"hdop":0.90,"pdop":1.60,"tdop":0.81,"xdop":0.47,"ydop":0.65,"vdop":1.30}
$GNGSA,A,3,,,,,,,,,,,,,1.6,0.9,1.3,6*3A
{"class":"TPV","mode":3,"time":"2020-11-30T08:04:01.000Z","ept":0.005,"lat":50.040892117,"lon":19.980529900,"altHAE":241.7328,"altMSL":202.1000,"alt":202.1000,"epx":6.975,"epy":9.814,"epv":26.656,"track":16.6000,"magtrack":22.0919,"magvar":5.5,"speed":0.000,"climb":0.000,"eps":19.61,"epc":53.34,"geoidSep":39.633,"eph":17.100,"sep":26.786}
{"class":"SKY","gdop":1.62,"hdop":0.90,"pdop":1.60,"tdop":0.81,"xdop":0.47,"ydop":0.65,"vdop":1.30}
$GNVTG,16.6,T,,M,0.0,N,0.0,K,A*22
{"class":"TPV","mode":3,"time":"2020-11-30T08:04:01.000Z","ept":0.005,"lat":50.040892117,"lon":19.980529900,"altHAE":241.7328,"altMSL":202.1000,"alt":202.1000,"epx":6.975,"epy":9.814,"epv":26.656,"track":16.6000,"magtrack":22.0919,"magvar":5.5,"speed":0.000,"climb":0.000,"eps":19.61,"epc":53.34,"geoidSep":39.633,"eph":17.100,"sep":26.786}
$GNRMC,080402.00,A,5002.453527,N,01958.831794,E,0.0,16.6,301120,,,A,V*04
$GNGGA,080402.00,5002.453527,N,01958.831794,E,1,13,0.9,202.1,M,,M,,*68
{"class":"SKY","hdop":0.90}
$GNGLL,5002.453527,N,01958.831794,E,080402.00,A,A*79
{"class":"TPV","mode":3,"time":"2020-11-30T08:04:02.000Z","ept":0.005,"lat":50.040892117,"lon":19.980529900,"altHAE":241.7328,"altMSL":202.1000,"alt":202.1000,"track":16.6000,"magtrack":22.0919,"magvar":5.5,"speed":0.000,"climb":0.000,"geoidSep":39.633,"eph":17.100}
$GPGSV,4,1,12,01,38,160,36,03,80,057,29,04,65,211,45,09,26,228,36,1*6C
$GPGSV,4,2,12,17,30,269,29,19,,,14,21,19,157,39,22,58,098,35,1*57
$GPGSV,4,3,12,31,29,056,15,1*5E
$GPGSV,4,4,12,01,38,160,38,03,80,057,20,09,26,228,40,8*52
$GLGSV,2,1,05,70,31,264,38,79,13,116,37,84,48,209,33,85,,,11,1*48
$GLGSV,2,2,05,68,26,060,20,1*43
{"class":"TPV","mode":3,"time":"2020-11-30T08:04:02.000Z","ept":0.005,"lat":50.040892117,"lon":19.980529900,"altHAE":241.7328,"altMSL":202.1000,"alt":202.1000,"epx":6.975,"epy":9.814,"epv":26.656,"track":16.6000,"magtrack":22.0919,"magvar":5.5,"speed":0.000,"climb":0.000,"eps":19.63,"epc":53.31,"geoidSep":39.633,"eph":17.100,"sep":26.786}
{"class":"SKY","gdop":1.62,"hdop":0.90,"pdop":1.41,"tdop":0.81,"xdop":0.47,"ydop":0.65,"vdop":1.16,"nSat":17,"uSat":15,"satellites":[{"PRN":1,"gnssid":0,"svid":1,"az":160.0,"el":38.0,"ss":36.0,"used":true},{"PRN":3,"gnssid":0,"svid":3,"az":57.0,"el":80.0,"ss":29.0,"used":true},{"PRN":4,"gnssid":0,"svid":4,"az":211.0,"el":65.0,"ss":45.0,"used":true},{"PRN":9,"gnssid":0,"svid":9,"az":228.0,"el":26.0,"ss":36.0,"used":true},{"PRN":17,"gnssid":0,"svid":17,"az":269.0,"el":30.0,"ss":29.0,"used":true},{"PRN":19,"gnssid":0,"svid":19,"az":0.0,"el":0.0,"ss":14.0,"used":false},{"PRN":21,"gnssid":0,"svid":21,"az":157.0,"el":19.0,"ss":39.0,"used":true},{"PRN":22,"gnssid":0,"svid":22,"az":98.0,"el":58.0,"ss":35.0,"used":true},{"PRN":31,"gnssid":0,"svid":31,"az":56.0,"el":29.0,"ss":15.0,"used":true},{"PRN":1,"gnssid":0,"svid":1,"az":160.0,"el":38.0,"ss":38.0,"used":true},{"PRN":3,"gnssid":0,"svid":3,"az":57.0,"el":80.0,"ss":20.0,"used":true},{"PRN":9,"gnssid":0,"svid":9,"az":228.0,"el":26.0,"ss":40.0,"used":true},{"PRN":70,"gnssid":6,"svid":6,"az":264.0,"el":31.0,"ss":38.0,"used":true},{"PRN":79,"gnssid":6,"svid":15,"az":116.0,"el":13.0,"ss":37.0,"used":true},{"PRN":84,"gnssid":6,"svid":20,"az":209.0,"el":48.0,"ss":33.0,"used":true},{"PRN":85,"gnssid":6,"svid":21,"az":0.0,"el":0.0,"ss":11.0,"used":false},{"PRN":68,"gnssid":6,"svid":4,"az":60.0,"el":26.0,"ss":20.0,"used":true}]}
$GAGSV,2,1,04,103,35,240,43,136,20,167,40,6*72
$GAGSV,2,2,04,103,35,240,39,136,20,167,36,1*7A
{"class":"TPV","mode":3,"time":"2020-11-30T08:04:02.000Z","ept":0.005,"lat":50.040892117,"lon":19.980529900,"altHAE":241.7328,"altMSL":202.1000,"alt":202.1000,"epx":6.975,"epy":9.814,"epv":26.656,"track":16.6000,"magtrack":22.0919,"magvar":5.5,"speed":0.000,"climb":0.000,"eps":19.63,"epc":53.31,"geoidSep":39.633,"eph":17.100,"sep":26.786}
{"class":"SKY","gdop":1.62,"hdop":0.90,"pdop":1.41,"tdop":0.81,"xdop":0.47,"ydop":0.65,"vdop":1.16,"nSat":21,"uSat":17,"satellites":[{"PRN":1,"gnssid":0,"svid":1,"az":160.0,"el":38.0,"ss":36.0,"used":true},{"PRN":3,"gnssid":0,"svid":3,"az":57.0,"el":80.0,"ss":29.0,"used":true},{"PRN":4,"gnssid":0,"svid":4,"az":211.0,"el":65.0,"ss":45.0,"used":true},{"PRN":9,"gnssid":0,"svid":9,"az":228.0,"el":26.0,"ss":36.0,"used":true},{"PRN":17,"gnssid":0,"svid":17,"az":269.0,"el":30.0,"ss":29.0,"used":true},{"PRN":19,"gnssid":0,"svid":19,"az":0.0,"el":0.0,"ss":14.0,"used":false},{"PRN":21,"gnssid":0,"svid":21,"az":157.0,"el":19.0,"ss":39.0,"used":true},{"PRN":22,"gnssid":0,"svid":22,"az":98.0,"el":58.0,"ss":35.0,"used":true},{"PRN":31,"gnssid":0,"svid":31,"az":56.0,"el":29.0,"ss":15.0,"used":true},{"PRN":1,"gnssid":0,"svid":1,"az":160.0,"el":38.0,"ss":38.0,"used":true},{"PRN":3,"gnssid":0,"svid":3,"az":57.0,"el":80.0,"ss":20.0,"used":true},{"PRN":9,"gnssid":0,"svid":9,"az":228.0,"el":26.0,"ss":40.0,"used":true},{"PRN":70,"gnssid":6,"svid":6,"az":264.0,"el":31.0,"ss":38.0,"used":true},{"PRN":79,"gnssid":6,"svid":15,"az":116.0,"el":13.0,"ss":37.0,"used":true},{"PRN":84,"gnssid":6,"svid":20,"az":209.0,"el":48.0,"ss":33.0,"used":true},{"PRN":85,"gnssid":6,"svid":21,"az":0.0,"el":0.0,"ss":11.0,"used":false},{"PRN":68,"gnssid":6,"svid":4,"az":60.0,"el":26.0,"ss":20.0,"used":true},{"PRN":303,"gnssid":2,"svid":3,"sigid":3,"az":240.0,"el":35.0,"ss":43.0,"used":true},{"PRN":336,"gnssid":2,"svid":36,"sigid":3,"az":167.0,"el":20.0,"ss":40.0,"used":false},{"PRN":303,"gnssid":2,"svid":3,"az":240.0,"el":35.0,"ss":39.0,"used":true},{"PRN":336,"gnssid":2,"svid":36,"az":167.0,"el":20.0,"ss":36.0,"used":false}]}
$GNGSA,A,3,01,03,04,09,17,21,22,,,,,,1.6,0.9,1.3,1*37
{"class":"TPV","mode":3,"time":"2020-11-30T08:04:02.000Z","ept":0.005,"lat":50.040892117,"lon":19.980529900,"altHAE":241.7328,"altMSL":202.1000,"alt":202.1000,"epx":6.975,"epy":9.814,"epv":26.656,"track":16.6000,"magtrack":22.0919,"magvar":5.5,"speed":0.000,"climb":0.000,"eps":19.63,"epc":53.31,"geoidSep":39.633,"eph":17.100,"sep":26.786}
$GNGSA,A,3,68,70,79,84,,,,,,,,,1.6,0.9,1.3,2*35
{"class":"TPV","mode":3,"time":"2020-11-30T08:04:02.000Z","ept":0.005,"lat":50.040892117,"lon":19.980529900,"altHAE":241.7328,"altMSL":202.1000,"alt":202.1000,"epx":6.975,"epy":9.814,"epv":26.656,"track":16.6000,"magtrack":22.0919,"magvar":5.5,"speed":0.000,"climb":0.000,"eps":19.63,"epc":53.31,"geoidSep":39.633,"eph":17.100,"sep":26.786}
{"class":"SKY","gdop":1.62,"hdop":0.90,"pdop":1.60,"tdop":0.81,"xdop":0.47,"ydop":0.65,"vdop":1.30}
$GNGSA,A,3,103,132,,,,,,,,,,,1.6,0.9,1.3,3*3D
{"class":"TPV","mode":3,"time":"2020-11-30T08:04:02.000Z","ept":0.005,"lat":50.040892117,"lon":19.980529900,"altHAE":241.7328,"altMSL":202.1000,"alt":202.1000,"epx":6.975,"epy":9.814,"epv":26.656,"track":16.6000,"magtrack":22.0919,"magvar":5.5,"speed":0.000,"climb":0.000,"eps":19.63,"epc":53.31,"geoidSep":39.633,"eph":17.100,"sep":26.786}
{"class":"SKY","gdop":1.62,"hdop":0.90,"pdop":1.60,"tdop":0.81,"xdop":0.47,"ydop":0.65,"vdop":1.30}
$GNGSA,A,3,,,,,,,,,,,,,1.6,0.9,1.3,4*38
{"class":"TPV","mode":3,"time":"2020-11-30T08:04:02.000Z","ept":0.005,"lat":50.040892117,"lon":19.980529900,"altHAE":241.7328,"altMSL":202.1000,"alt":202.1000,"epx":6.975,"epy":9.814,"epv":26.656,"track":16.6000,"magtrack":22.0919,"magvar":5.5,"speed":0.000,"climb":0.000,"eps":19.63,"epc":53.31,"geoidSep":39.633,"eph":17.100,"sep":26.786}
{"class":"SKY","gdop":1.62,"hdop":0.90,"pdop":1.60,"tdop":0.81,"xdop":0.47,"ydop":0.65,"vdop":1.30}
$GNGSA,A,3,,,,,,,,,,,,,1.6,0.9,1.3,5*39
{"class":"TPV","mode":3,"time":"2020-11-30T08:04:02.000Z","ept":0.005,"lat":50.040892117,"lon":19.980529900,"altHAE":241.7328,"altMSL":202.1000,"alt":202.1000,"epx":6.975,"epy":9.814,"epv":26.656,"track":16.6000,"magtrack":22.0919,"magvar":5.5,"speed":0.000,"climb":0.000,"eps":19.63,"epc":53.31,"geoidSep":39.633,"eph":17.100,"sep":26.786}
{"class":"SKY","gdop":1.62,"hdop":0.90,"pdop":1.60,"tdop":0.81,"xdop":0.47,"ydop":0.65,"vdop":1.30}
$GNGSA,A,3,,,,,,,,,,,,,1.6,0.9,1.3,6*3A
{"class":"TPV","mode":3,"time":"2020-11-30T08:04:02.000Z","ept":0.005,"lat":50.040892117,"lon":19.980529900,"altHAE":241.7328,"altMSL":202.1000,"alt":202.1000,"epx":6.975,"epy":9.814,"epv":26.656,"track":16.6000,"magtrack":22.0919,"magvar":5.5,"speed":0.000,"climb":0.000,"eps":19.63,"epc":53.31,"geoidSep":39.633,"eph":17.100,"sep":26.786}
{"class":"SKY","gdop":1.62,"hdop":0.90,"pdop":1.60,"tdop":0.81,"xdop":0.47,"ydop":0.65,"vdop":1.30}
$GNVTG,16.6,T,,M,0.0,N,0.0,K,A*22
{"class":"TPV","mode":3,"time":"2020-11-30T08:04:02.000Z","ept":0.005,"lat":50.040892117,"lon":19.980529900,"altHAE":241.7328,"altMSL":202.1000,"alt":202.1000,"epx":6.975,"epy":9.814,"epv":26.656,"track":16.6000,"magtrack":22.0919,"magvar":5.5,"speed":0.000,"climb":0.000,"eps":19.63,"epc":53.31,"geoidSep":39.633,"eph":17.100,"sep":26.786}
$GNRMC,080403.00,A,5002.453527,N,01958.831794,E,0.0,16.6,301120,,,A,V*05
$GNGGA,080403.00,5002.453527,N,01958.831794,E,1,14,0.9,202.1,M,,M,,*6E
{"class":"SKY","hdop":0.90}
$GNGLL,5002.453527,N,01958.831794,E,080403.00,A,A*78
{"class":"TPV","mode":3,"time":"2020-11-30T08:04:03.000Z","ept":0.005,"lat":50.040892117,"lon":19.980529900,"altHAE":241.7328,"altMSL":202.1000,"alt":202.1000,"track":16.6000,"magtrack":22.0919,"magvar":5.5,"speed":0.000,"climb":0.000,"geoidSep":39.633,"eph":17.100}
$GPGSV,4,1,12,01,38,160,36,03,80,057,29,04,65,211,45,09,26,228,37,1*6D
$GPGSV,4,2,12,17,30,269,30,19,,,14,21,19,157,39,22,58,098,35,1*5F
$GPGSV,4,3,12,31,29,056,15,1*5E
$GPGSV,4,4,12,01,38,160,38,03,80,057,19,09,26,228,40,8*58
$GLGSV,2,1,05,70,31,264,38,79,13,116,37,84,48,209,33,85,,,11,1*48
$GLGSV,2,2,05,68,26,060,20,1*43
{"class":"TPV","mode":3,"time":"2020-11-30T08:04:03.000Z","ept":0.005,"lat":50.040892117,"lon":19.980529900,"altHAE":241.7328,"altMSL":202.1000,"alt":202.1000,"epx":7.137,"epy":11.234,"epv":27.667,"track":16.6000,"magtrack":22.0919,"magvar":5.5,"speed":0.000,"climb":0.000,"eps":21.05,"epc":54.32,"geoidSep":39.633,"eph":17.100,"sep":28.401}
{"class":"SKY","gdop":1.74,"hdop":0.90,"pdop":1.49,"tdop":0.89,"xdop":0.48,"ydop":0.75,"vdop":1.20,"nSat":17,"uSat":14,"satellites":[{"PRN":1,"gnssid":0,"svid":1,"az":160.0,"el":38.0,"ss":36.0,"used":true},{"PRN":3,"gnssid":0,"svid":3,"az":57.0,"el":80.0,"ss":29.0,"used":true},{"PRN":4,"gnssid":0,"svid":4,"az":211.0,"el":65.0,"ss":45.0,"used":true},{"PRN":9,"gnssid":0,"svid":9,"az":228.0,"el":26.0,"ss":37.0,"used":true},{"PRN":17,"gnssid":0,"svid":17,"az":269.0,"el":30.0,"ss":30.0,"used":true},{"PRN":19,"gnssid":0,"svid":19,"az":0.0,"el":0.0,"ss":14.0,"used":false},{"PRN":21,"gnssid":0,"svid":21,"az":157.0,"el":19.0,"ss":39.0,"used":true},{"PRN":22,"gnssid":0,"svid":22,"az":98.0,"el":58.0,"ss":35.0,"used":true},{"PRN":31,"gnssid":0,"svid":31,"az":56.0,"el":29.0,"ss":15.0,"used":false},{"PRN":1,"gnssid":0,"svid":1,"az":160.0,"el":38.0,"ss":38.0,"used":true},{"PRN":3,"gnssid":0,"svid":3,"az":57.0,"el":80.0,"ss":19.0,"used":true},{"PRN":9,"gnssid":0,"svid":9,"az":228.0,"el":26.0,"ss":40.0,"used":true},{"PRN":70,"gnssid":6,"svid":6,"az":264.0,"el":31.0,"ss":38.0,"used":true},{"PRN":79,"gnssid":6,"svid":15,"az":116.0,"el":13.0,"ss":37.0,"used":true},{"PRN":84,"gnssid":6,"svid":20,"az":209.0,"el":48.0,"ss":33.0,"used":true},{"PRN":85,"gnssid":6,"svid":21,"az":0.0,"el":0.0,"ss":11.0,"used":false},{"PRN":68,"gnssid":6,"svid":4,"az":60.0,"el":26.0,"ss":20.0,"used":true}]}
$GAGSV,2,1,04,103,35,240,43,136,20,167,40,6*72
$GAGSV,2,2,04,103,35,240,39,136,20,167,36,1*7A
{"class":"TPV","mode":3,"time":"2020-11-30T08:04:03.000Z","ept":0.005,"lat":50.040892117,"lon":19.980529900,"altHAE":241.7328,"altMSL":202.1000,"alt":202.1000,"epx":7.137,"epy":11.234,"epv":27.667,"track":16.6000,"magtrack":22.0919,"magvar":5.5,"speed":0.000,"climb":0.000,"eps":21.05,"epc":54.32,"geoidSep":39.633,"eph":17.100,"sep":28.401}
{"class":"SKY","gdop":1.74,"hdop":0.90,"pdop":1.49,"tdop":0.89,"xdop":0.48,"ydop":0.75,"vdop":1.20,"nSat":21,"uSat":16,"satellites":[{"PRN":1,"gnssid":0,"svid":1,"az":160.0,"el":38.0,"ss":36.0,"used":true},{"PRN":3,"gnssid":0,"svid":3,"az":57.0,"el":80.0,"ss":29.0,"used":true},{"PRN":4,"gnssid":0,"svid":4,"az":211.0,"el":65.0,"ss":45.0,"used":true},{"PRN":9,"gnssid":0,"svid":9,"az":228.0,"el":26.0,"ss":37.0,"used":true},{"PRN":17,"gnssid":0,"svid":17,"az":269.0,"el":30.0,"ss":30.0,"used":true},{"PRN":19,"gnssid":0,"svid":19,"az":0.0,"el":0.0,"ss":14.0,"used":false},{"PRN":21,"gnssid":0,"svid":21,"az":157.0,"el":19.0,"ss":39.0,"used":true},{"PRN":22,"gnssid":0,"svid":22,"az":98.0,"el":58.0,"ss":35.0,"used":true},{"PRN":31,"gnssid":0,"svid":31,"az":56.0,"el":29.0,"ss":15.0,"used":false},{"PRN":1,"gnssid":0,"svid":1,"az":160.0,"el":38.0,"ss":38.0,"used":true},{"PRN":3,"gnssid":0,"svid":3,"az":57.0,"el":80.0,"ss":19.0,"used":true},{"PRN":9,"gnssid":0,"svid":9,"az":228.0,"el":26.0,"ss":40.0,"used":true},{"PRN":70,"gnssid":6,"svid":6,"az":264.0,"el":31.0,"ss":38.0,"used":true},{"PRN":79,"gnssid":6,"svid":15,"az":116.0,"el":13.0,"ss":37.0,"used":true},{"PRN":84,"gnssid":6,"svid":20,"az":209.0,"el":48.0,"ss":33.0,"used":true},{"PRN":85,"gnssid":6,"svid":21,"az":0.0,"el":0.0,"ss":11.0,"used":false},{"PRN":68,"gnssid":6,"svid":4,"az":60.0,"el":26.0,"ss":20.0,"used":true},{"PRN":303,"gnssid":2,"svid":3,"sigid":3,"az":240.0,"el":35.0,"ss":43.0,"used":true},{"PRN":336,"gnssid":2,"svid":36,"sigid":3,"az":167.0,"el":20.0,"ss":40.0,"used":false},{"PRN":303,"gnssid":2,"svid":3,"az":240.0,"el":35.0,"ss":39.0,"used":true},{"PRN":336,"gnssid":2,"svid":36,"az":167.0,"el":20.0,"ss":36.0,"used":false}]}
$GNGSA,A,3,01,03,04,09,17,21,22,31,,,,,1.6,0.9,1.3,1*35
{"class":"TPV","mode":3,"time":"2020-11-30T08:04:03.000Z","ept":0.005,"lat":50.040892117,"lon":19.980529900,"altHAE":241.7328,"altMSL":202.1000,"alt":202.1000,"epx":7.137,"epy":11.234,"epv":27.667,"track":16.6000,"magtrack":22.0919,"magvar":5.5,"speed":0.000,"climb":0.000,"eps":21.05,"epc":54.32,"geoidSep":39.633,"eph":17.100,"sep":28.401}
$GNGSA,A,3,68,70,79,84,,,,,,,,,1.6,0.9,1.3,2*35
{"class":"TPV","mode":3,"time":"2020-11-30T08:04:03.000Z","ept":0.005,"lat":50.040892117,"lon":19.980529900,"altHAE":241.7328,"altMSL":202.1000,"alt":202.1000,"epx":7.137,"epy":11.234,"epv":27.667,"track":16.6000,"magtrack":22.0919,"magvar":5.5,"speed":0.000,"climb":0.000,"eps":21.05,"epc":54.32,"geoidSep":39.633,"eph":17.100,"sep":28.401}
{"class":"SKY","gdop":1.74,"hdop":0.90,"pdop":1.60,"tdop":0.89,"xdop":0.48,"ydop":0.75,"vdop":1.30}
$GNGSA,A,3,103,132,,,,,,,,,,,1.6,0.9,1.3,3*3D
{"class":"TPV","mode":3,"time":"2020-11-30T08:04:03.000Z","ept":0.005,"lat":50.040892117,"lon":19.980529900,"altHAE":241.7328,"altMSL":202.1000,"alt":202.1000,"epx":7.137,"epy":11.234,"epv":27.667,"track":16.6000,"magtrack":22.0919,"magvar":5.5,"speed":0.000,"climb":0.000,"eps":21.05,"epc":54.32,"geoidSep":39.633,"eph":17.100,"sep":28.401}
{"class":"SKY","gdop":1.74,"hdop":0.90,"pdop":1.60,"tdop":0.89,"xdop":0.48,"ydop":0.75,"vdop":1.30}
$GNGSA,A,3,,,,,,,,,,,,,1.6,0.9,1.3,4*38
{"class":"TPV","mode":3,"time":"2020-11-30T08:04:03.000Z","ept":0.005,"lat":50.040892117,"lon":19.980529900,"altHAE":241.7328,"altMSL":202.1000,"alt":202.1000,"epx":7.137,"epy":11.234,"epv":27.667,"track":16.6000,"magtrack":22.0919,"magvar":5.5,"speed":0.000,"climb":0.000,"eps":21.05,"epc":54.32,"geoidSep":39.633,"eph":17.100,"sep":28.401}
{"class":"SKY","gdop":1.74,"hdop":0.90,"pdop":1.60,"tdop":0.89,"xdop":0.48,"ydop":0.75,"vdop":1.30}
$GNGSA,A,3,,,,,,,,,,,,,1.6,0.9,1.3,5*39
{"class":"TPV","mode":3,"time":"2020-11-30T08:04:03.000Z","ept":0.005,"lat":50.040892117,"lon":19.980529900,"altHAE":241.7328,"altMSL":202.1000,"alt":202.1000,"epx":7.137,"epy":11.234,"epv":27.667,"track":16.6000,"magtrack":22.0919,"magvar":5.5,"speed":0.000,"climb":0.000,"eps":21.05,"epc":54.32,"geoidSep":39.633,"eph":17.100,"sep":28.401}
{"class":"SKY","gdop":1.74,"hdop":0.90,"pdop":1.60,"tdop":0.89,"xdop":0.48,"ydop":0.75,"vdop":1.30}
$GNGSA,A,3,,,,,,,,,,,,,1.6,0.9,1.3,6*3A
{"class":"TPV","mode":3,"time":"2020-11-30T08:04:03.000Z","ept":0.005,"lat":50.040892117,"lon":19.980529900,"altHAE":241.7328,"altMSL":202.1000,"alt":202.1000,"epx":7.137,"epy":11.234,"epv":27.667,"track":16.6000,"magtrack":22.0919,"magvar":5.5,"speed":0.000,"climb":0.000,"eps":21.05,"epc":54.32,"geoidSep":39.633,"eph":17.100,"sep":28.401}
{"class":"SKY","gdop":1.74,"hdop":0.90,"pdop":1.60,"tdop":0.89,"xdop":0.48,"ydop":0.75,"vdop":1.30}
$GNVTG,16.6,T,,M,0.0,N,0.0,K,A*22
{"class":"TPV","mode":3,"time":"2020-11-30T08:04:03.000Z","ept":0.005,"lat":50.040892117,"lon":19.980529900,"altHAE":241.7328,"altMSL":202.1000,"alt":202.1000,"epx":7.137,"epy":11.234,"epv":27.667,"track":16.6000,"magtrack":22.0919,"magvar":5.5,"speed":0.000,"climb":0.000,"eps":21.05,"epc":54.32,"geoidSep":39.633,"eph":17.100,"sep":28.401}
$GNRMC,080404.00,A,5002.453527,N,01958.831794,E,0.0,16.6,301120,,,A,V*02
$GNGGA,080404.00,5002.453527,N,01958.831794,E,1,13,0.9,202.1,M,,M,,*6E
{"class":"SKY","hdop":0.90}
$GNGLL,5002.453527,N,01958.831794,E,080404.00,A,A*7F
{"class":"TPV","mode":3,"time":"2020-11-30T08:04:04.000Z","ept":0.005,"lat":50.040892117,"lon":19.980529900,"altHAE":241.7328,"altMSL":202.1000,"alt":202.1000,"track":16.6000,"magtrack":22.0919,"magvar":5.5,"speed":0.000,"climb":0.000,"geoidSep":39.633,"eph":17.100}
$GPGSV,4,1,12,01,38,160,35,03,80,057,30,04,65,211,45,09,27,228,37,1*67
$GPGSV,4,2,12,17,30,269,30,19,,,15,21,19,157,39,22,58,098,35,1*5E
$GPGSV,4,3,12,31,29,056,15,1*5E
$GPGSV,4,4,12,01,38,160,39,03,80,057,19,09,27,228,40,8*58
$GLGSV,2,1,05,70,31,264,38,79,13,116,37,84,48,209,33,85,,,10,1*49
$GLGSV,2,2,05,68,26,060,20,1*43
{"class":"TPV","mode":3,"time":"2020-11-30T08:04:04.000Z","ept":0.005,"lat":50.040892117,"lon":19.980529900,"altHAE":241.7328,"altMSL":202.1000,"alt":202.1000,"epx":6.992,"epy":9.811,"epv":26.821,"track":16.6000,"magtrack":22.0919,"magvar":5.5,"speed":0.000,"climb":0.000,"eps":21.05,"epc":54.49,"geoidSep":39.633,"eph":17.100,"sep":26.903}
{"class":"SKY","gdop":1.63,"hdop":0.90,"pdop":1.42,"tdop":0.81,"xdop":0.47,"ydop":0.65,"vdop":1.17,"nSat":17,"uSat":15,"satellites":[{"PRN":1,"gnssid":0,"svid":1,"az":160.0,"el":38.0,"ss":35.0,"used":true},{"PRN":3,"gnssid":0,"svid":3,"az":57.0,"el":80.0,"ss":30.0,"used":true},{"PRN":4,"gnssid":0,"svid":4,"az":211.0,"el":65.0,"ss":45.0,"used":true},{"PRN":9,"gnssid":0,"svid":9,"az":228.0,"el":27.0,"ss":37.0,"used":true},{"PRN":17,"gnssid":0,"svid":17,"az":269.0,"el":30.0,"ss":30.0,"used":true},{"PRN":19,"gnssid":0,"svid":19,"az":0.0,"el":0.0,"ss":15.0,"used":false},{"PRN":21,"gnssid":0,"svid":21,"az":157.0,"el":19.0,"ss":39.0,"used":true},{"PRN":22,"gnssid":0,"svid":22,"az":98.0,"el":58.0,"ss":35.0,"used":true},{"PRN":31,"gnssid":0,"svid":31,"az":56.0,"el":29.0,"ss":15.0,"used":true},{"PRN":1,"gnssid":0,"svid":1,"az":160.0,"el":38.0,"ss":39.0,"used":true},{"PRN":3,"gnssid":0,"svid":3,"az":57.0,"el":80.0,"ss":19.0,"used":true},{"PRN":9,"gnssid":0,"svid":9,"az":228.0,"el":27.0,"ss":40.0,"used":true},{"PRN":70,"gnssid":6,"svid":6,"az":264.0,"el":31.0,"ss":38.0,"used":true},{"PRN":79,"gnssid":6,"svid":15,"az":116.0,"el":13.0,"ss":37.0,"used":true},{"PRN":84,"gnssid":6,"svid":20,"az":209.0,"el":48.0,"ss":33.0,"used":true},{"PRN":85,"gnssid":6,"svid":21,"az":0.0,"el":0.0,"ss":10.0,"used":false},{"PRN":68,"gnssid":6,"svid":4,"az":60.0,"el":26.0,"ss":20.0,"used":true}]}
$GAGSV,2,1,04,103,35,240,43,136,20,167,40,6*72
$GAGSV,2,2,04,103,35,240,39,136,20,167,36,1*7A
{"class":"TPV","mode":3,"time":"2020-11-30T08:04:04.000Z","ept":0.005,"lat":50.040892117,"lon":19.980529900,"altHAE":241.7328,"altMSL":202.1000,"alt":202.1000,"epx":6.992,"epy":9.811,"epv":26.821,"track":16.6000,"magtrack":22.0919,"magvar":5.5,"speed":0.000,"climb":0.000,"eps":21.05,"epc":54.49,"geoidSep":39.633,"eph":17.100,"sep":26.903}
{"class":"SKY","gdop":1.63,"hdop":0.90,"pdop":1.42,"tdop":0.81,"xdop":0.47,"ydop":0.65,"vdop":1.17,"nSat":21,"uSat":17,"satellites":[{"PRN":1,"gnssid":0,"svid":1,"az":160.0,"el":38.0,"ss":35.0,"used":true},{"PRN":3,"gnssid":0,"svid":3,"az":57.0,"el":80.0,"ss":30.0,"used":true},{"PRN":4,"gnssid":0,"svid":4,"az":211.0,"el":65.0,"ss":45.0,"used":true},{"PRN":9,"gnssid":0,"svid":9,"az":228.0,"el":27.0,"ss":37.0,"used":true},{"PRN":17,"gnssid":0,"svid":17,"az":269.0,"el":30.0,"ss":30.0,"used":true},{"PRN":19,"gnssid":0,"svid":19,"az":0.0,"el":0.0,"ss":15.0,"used":false},{"PRN":21,"gnssid":0,"svid":21,"az":157.0,"el":19.0,"ss":39.0,"used":true},{"PRN":22,"gnssid":0,"svid":22,"az":98.0,"el":58.0,"ss":35.0,"used":true},{"PRN":31,"gnssid":0,"svid":31,"az":56.0,"el":29.0,"ss":15.0,"used":true},{"PRN":1,"gnssid":0,"svid":1,"az":160.0,"el":38.0,"ss":39.0,"used":true},{"PRN":3,"gnssid":0,"svid":3,"az":57.0,"el":80.0,"ss":19.0,"used":true},{"PRN":9,"gnssid":0,"svid":9,"az":228.0,"el":27.0,"ss":40.0,"used":true},{"PRN":70,"gnssid":6,"svid":6,"az":264.0,"el":31.0,"ss":38.0,"used":true},{"PRN":79,"gnssid":6,"svid":15,"az":116.0,"el":13.0,"ss":37.0,"used":true},{"PRN":84,"gnssid":6,"svid":20,"az":209.0,"el":48.0,"ss":33.0,"used":true},{"PRN":85,"gnssid":6,"svid":21,"az":0.0,"el":0.0,"ss":10.0,"used":false},{"PRN":68,"gnssid":6,"svid":4,"az":60.0,"el":26.0,"ss":20.0,"used":true},{"PRN":303,"gnssid":2,"svid":3,"sigid":3,"az":240.0,"el":35.0,"ss":43.0,"used":true},{"PRN":336,"gnssid":2,"svid":36,"sigid":3,"az":167.0,"el":20.0,"ss":40.0,"used":false},{"PRN":303,"gnssid":2,"svid":3,"az":240.0,"el":35.0,"ss":39.0,"used":true},{"PRN":336,"gnssid":2,"svid":36,"az":167.0,"el":20.0,"ss":36.0,"used":false}]}
$GNGSA,A,3,01,03,04,09,17,21,22,,,,,,1.6,0.9,1.3,1*37
{"class":"TPV","mode":3,"time":"2020-11-30T08:04:04.000Z","ept":0.005,"lat":50.040892117,"lon":19.980529900,"altHAE":241.7328,"altMSL":202.1000,"alt":202.1000,"epx":6.992,"epy":9.811,"epv":26.821,"track":16.6000,"magtrack":22.0919,"magvar":5.5,"speed":0.000,"climb":0.000,"eps":21.05,"epc":54.49,"geoidSep":39.633,"eph":17.100,"sep":26.903}
$GNGSA,A,3,68,70,79,84,,,,,,,,,1.6,0.9,1.3,2*35
{"class":"TPV","mode":3,"time":"2020-11-30T08:04:04.000Z","ept":0.005,"lat":50.040892117,"lon":19.980529900,"altHAE":241.7328,"altMSL":202.1000,"alt":202.1000,"epx":6.992,"epy":9.811,"epv":26.821,"track":16.6000,"magtrack":22.0919,"magvar":5.5,"speed":0.000,"climb":0.000,"eps":21.05,"epc":54.49,"geoidSep":39.633,"eph":17.100,"sep":26.903}
{"class":"SKY","gdop":1.63,"hdop":0.90,"pdop":1.60,"tdop":0.81,"xdop":0.47,"ydop":0.65,"vdop":1.30}
$GNGSA,A,3,103,132,,,,,,,,,,,1.6,0.9,1.3,3*3D
{"class":"TPV","mode":3,"time":"2020-11-30T08:04:04.000Z","ept":0.005,"lat":50.040892117,"lon":19.980529900,"altHAE":241.7328,"altMSL":202.1000,"alt":202.1000,"epx":6.992,"epy":9.811,"epv":26.821,"track":16.6000,"magtrack":22.0919,"magvar":5.5,"speed":0.000,"climb":0.000,"eps":21.05,"epc":54.49,"geoidSep":39.633,"eph":17.100,"sep":26.903}
{"class":"SKY","gdop":1.63,"hdop":0.90,"pdop":1.60,"tdop":0.81,"xdop":0.47,"ydop":0.65,"vdop":1.30}
$GNGSA,A,3,,,,,,,,,,,,,1.6,0.9,1.3,4*38
{"class":"TPV","mode":3,"time":"2020-11-30T08:04:04.000Z","ept":0.005,"lat":50.040892117,"lon":19.980529900,"altHAE":241.7328,"altMSL":202.1000,"alt":202.1000,"epx":6.992,"epy":9.811,"epv":26.821,"track":16.6000,"magtrack":22.0919,"magvar":5.5,"speed":0.000,"climb":0.000,"eps":21.05,"epc":54.49,"geoidSep":39.633,"eph":17.100,"sep":26.903}
{"class":"SKY","gdop":1.63,"hdop":0.90,"pdop":1.60,"tdop":0.81,"xdop":0.47,"ydop":0.65,"vdop":1.30}
$GNGSA,A,3,,,,,,,,,,,,,1.6,0.9,1.3,5*39
{"class":"TPV","mode":3,"time":"2020-11-30T08:04:04.000Z","ept":0.005,"lat":50.040892117,"lon":19.980529900,"altHAE":241.7328,"altMSL":202.1000,"alt":202.1000,"epx":6.992,"epy":9.811,"epv":26.821,"track":16.6000,"magtrack":22.0919,"magvar":5.5,"speed":0.000,"climb":0.000,"eps":21.05,"epc":54.49,"geoidSep":39.633,"eph":17.100,"sep":26.903}
{"class":"SKY","gdop":1.63,"hdop":0.90,"pdop":1.60,"tdop":0.81,"xdop":0.47,"ydop":0.65,"vdop":1.30}
$GNGSA,A,3,,,,,,,,,,,,,1.6,0.9,1.3,6*3A
{"class":"TPV","mode":3,"time":"2020-11-30T08:04:04.000Z","ept":0.005,"lat":50.040892117,"lon":19.980529900,"altHAE":241.7328,"altMSL":202.1000,"alt":202.1000,"epx":6.992,"epy":9.811,"epv":26.821,"track":16.6000,"magtrack":22.0919,"magvar":5.5,"speed":0.000,"climb":0.000,"eps":21.05,"epc":54.49,"geoidSep":39.633,"eph":17.100,"sep":26.903}
{"class":"SKY","gdop":1.63,"hdop":0.90,"pdop":1.60,"tdop":0.81,"xdop":0.47,"ydop":0.65,"vdop":1.30}
$GNVTG,16.6,T,,M,0.0,N,0.0,K,A*22
{"class":"TPV","mode":3,"time":"2020-11-30T08:04:04.000Z","ept":0.005,"lat":50.040892117,"lon":19.980529900,"altHAE":241.7328,"altMSL":202.1000,"alt":202.1000,"epx":6.992,"epy":9.811,"epv":26.821,"track":16.6000,"magtrack":22.0919,"magvar":5.5,"speed":0.000,"climb":0.000,"eps":21.05,"epc":54.49,"geoidSep":39.633,"eph":17.100,"sep":26.903}
$GNRMC,080405.00,A,5002.453527,N,01958.831794,E,0.0,16.6,301120,,,A,V*03
$GNGGA,080405.00,5002.453527,N,01958.831794,E,1,13,0.9,202.1,M,,M,,*6F
{"class":"SKY","hdop":0.90}
$GNGLL,5002.453527,N,01958.831794,E,080405.00,A,A*7E
{"class":"TPV","mode":3,"time":"2020-11-30T08:04:05.000Z","ept":0.005,"lat":50.040892117,"lon":19.980529900,"altHAE":241.7328,"altMSL":202.1000,"alt":202.1000,"track":16.6000,"magtrack":22.0919,"magvar":5.5,"speed":0.000,"climb":0.000,"geoidSep":39.633,"eph":17.100}
$GPGSV,4,1,12,01,38,160,35,03,80,057,29,04,65,211,45,09,27,228,36,1*6E
$GPGSV,4,2,12,17,30,269,30,19,,,15,21,19,157,39,22,58,098,35,1*5E
$GPGSV,4,3,12,31,29,056,14,1*5F
$GPGSV,4,4,12,01,38,160,38,03,80,057,20,09,27,228,40,8*53
$GLGSV,2,1,05,70,31,264,38,79,13,116,37,84,48,209,33,85,,,09,1*41
$GLGSV,2,2,05,68,26,060,20,1*43
{"class":"TPV","mode":3,"time":"2020-11-30T08:04:05.000Z","ept":0.005,"lat":50.040892117,"lon":19.980529900,"altHAE":241.7328,"altMSL":202.1000,"alt":202.1000,"epx":7.152,"epy":11.228,"epv":27.817,"track":16.6000,"magtrack":22.0919,"magvar":5.5,"speed":0.000,"climb":0.000,"eps":21.04,"epc":54.64,"geoidSep":39.633,"eph":17.100,"sep":28.502}
{"class":"SKY","gdop":1.75,"hdop":0.90,"pdop":1.50,"tdop":0.89,"xdop":0.48,"ydop":0.75,"vdop":1.21,"nSat":17,"uSat":14,"satellites":[{"PRN":1,"gnssid":0,"svid":1,"az":160.0,"el":38.0,"ss":35.0,"used":true},{"PRN":3,"gnssid":0,"svid":3,"az":57.0,"el":80.0,"ss":29.0,"used":true},{"PRN":4,"gnssid":0,"svid":4,"az":211.0,"el":65.0,"ss":45.0,"used":true},{"PRN":9,"gnssid":0,"svid":9,"az":228.0,"el":27.0,"ss":36.0,"used":true},{"PRN":17,"gnssid":0,"svid":17,"az":269.0,"el":30.0,"ss":30.0,"used":true},{"PRN":19,"gnssid":0,"svid":19,"az":0.0,"el":0.0,"ss":15.0,"used":false},{"PRN":21,"gnssid":0,"svid":21,"az":157.0,"el":19.0,"ss":39.0,"used":true},{"PRN":22,"gnssid":0,"svid":22,"az":98.0,"el":58.0,"ss":35.0,"used":true},{"PRN":31,"gnssid":0,"svid":31,"az":56.0,"el":29.0,"ss":14.0,"used":false},{"PRN":1,"gnssid":0,"svid":1,"az":160.0,"el":38.0,"ss":38.0,"used":true},{"PRN":3,"gnssid":0,"svid":3,"az":57.0,"el":80.0,"ss":20.0,"used":true},{"PRN":9,"gnssid":0,"svid":9,"az":228.0,"el":27.0,"ss":40.0,"used":true},{"PRN":70,"gnssid":6,"svid":6,"az":264.0,"el":31.0,"ss":38.0,"used":true},{"PRN":79,"gnssid":6,"svid":15,"az":116.0,"el":13.0,"ss":37.0,"used":true},{"PRN":84,"gnssid":6,"svid":20,"az":209.0,"el":48.0,"ss":33.0,"used":true},{"PRN":85,"gnssid":6,"svid":21,"az":0.0,"el":0.0,"ss":9.0,"used":false},{"PRN":68,"gnssid":6,"svid":4,"az":60.0,"el":26.0,"ss":20.0,"used":true}]}
$GAGSV,2,1,04,103,35,240,43,136,20,167,40,6*72
$GAGSV,2,2,04,103,35,240,39,136,20,167,36,1*7A
{"class":"TPV","mode":3,"time":"2020-11-30T08:04:05.000Z","ept":0.005,"lat":50.040892117,"lon":19.980529900,"altHAE":241.7328,"altMSL":202.1000,"alt":202.1000,"epx":7.152,"epy":11.228,"epv":27.817,"track":16.6000,"magtrack":22.0919,"magvar":5.5,"speed":0.000,"climb":0.000,"eps":21.04,"epc":54.64,"geoidSep":39.633,"eph":17.100,"sep":28.502}
{"class":"SKY","gdop":1.75,"hdop":0.90,"pdop":1.50,"tdop":0.89,"xdop":0.48,"ydop":0.75,"vdop":1.21,"nSat":21,"uSat":16,"satellites":[{"PRN":1,"gnssid":0,"svid":1,"az":160.0,"el":38.0,"ss":35.0,"used":true},{"PRN":3,"gnssid":0,"svid":3,"az":57.0,"el":80.0,"ss":29.0,"used":true},{"PRN":4,"gnssid":0,"svid":4,"az":211.0,"el":65.0,"ss":45.0,"used":true},{"PRN":9,"gnssid":0,"svid":9,"az":228.0,"el":27.0,"ss":36.0,"used":true},{"PRN":17,"gnssid":0,"svid":17,"az":269.0,"el":30.0,"ss":30.0,"used":true},{"PRN":19,"gnssid":0,"svid":19,"az":0.0,"el":0.0,"ss":15.0,"used":false},{"PRN":21,"gnssid":0,"svid":21,"az":157.0,"el":19.0,"ss":39.0,"used":true},{"PRN":22,"gnssid":0,"svid":22,"az":98.0,"el":58.0,"ss":35.0,"used":true},{"PRN":31,"gnssid":0,"svid":31,"az":56.0,"el":29.0,"ss":14.0,"used":false},{"PRN":1,"gnssid":0,"svid":1,"az":160.0,"el":38.0,"ss":38.0,"used":true},{"PRN":3,"gnssid":0,"svid":3,"az":57.0,"el":80.0,"ss":20.0,"used":true},{"PRN":9,"gnssid":0,"svid":9,"az":228.0,"el":27.0,"ss":40.0,"used":true},{"PRN":70,"gnssid":6,"svid":6,"az":264.0,"el":31.0,"ss":38.0,"used":true},{"PRN":79,"gnssid":6,"svid":15,"az":116.0,"el":13.0,"ss":37.0,"used":true},{"PRN":84,"gnssid":6,"svid":20,"az":209.0,"el":48.0,"ss":33.0,"used":true},{"PRN":85,"gnssid":6,"svid":21,"az":0.0,"el":0.0,"ss":9.0,"used":false},{"PRN":68,"gnssid":6,"svid":4,"az":60.0,"el":26.0,"ss":20.0,"used":true},{"PRN":303,"gnssid":2,"svid":3,"sigid":3,"az":240.0,"el":35.0,"ss":43.0,"used":true},{"PRN":336,"gnssid":2,"svid":36,"sigid":3,"az":167.0,"el":20.0,"ss":40.0,"used":false},{"PRN":303,"gnssid":2,"svid":3,"az":240.0,"el":35.0,"ss":39.0,"used":true},{"PRN":336,"gnssid":2,"svid":36,"az":167.0,"el":20.0,"ss":36.0,"used":false}]}
$GNGSA,A,3,01,03,04,09,17,21,22,,,,,,1.6,0.9,1.3,1*37
{"class":"TPV","mode":3,"time":"2020-11-30T08:04:05.000Z","ept":0.005,"lat":50.040892117,"lon":19.980529900,"altHAE":241.7328,"altMSL":202.1000,"alt":202.1000,"epx":7.152,"epy":11.228,"epv":27.817,"track":16.6000,"magtrack":22.0919,"magvar":5.5,"speed":0.000,"climb":0.000,"eps":21.04,"epc":54.64,"geoidSep":39.633,"eph":17.100,"sep":28.502}
$GNGSA,A,3,68,70,79,84,,,,,,,,,1.6,0.9,1.3,2*35
{"class":"TPV","mode":3,"time":"2020-11-30T08:04:05.000Z","ept":0.005,"lat":50.040892117,"lon":19.980529900,"altHAE":241.7328,"altMSL":202.1000,"alt":202.1000,"epx":7.152,"epy":11.228,"epv":27.817,"track":16.6000,"magtrack":22.0919,"magvar":5.5,"speed":0.000,"climb":0.000,"eps":21.04,"epc":54.64,"geoidSep":39.633,"eph":17.100,"sep":28.502}
{"class":"SKY","gdop":1.75,"hdop":0.90,"pdop":1.60,"tdop":0.89,"xdop":0.48,"ydop":0.75,"vdop":1.30}
$GNGSA,A,3,103,132,,,,,,,,,,,1.6,0.9,1.3,3*3D
{"class":"TPV","mode":3,"time":"2020-11-30T08:04:05.000Z","ept":0.005,"lat":50.040892117,"lon":19.980529900,"altHAE":241.7328,"altMSL":202.1000,"alt":202.1000,"epx":7.152,"epy":11.228,"epv":27.817,"track":16.6000,"magtrack":22.0919,"magvar":5.5,"speed":0.000,"climb":0.000,"eps":21.04,"epc":54.64,"geoidSep":39.633,"eph":17.100,"sep":28.502}
{"class":"SKY","gdop":1.75,"hdop":0.90,"pdop":1.60,"tdop":0.89,"xdop":0.48,"ydop":0.75,"vdop":1.30}
$GNGSA,A,3,,,,,,,,,,,,,1.6,0.9,1.3,4*38
{"class":"TPV","mode":3,"time":"2020-11-30T08:04:05.000Z","ept":0.005,"lat":50.040892117,"lon":19.980529900,"altHAE":241.7328,"altMSL":202.1000,"alt":202.1000,"epx":7.152,"epy":11.228,"epv":27.817,"track":16.6000,"magtrack":22.0919,"magvar":5.5,"speed":0.000,"climb":0.000,"eps":21.04,"epc":54.64,"geoidSep":39.633,"eph":17.100,"sep":28.502}
{"class":"SKY","gdop":1.75,"hdop":0.90,"pdop":1.60,"tdop":0.89,"xdop":0.48,"ydop":0.75,"vdop":1.30}
$GNGSA,A,3,,,,,,,,,,,,,1.6,0.9,1.3,5*39
{"class":"TPV","mode":3,"time":"2020-11-30T08:04:05.000Z","ept":0.005,"lat":50.040892117,"lon":19.980529900,"altHAE":241.7328,"altMSL":202.1000,"alt":202.1000,"epx":7.152,"epy":11.228,"epv":27.817,"track":16.6000,"magtrack":22.0919,"magvar":5.5,"speed":0.000,"climb":0.000,"eps":21.04,"epc":54.64,"geoidSep":39.633,"eph":17.100,"sep":28.502}
{"class":"SKY","gdop":1.75,"hdop":0.90,"pdop":1.60,"tdop":0.89,"xdop":0.48,"ydop":0.75,"vdop":1.30}
$GNGSA,A,3,,,,,,,,,,,,,1.6,0.9,1.3,6*3A
{"class":"TPV","mode":3,"time":"2020-11-30T08:04:05.000Z","ept":0.005,"lat":50.040892117,"lon":19.980529900,"altHAE":241.7328,"altMSL":202.1000,"alt":202.1000,"epx":7.152,"epy":11.228,"epv":27.817,"track":16.6000,"magtrack":22.0919,"magvar":5.5,"speed":0.000,"climb":0.000,"eps":21.04,"epc":54.64,"geoidSep":39.633,"eph":17.100,"sep":28.502}
{"class":"SKY","gdop":1.75,"hdop":0.90,"pdop":1.60,"tdop":0.89,"xdop":0.48,"ydop":0.75,"vdop":1.30}
$GNVTG,16.6,T,,M,0.0,N,0.0,K,A*22
{"class":"TPV","mode":3,"time":"2020-11-30T08:04:05.000Z","ept":0.005,"lat":50.040892117,"lon":19.980529900,"altHAE":241.7328,"altMSL":202.1000,"alt":202.1000,"epx":7.152,"epy":11.228,"epv":27.817,"track":16.6000,"magtrack":22.0919,"magvar":5.5,"speed":0.000,"climb":0.000,"eps":21.04,"epc":54.64,"geoidSep":39.633,"eph":17.100,"sep":28.502}
$GNRMC,080406.00,A,5002.453527,N,01958.831794,E,0.0,16.6,301120,,,A,V*00
$GNGGA,080406.00,5002.453527,N,01958.831794,E,1,13,0.9,202.1,M,,M,,*6C
{"class":"SKY","hdop":0.90}
$GNGLL,5002.453527,N,01958.831794,E,080406.00,A,A*7D
{"class":"TPV","mode":3,"time":"2020-11-30T08:04:06.000Z","ept":0.005,"lat":50.040892117,"lon":19.980529900,"altHAE":241.7328,"altMSL":202.1000,"alt":202.1000,"track":16.6000,"magtrack":22.0919,"magvar":5.5,"speed":0.000,"climb":0.000,"geoidSep":39.633,"eph":17.100}
$GPGSV,4,1,12,01,38,160,36,03,80,058,30,04,65,211,45,09,27,228,37,1*6B
$GPGSV,4,2,12,17,30,269,31,19,,,15,21,19,157,39,22,58,098,36,1*5C
$GPGSV,4,3,12,31,29,056,14,1*5F
$GPGSV,4,4,12,01,38,160,38,03,80,058,20,09,27,228,40,8*5C
$GLGSV,2,1,05,70,31,264,38,79,13,116,37,84,47,209,33,85,,,08,1*4F
$GLGSV,2,2,05,68,26,060,22,1*41
