# Name: eg25-g
# Chipset: eg25-g (on PinePhone)
# Firmware: EG25GGBR07A08M2G_01.002.01.002.
# Submittter: Andrey Skvortsov @AndreySV on GitLab
# Date: 2022-09-11
# Note: Quectel Querk: $PQGSV
$GLGSV,2,1,08,78,38,036,22,79,53,313,19,88,22,080,26,68,39,195,21,1*75
$GLGSV,2,2,08,70,09,333,,69,56,281,,87,12,033,,81,11,130,,1*7D
$GPGSV,2,1,06,14,49,042,20,19,34,153,22,30,34,085,24,05,16,232,,1*6B
$GPGSV,2,2,06,07,05,097,,13,80,264,,1*64
$GNGNS,191434.96,,,,,NNN,,,,,,*36
$GPVTG,,T,,M,,N,,K,N*2C
$GPGSA,A,1,,,,,,,,,,,,,,,,*32
$GNGSA,A,1,,,,,,,,,,,,,,,,*2C
$GPGGA,,,,,,0,,,,,,,,*66
$GPRMC,,V,,,,,,,,,,N*53
$GLGSV,2,1,08,78,38,036,22,79,53,313,19,88,22,080,26,68,39,195,21,1*75
$GLGSV,2,2,08,70,09,333,,69,56,281,,87,12,033,,81,11,130,,1*7D
$GPGSV,2,1,06,14,49,042,20,19,34,153,22,30,34,085,24,05,16,232,,1*6B
$GPGSV,2,2,06,07,05,097,,13,80,264,,1*64
$GNGNS,191435.96,,,,,NNN,,,,,,*37
$GPVTG,,T,,M,,N,,K,N*2C
$GPGSA,A,1,,,,,,,,,,,,,,,,*32
$GNGSA,A,1,,,,,,,,,,,,,,,,*2C
$GPGGA,,,,,,0,,,,,,,,*66
$GPRMC,,V,,,,,,,,,,N*53
$GLGSV,2,1,08,78,38,036,25,79,53,313,19,88,22,080,26,68,39,195,21,1*72
$GLGSV,2,2,08,70,09,333,,69,56,281,,87,12,033,,81,11,130,,1*7D
$GPGSV,2,1,06,14,49,042,20,19,34,153,22,30,34,085,24,05,16,232,,1*6B
$GPGSV,2,2,06,07,05,097,,13,80,264,,1*64
$GNGNS,191436.96,,,,,NNN,,,,,,*34
$GPVTG,,T,,M,,N,,K,N*2C
$GPGSA,A,1,,,,,,,,,,,,,,,,*32
$GNGSA,A,1,,,,,,,,,,,,,,,,*2C
$GPGGA,,,,,,0,,,,,,,,*66
$GPRMC,,V,,,,,,,,,,N*53
$GLGSV,2,1,08,78,38,036,25,79,53,313,19,88,22,080,21,68,39,195,21,1*75
$GLGSV,2,2,08,70,09,333,,69,56,281,,87,12,033,,81,11,130,,1*7D
$GPGSV,2,1,06,14,49,042,20,19,34,153,22,30,34,085,24,05,16,232,,1*6B
$GPGSV,2,2,06,07,05,097,,13,80,264,,1*64
$GNGNS,191437.96,,,,,NNN,,,,,,*35
$GPVTG,,T,,M,,N,,K,N*2C
$GPGSA,A,1,,,,,,,,,,,,,,,,*32
$GNGSA,A,1,,,,,,,,,,,,,,,,*2C
$GPGGA,,,,,,0,,,,,,,,*66
$GPRMC,,V,,,,,,,,,,N*53
$GLGSV,2,1,08,78,38,036,25,79,53,313,19,88,22,080,21,68,39,195,21,1*75
$GLGSV,2,2,08,70,09,333,,69,56,281,,87,11,033,,81,11,130,,1*7E
$GPGSV,2,1,06,14,49,042,20,30,34,085,24,05,15,232,,07,05,097,,1*6C
$GPGSV,2,2,06,13,80,262,,15,46,298,,1*6B
$GNGNS,191438.96,,,,,NNN,,,,,,*3A
$GPVTG,,T,,M,,N,,K,N*2C
$GPGSA,A,1,,,,,,,,,,,,,,,,*32
$GNGSA,A,1,,,,,,,,,,,,,,,,*2C
$GPGGA,,,,,,0,,,,,,,,*66
$GPRMC,,V,,,,,,,,,,N*53
$GLGSV,2,1,08,78,38,036,25,79,53,313,19,88,22,080,21,68,39,195,21,1*75
$GLGSV,2,2,08,70,09,333,,69,56,281,,87,11,033,,81,11,130,,1*7E
$GPGSV,2,1,06,14,49,042,20,30,34,085,24,05,15,232,,07,05,097,,1*6C
$GPGSV,2,2,06,13,80,262,,15,46,298,,1*6B
$GNGNS,191439.95,,,,,NNN,,,,,,*38
$GPVTG,,T,,M,,N,,K,N*2C
$GPGSA,A,1,,,,,,,,,,,,,,,,*32
$GNGSA,A,1,,,,,,,,,,,,,,,,*2C
$GPGGA,,,,,,0,,,,,,,,*66
$GPRMC,,V,,,,,,,,,,N*53
$GLGSV,2,1,08,78,38,036,25,79,53,313,19,88,22,080,21,68,39,195,21,1*75
$GLGSV,2,2,08,70,09,333,,69,56,281,,87,11,033,,81,11,130,,1*7E
$GPGSV,2,1,06,14,49,042,20,30,34,085,24,05,15,232,,07,05,097,,1*6C
$GPGSV,2,2,06,13,80,262,,15,46,298,,1*6B
$GNGNS,191440.96,,,,,NNN,,,,,,*35
$GPVTG,,T,,M,,N,,K,N*2C
$GPGSA,A,1,,,,,,,,,,,,,,,,*32
$GNGSA,A,1,,,,,,,,,,,,,,,,*2C
$GPGGA,,,,,,0,,,,,,,,*66
$GPRMC,,V,,,,,,,,,,N*53
$GLGSV,2,1,08,78,38,036,26,79,53,313,19,88,22,080,20,68,39,195,21,1*77
$GLGSV,2,2,08,70,09,333,,69,56,281,,87,11,033,,81,11,130,,1*7E
$GPGSV,2,1,06,14,49,042,20,30,34,085,24,05,15,232,,07,05,097,,1*6C
$GPGSV,2,2,06,13,80,262,,15,46,298,,1*6B
$GNGNS,191441.96,,,,,NNN,,,,,,*34
$GPVTG,,T,,M,,N,,K,N*2C
$GPGSA,A,1,,,,,,,,,,,,,,,,*32
$GNGSA,A,1,,,,,,,,,,,,,,,,*2C
$GPGGA,,,,,,0,,,,,,,,*66
$GPRMC,,V,,,,,,,,,,N*53
$GLGSV,2,1,08,78,38,036,24,79,53,313,19,88,22,080,20,68,39,195,18,1*7F
$GLGSV,2,2,08,70,09,333,,69,56,281,,87,11,033,,81,11,130,,1*7E
$GPGSV,2,1,06,14,49,042,20,30,34,085,24,05,15,232,,07,05,097,,1*6C
$GPGSV,2,2,06,13,80,262,,15,46,298,,1*6B
$GNGNS,191442.96,,,,,NNN,,,,,,*37
$GPVTG,,T,,M,,N,,K,N*2C
$GPGSA,A,1,,,,,,,,,,,,,,,,*32
$GNGSA,A,1,,,,,,,,,,,,,,,,*2C
$GPGGA,,,,,,0,,,,,,,,*66
$GPRMC,,V,,,,,,,,,,N*53
$GLGSV,2,1,08,78,38,036,26,79,53,313,19,88,22,080,19,68,39,195,18,1*77
$GLGSV,2,2,08,70,09,333,,69,56,281,,87,11,033,,81,11,130,,1*7E
$GPGSV,2,1,06,14,49,042,20,30,34,085,23,05,15,232,,07,05,097,,1*6B
$GPGSV,2,2,06,13,80,262,,15,46,298,,1*6B
$GNGNS,191443.95,,,,,NNN,,,,,,*35
$GPVTG,,T,,M,,N,,K,N*2C
$GPGSA,A,1,,,,,,,,,,,,,,,,*32
$GNGSA,A,1,,,,,,,,,,,,,,,,*2C
$GPGGA,,,,,,0,,,,,,,,*66
$GPRMC,,V,,,,,,,,,,N*53
$GLGSV,2,1,08,78,38,036,26,79,53,313,19,88,22,078,19,68,39,195,21,1*7A
$GLGSV,2,2,08,70,09,333,,69,56,279,,87,11,033,,81,11,130,,1*79
$GPGSV,2,1,06,14,49,042,20,30,34,085,25,05,15,232,,07,05,097,,1*6D
$GPGSV,2,2,06,13,80,262,,15,46,298,,1*6B
$GNGNS,191444.95,,,,,NNN,,,,,,*32
$GPVTG,,T,,M,,N,,K,N*2C
$GPGSA,A,1,,,,,,,,,,,,,,,,*32
$GNGSA,A,1,,,,,,,,,,,,,,,,*2C
$GPGGA,,,,,,0,,,,,,,,*66
$GPRMC,,V,,,,,,,,,,N*53
$GLGSV,2,1,08,78,38,036,26,79,53,313,19,88,22,078,19,68,39,195,21,1*7A
$GLGSV,2,2,08,70,09,333,,69,56,279,,87,11,033,,81,11,130,,1*79
$GPGSV,2,1,06,14,49,042,20,30,34,085,24,05,15,232,,07,05,097,,1*6C
$GPGSV,2,2,06,13,80,262,,15,46,298,,1*6B
$GNGNS,191445.95,,,,,NNN,,,,,,*33
$GPVTG,,T,,M,,N,,K,N*2C
$GPGSA,A,1,,,,,,,,,,,,,,,,*32
$GNGSA,A,1,,,,,,,,,,,,,,,,*2C
$GPGGA,,,,,,0,,,,,,,,*66
$GPRMC,,V,,,,,,,,,,N*53
$GLGSV,2,1,08,78,38,036,24,79,53,313,19,69,56,279,18,88,22,078,19,1*7B
$GLGSV,2,2,08,68,39,195,21,70,09,333,,87,11,033,,81,11,130,,1*73
$GPGSV,2,1,06,14,49,042,20,30,34,085,23,05,15,232,,07,05,097,,1*6B
$GPGSV,2,2,06,13,80,262,,15,46,298,,1*6B
$GNGNS,191446.96,,,,,NNN,,,,,,*33
$GPVTG,,T,,M,,N,,K,N*2C
$GPGSA,A,1,,,,,,,,,,,,,,,,*32
$GNGSA,A,1,,,,,,,,,,,,,,,,*2C
$GPGGA,,,,,,0,,,,,,,,*66
$GPRMC,,V,,,,,,,,,,N*53
$GLGSV,2,1,08,78,38,036,26,79,53,313,19,69,56,279,18,88,22,078,19,1*79
$GLGSV,2,2,08,68,39,195,19,70,09,333,,87,11,033,,81,11,130,,1*78
$GPGSV,2,1,06,14,49,042,20,30,34,085,25,05,15,232,,07,05,097,,1*6D
$GPGSV,2,2,06,13,80,262,,15,46,298,,1*6B
$GNGNS,191447.95,,,,,NNN,,,,,,*31
$GPVTG,,T,,M,,N,,K,N*2C
$GPGSA,A,1,,,,,,,,,,,,,,,,*32
$GNGSA,A,1,,,,,,,,,,,,,,,,*2C
$GPGGA,,,,,,0,,,,,,,,*66
$GPRMC,,V,,,,,,,,,,N*53
$GLGSV,2,1,08,78,38,036,26,79,53,313,19,69,56,279,18,88,22,078,20,1*73
$GLGSV,2,2,08,68,39,195,19,70,09,333,,87,11,033,,81,11,130,,1*78
$GPGSV,2,1,06,14,49,042,20,30,34,085,24,05,15,232,,07,05,097,,1*6C
$GPGSV,2,2,06,13,80,262,,15,46,298,,1*6B
$GNGNS,191449.05,,,,,NNN,,,,,,*36
$GPVTG,,T,,M,,N,,K,N*2C
$GPGSA,A,1,,,,,,,,,,,,,,,,*32
$GNGSA,A,1,,,,,,,,,,,,,,,,*2C
$GPGGA,,,,,,0,,,,,,,,*66
$GPRMC,,V,,,,,,,,,,N*53
$GLGSV,2,1,08,78,38,036,25,79,53,313,19,69,56,279,18,88,22,078,20,1*70
$GLGSV,2,2,08,68,39,195,20,70,09,333,,87,11,033,,81,11,130,,1*72
$GPGSV,2,1,06,14,49,042,20,30,34,085,24,05,15,232,,07,05,097,,1*6C
$GPGSV,2,2,06,13,80,262,,15,46,298,,1*6B
$GNGNS,191450.03,,,,,NNN,,,,,,*38
$GPVTG,,T,,M,,N,,K,N*2C
$GPGSA,A,1,,,,,,,,,,,,,,,,*32
$GNGSA,A,1,,,,,,,,,,,,,,,,*2C
$GPGGA,,,,,,0,,,,,,,,*66
$GPRMC,,V,,,,,,,,,,N*53
$GLGSV,2,1,08,78,38,036,24,79,53,313,19,69,56,279,19,88,22,078,20,1*70
$GLGSV,2,2,08,68,39,195,20,70,09,333,,87,11,033,,81,11,130,,1*72
$GPGSV,2,1,06,14,49,042,20,30,34,085,22,05,15,232,,07,05,097,,1*6A
$GPGSV,2,2,06,13,80,262,,15,46,298,,1*6B
$GNGNS,191450.99,,,,,NNN,,,,,,*3B
$GPVTG,,T,,M,,N,,K,N*2C
$GPGSA,A,1,,,,,,,,,,,,,,,,*32
$GNGSA,A,1,,,,,,,,,,,,,,,,*2C
$GPGGA,,,,,,0,,,,,,,,*66
$GPRMC,,V,,,,,,,,,,N*53
$GLGSV,2,1,08,78,38,036,26,79,53,313,19,69,56,279,19,88,22,078,20,1*72
$GLGSV,2,2,08,68,39,195,20,70,09,333,,87,11,033,,81,11,130,,1*72
$GPGSV,2,1,06,30,34,085,22,05,15,232,,07,05,097,,13,80,262,,1*6A
$GPGSV,2,2,06,14,49,042,,15,46,298,,1*69
$GNGNS,191451.99,,,,,NNN,,,,,,*3A
$GPVTG,,T,,M,,N,,K,N*2C
$GPGSA,A,1,,,,,,,,,,,,,,,,*32
$GNGSA,A,1,,,,,,,,,,,,,,,,*2C
$GPGGA,,,,,,0,,,,,,,,*66
$GPRMC,,V,,,,,,,,,,N*53
$GLGSV,2,1,08,78,38,036,27,79,53,313,19,69,56,279,19,88,22,078,18,1*78
$GLGSV,2,2,08,68,39,195,18,70,09,333,,87,11,033,,81,11,130,,1*79
$GPGSV,2,1,06,13,80,262,23,30,34,085,22,05,15,232,,07,05,097,,1*6B
$GPGSV,2,2,06,14,49,042,,15,46,298,,1*69
$GNGNS,191452.99,,,,,NNN,,,,,,*39
$GPVTG,,T,,M,,N,,K,N*2C
$GPGSA,A,1,,,,,,,,,,,,,,,,*32
$GNGSA,A,1,,,,,,,,,,,,,,,,*2C
$GPGGA,,,,,,0,,,,,,,,*66
$GPRMC,,V,,,,,,,,,,N*53
$GLGSV,2,1,07,78,38,036,27,69,56,279,19,88,22,078,20,68,39,195,18,1*7D
$GLGSV,2,2,07,70,09,333,,87,11,033,,81,11,130,,1*46
$GPGSV,2,1,06,13,80,262,23,30,34,085,22,05,15,232,,07,05,097,,1*6B
$GPGSV,2,2,06,14,49,042,,15,46,298,,1*69
$GNGNS,191454.00,,,,,NNN,,,,,,*3F
$GPVTG,,T,,M,,N,,K,N*2C
$GPGSA,A,1,,,,,,,,,,,,,,,,*32
$GNGSA,A,1,,,,,,,,,,,,,,,,*2C
$GPGGA,,,,,,0,,,,,,,,*66
$GPRMC,,V,,,,,,,,,,N*53
$GLGSV,2,1,08,78,38,036,25,69,56,279,18,88,22,078,20,87,11,033,15,1*7A
$GLGSV,2,2,08,68,39,195,18,70,09,333,,79,53,313,,81,11,130,,1*7F
$GPGSV,2,1,06,13,80,262,23,30,34,085,23,05,15,232,,07,05,097,,1*6A
$GPGSV,2,2,06,14,49,042,,15,46,298,,1*69
$GNGNS,191454.99,,,,,NNN,,,,,,*3F
$GPVTG,,T,,M,,N,,K,N*2C
$GPGSA,A,1,,,,,,,,,,,,,,,,*32
$GNGSA,A,1,,,,,,,,,,,,,,,,*2C
$GPGGA,,,,,,0,,,,,,,,*66
$GPRMC,,V,,,,,,,,,,N*53
$GLGSV,2,1,08,78,38,036,27,69,56,279,18,88,22,078,20,87,11,032,15,1*79
$GLGSV,2,2,08,68,39,195,20,70,09,333,,79,53,314,,81,11,130,,1*73
$PQGSV,2,1,08,02,20,116,,03,,,,05,34,137,,07,06,045,,0,4*52
$PQGSV,2,2,08,09,16,119,,10,27,049,,16,07,123,,19,36,213,,0,4*60
$GAGSV,1,1,02,04,52,298,,09,03,322,,7*78
$GPGSV,2,1,06,13,80,262,25,17,47,111,24,30,33,085,23,05,15,232,,1*65
$GPGSV,2,2,06,07,05,097,,14,49,042,,1*60
$GNGNS,191456.00,,,,,NNN,,,,,,*3D
$GPVTG,,T,,M,,N,,K,N*2C
$GPGSA,A,1,,,,,,,,,,,,,,,,*32
$GNGSA,A,1,,,,,,,,,,,,,,,,*2C
$GPGGA,,,,,,0,,,,,,,,*66
$GPRMC,,V,,,,,,,,,,N*53
$GLGSV,2,1,08,78,38,036,25,69,56,279,18,88,22,078,18,87,11,032,15,1*70
$GLGSV,2,2,08,68,39,195,23,70,09,333,,79,53,314,,81,11,130,,1*70
$PQGSV,2,1,08,02,20,116,,03,,,,05,34,137,,07,06,045,,0,4*52
$PQGSV,2,2,08,09,16,119,,10,27,049,,16,07,123,,19,36,213,,0,4*60
$GAGSV,1,1,02,04,52,298,,09,03,322,,7*78
$GPGSV,2,1,06,13,80,262,25,17,47,111,24,30,33,085,23,05,15,232,,1*65
$GPGSV,2,2,06,07,05,097,,14,49,042,,1*60
$GNGNS,191457.03,,,,,NNN,,,,,,*3F
$GPVTG,,T,,M,,N,,K,N*2C
$GPGSA,A,1,,,,,,,,,,,,,,,,*32
$GNGSA,A,1,,,,,,,,,,,,,,,,*2C
$GPGGA,,,,,,0,,,,,,,,*66
$GPRMC,,V,,,,,,,,,,N*53
$GLGSV,2,1,08,78,38,036,26,69,56,279,18,88,22,078,24,87,11,032,15,1*7C
$GLGSV,2,2,08,68,39,195,26,70,09,333,,79,53,314,,81,11,130,,1*75
$PQGSV,2,1,08,02,20,116,,03,,,,05,34,137,,07,06,045,,0,4*52
$PQGSV,2,2,08,09,16,119,,10,27,049,,16,07,123,,19,36,213,,0,4*60
$GAGSV,1,1,02,04,52,298,,09,03,322,,7*78
$GPGSV,2,1,06,13,80,262,21,17,47,111,23,30,33,085,23,05,15,232,,1*66
$GPGSV,2,2,06,07,05,097,,14,49,042,,1*60
$GNGNS,191458.03,,,,,NNN,,,,,,*30
$GPVTG,,T,,M,,N,,K,N*2C
$GPGSA,A,1,,,,,,,,,,,,,,,,*32
$GNGSA,A,1,,,,,,,,,,,,,,,,*2C
$GPGGA,,,,,,0,,,,,,,,*66
$GPRMC,,V,,,,,,,,,,N*53
$GLGSV,2,1,08,78,38,036,26,69,56,279,18,88,22,078,23,87,11,032,18,1*76
$GLGSV,2,2,08,68,39,195,27,70,09,333,,79,53,314,,81,11,130,,1*74
$PQGSV,2,1,08,02,20,116,,03,,,,05,34,137,,07,06,045,,0,4*52
$PQGSV,2,2,08,09,16,119,,10,27,049,,16,07,123,,19,36,213,,0,4*60
$GAGSV,1,1,02,04,52,298,,09,03,322,,7*78
$GPGSV,2,1,06,13,80,262,21,17,47,111,22,30,33,085,23,05,15,232,,1*67
$GPGSV,2,2,06,07,05,097,,14,49,042,,1*60
$GNGNS,191459.01,,,,,NNN,,,,,,*33
$GPVTG,,T,,M,,N,,K,N*2C
$GPGSA,A,1,,,,,,,,,,,,,,,,*32
$GNGSA,A,1,,,,,,,,,,,,,,,,*2C
$GPGGA,,,,,,0,,,,,,,,*66
$GPRMC,,V,,,,,,,,,,N*53
$GLGSV,2,1,08,78,38,036,24,69,56,279,18,88,22,078,22,87,11,032,18,1*75
$GLGSV,2,2,08,68,39,195,27,70,09,333,,79,53,314,,81,11,130,,1*74
$PQGSV,2,1,08,02,20,116,,03,,,,05,34,137,,07,06,045,,0,4*52
$PQGSV,2,2,08,09,16,119,,10,27,049,,16,07,123,,19,36,213,,0,4*60
$GAGSV,1,1,02,04,52,298,,09,03,322,,7*78
$GPGSV,2,1,06,13,80,262,21,17,47,111,22,30,33,085,23,05,15,232,,1*67
$GPGSV,2,2,06,07,05,097,,14,49,042,,1*60
$GNGNS,191500.01,,,,,NNN,,,,,,*3E
$GPVTG,,T,,M,,N,,K,N*2C
$GPGSA,A,1,,,,,,,,,,,,,,,,*32
$GNGSA,A,1,,,,,,,,,,,,,,,,*2C
$GPGGA,,,,,,0,,,,,,,,*66
$GPRMC,,V,,,,,,,,,,N*53
$GLGSV,2,1,08,78,38,036,23,69,56,279,18,88,22,078,22,87,11,032,18,1*72
$GLGSV,2,2,08,68,39,195,25,70,09,333,,79,53,314,,81,11,130,,1*76
$PQGSV,4,1,15,02,20,116,,03,,,,05,34,137,,07,06,045,,0,4*58
$PQGSV,4,2,15,09,16,119,,10,27,049,,16,07,123,,19,36,213,,0,4*6A
$PQGSV,4,3,15,20,04,174,,21,04,326,,22,37,284,,27,27,088,,0,4*66
$PQGSV,4,4,15,28,08,040,,29,,,,30,21,144,,0,4*63
$GAGSV,1,1,02,04,52,298,,09,03,322,,7*78
$GPGSV,3,1,10,13,80,262,19,17,47,111,21,30,33,085,23,05,15,232,,1*69
$GPGSV,3,2,10,07,05,097,,14,49,042,,15,46,298,,19,34,153,,1*6B
$GPGSV,3,3,10,20,,,,24,12,293,,1*5A
$GNGNS,191501.01,,,,,NNN,,,,,,*3F
$GPVTG,,T,,M,,N,,K,N*2C
$GPGSA,A,1,,,,,,,,,,,,,,,,*32
$GNGSA,A,1,,,,,,,,,,,,,,,,*2C
$GPGGA,,,,,,0,,,,,,,,*66
$GPRMC,,V,,,,,,,,,,N*53
$GLGSV,2,1,08,78,38,036,25,69,56,279,18,88,22,078,24,87,11,032,18,1*72
$GLGSV,2,2,08,68,39,195,25,70,09,333,,79,53,314,,81,11,130,,1*76
$PQGSV,4,1,15,02,20,116,,03,,,,05,34,137,,07,06,045,,0,4*58
$PQGSV,4,2,15,09,16,119,,10,27,049,,16,07,123,,19,36,213,,0,4*6A
$PQGSV,4,3,15,20,04,174,,21,04,324,,22,37,284,,27,27,088,,0,4*64
$PQGSV,4,4,15,28,08,040,,29,,,,30,21,144,,0,4*63
$GAGSV,1,1,02,04,52,298,,09,03,322,,7*78
$GPGSV,3,1,10,13,80,261,22,15,46,298,18,17,47,111,20,30,33,085,23,1*6D
$GPGSV,3,2,10,05,15,232,,07,04,097,,14,49,042,,19,34,153,,1*6D
$GPGSV,3,3,10,20,,,,24,12,293,,1*5A
$GNGNS,191502.01,,,,,NNN,,,,,,*3C
$GPVTG,,T,,M,,N,,K,N*2C
$GPGSA,A,1,,,,,,,,,,,,,,,,*32
$GNGSA,A,1,,,,,,,,,,,,,,,,*2C
$GPGGA,,,,,,0,,,,,,,,*66
$GPRMC,,V,,,,,,,,,,N*53
$GLGSV,2,1,08,78,38,036,21,69,56,279,18,88,22,078,26,87,11,032,18,1*74
$GLGSV,2,2,08,68,39,195,24,70,09,333,,79,53,314,,81,11,130,,1*77
$PQGSV,4,1,15,02,20,116,,03,,,,05,34,137,,07,06,045,,0,4*58
$PQGSV,4,2,15,09,16,119,,10,27,049,,16,07,123,,19,36,213,,0,4*6A
$PQGSV,4,3,15,20,04,174,,21,04,324,,22,37,284,,27,27,088,,0,4*64
$PQGSV,4,4,15,28,08,040,,29,,,,30,21,144,,0,4*63
$GAGSV,1,1,02,04,52,298,,09,03,322,,7*78
$GPGSV,3,1,10,13,80,261,22,15,46,298,17,17,47,111,20,30,33,085,23,1*62
$GPGSV,3,2,10,05,15,232,,07,04,097,,14,49,042,,19,34,153,,1*6D
$GPGSV,3,3,10,20,,,,24,12,293,,1*5A
$GPGGA,191503.01,3645.876324,N,03124.670280,E,1,03,1.3,-6.7,M,32.0,M,,*49
$GNGNS,191503.01,3645.876324,N,03124.670280,E,AAN,08,1.3,-6.7,32.0,,,V*42
$GPVTG,300.5,T,296.9,M,1.3,N,2.3,K,A*22
$GPRMC,191503.01,A,3645.876324,N,03124.670280,E,1.3,300.5,110922,3.6,E,A,V*4E
$GPGSA,A,3,13,15,17,,,,,,,,,,2.9,1.3,2.6,1*22
$GNGSA,A,3,13,15,17,,,,,,,,,,2.9,1.3,2.6,1*3C
$GNGSA,A,3,78,69,88,87,68,,,,,,,,2.9,1.3,2.6,2*3E
$GNGSA,A,3,,,,,,,,,,,,,2.9,1.3,2.6,3*3E
$GLGSV,2,1,08,78,38,036,24,69,56,279,18,88,22,078,24,87,11,032,18,1*73
$GLGSV,2,2,08,68,39,195,22,70,09,333,,79,53,314,,81,11,130,,1*71
$PQGSV,4,1,15,02,20,116,,03,,,,05,34,137,,07,06,045,,0,4*58
$PQGSV,4,2,15,09,16,119,,10,27,049,,16,07,123,,19,36,213,,0,4*6A
$PQGSV,4,3,15,20,04,174,,21,04,324,,22,37,284,,27,27,088,,0,4*64
$PQGSV,4,4,15,28,08,040,,29,,,,30,21,144,,0,4*63
$GAGSV,1,1,02,04,52,298,,09,03,322,,7*78
$GPGSV,3,1,10,13,80,261,21,15,46,298,17,17,47,111,20,19,34,153,17,1*60
$GPGSV,3,2,10,30,33,085,23,05,15,232,,07,04,097,,14,49,042,,1*6A
$GPGSV,3,3,10,20,,,,24,12,293,,1*5A
$GPGGA,191504.01,3645.876678,N,03124.668626,E,1,04,1.1,-14.1,M,32.0,M,,*73
$GNGNS,191504.01,3645.876678,N,03124.668626,E,AAN,09,1.1,-14.1,32.0,,,V*7E
$GPVTG,300.5,T,296.9,M,1.0,N,1.9,K,A*28
$GPRMC,191504.01,A,3645.876678,N,03124.668626,E,1.0,300.5,110922,3.6,E,A,V*47
$GPGSA,A,3,13,15,17,19,,,,,,,,,2.7,1.1,2.4,1*24
$GNGSA,A,3,13,15,17,19,,,,,,,,,2.7,1.1,2.4,1*3A
$GNGSA,A,3,78,69,88,87,68,,,,,,,,2.7,1.1,2.4,2*30
$GNGSA,A,3,,,,,,,,,,,,,2.7,1.1,2.4,3*30
$GLGSV,2,1,08,78,38,036,24,69,56,279,16,88,22,078,24,87,11,032,18,1*7D
$GLGSV,2,2,08,68,39,195,26,70,09,333,,79,53,314,,81,11,130,,1*75
$PQGSV,4,1,15,02,20,116,,03,,,,05,34,137,,07,06,045,,0,4*58
$PQGSV,4,2,15,09,16,119,,10,27,049,,16,07,123,,19,36,213,,0,4*6A
$PQGSV,4,3,15,20,04,174,,21,04,324,,22,37,284,,27,27,088,,0,4*64
$PQGSV,4,4,15,28,08,040,,29,,,,30,21,144,,0,4*63
$GAGSV,1,1,02,04,52,298,,09,03,322,,7*78
$GPGSV,3,1,10,13,80,261,23,15,46,298,17,17,47,111,21,19,34,153,17,1*63
$GPGSV,3,2,10,30,33,085,23,05,15,232,,07,04,097,,14,49,042,,1*6A
$GPGSV,3,3,10,20,,,,24,12,293,,1*5A
$GPGGA,191504.99,3645.872798,N,03124.660214,E,1,04,1.3,-18.7,M,32.0,M,,*7C
$GNGNS,191504.99,3645.872798,N,03124.660214,E,AAN,08,1.3,-18.7,32.0,,,V*70
$GPVTG,300.5,T,296.9,M,0.3,N,0.6,K,A*24
$GPRMC,191504.99,A,3645.872798,N,03124.660214,E,0.3,300.5,110922,3.6,E,A,V*42
$GPGSA,A,3,13,15,17,19,,,,,,,,,3.9,1.3,3.7,1*2B
$GNGSA,A,3,13,15,17,19,,,,,,,,,3.9,1.3,3.7,1*35
$GNGSA,A,3,78,69,88,68,,,,,,,,,3.9,1.3,3.7,2*30
$GNGSA,A,3,,,,,,,,,,,,,3.9,1.3,3.7,3*3F
$GLGSV,2,1,08,78,38,036,24,69,56,279,21,88,22,078,19,87,11,032,18,1*77
$GLGSV,2,2,08,68,39,195,29,70,09,333,,79,53,314,,81,11,130,,1*7A
$PQGSV,4,1,15,02,20,116,,03,,,,05,34,137,,07,06,045,,0,4*58
$PQGSV,4,2,15,09,16,119,,10,27,049,,16,07,123,,19,36,213,,0,4*6A
$PQGSV,4,3,15,20,04,174,,21,04,324,,22,37,284,,27,27,088,,0,4*64
$PQGSV,4,4,15,28,08,040,,29,,,,30,21,144,,0,4*63
$GAGSV,1,1,02,04,52,298,,09,03,322,,7*78
$GPGSV,3,1,10,13,80,261,23,15,46,298,17,17,47,111,20,19,34,153,17,1*62
$GPGSV,3,2,10,30,33,085,23,05,15,232,,07,04,097,,14,49,042,,1*6A
$GPGSV,3,3,10,20,,,,24,12,293,,1*5A
$GPGGA,191505.99,3645.873653,N,03124.655942,E,1,04,1.3,-19.7,M,32.0,M,,*75
$GNGNS,191505.99,3645.873653,N,03124.655942,E,AAN,08,1.3,-19.7,32.0,,,V*79
$GPVTG,237.0,T,233.4,M,1.5,N,2.7,K,A*22
$GPRMC,191505.99,A,3645.873653,N,03124.655942,E,1.5,237.0,110922,3.6,E,A,V*4D
$GPGSA,A,3,13,15,17,19,,,,,,,,,3.9,1.3,3.7,1*2B
$GNGSA,A,3,13,15,17,19,,,,,,,,,3.9,1.3,3.7,1*35
$GNGSA,A,3,78,69,88,68,,,,,,,,,3.9,1.3,3.7,2*30
$GNGSA,A,3,,,,,,,,,,,,,3.9,1.3,3.7,3*3F
$GLGSV,2,1,08,78,38,036,18,69,56,279,21,88,22,078,21,87,11,032,18,1*73
$GLGSV,2,2,08,68,39,195,28,70,09,333,,79,53,314,,81,11,130,,1*7B
$PQGSV,4,1,15,02,20,116,,03,,,,05,34,137,,07,06,045,,0,4*58
$PQGSV,4,2,15,09,16,119,,10,27,049,,16,07,123,,19,36,213,,0,4*6A
$PQGSV,4,3,15,20,04,174,,21,04,324,,22,37,284,,27,27,088,,0,4*64
$PQGSV,4,4,15,28,08,040,,29,,,,30,21,144,,0,4*63
$GAGSV,1,1,02,04,52,298,,09,03,322,,7*78
$GPGSV,3,1,10,13,80,261,23,15,46,298,17,17,47,111,20,19,34,153,17,1*62
$GPGSV,3,2,10,30,33,085,23,05,15,232,,07,04,097,,14,49,042,,1*6A
$GPGSV,3,3,10,20,,,,24,12,293,,1*5A
$GPGGA,191506.99,3645.868875,N,03124.655730,E,1,04,1.3,-17.7,M,32.0,M,,*73
$GNGNS,191506.99,3645.868875,N,03124.655730,E,AAN,08,1.3,-17.7,32.0,,,V*7F
$GPVTG,237.0,T,233.4,M,0.8,N,1.6,K,A*2C
$GPRMC,191506.99,A,3645.868875,N,03124.655730,E,0.8,237.0,110922,3.6,E,A,V*49
$GPGSA,A,3,13,15,17,19,,,,,,,,,3.9,1.3,3.7,1*2B
$GNGSA,A,3,13,15,17,19,,,,,,,,,3.9,1.3,3.7,1*35
$GNGSA,A,3,78,69,88,68,,,,,,,,,3.9,1.3,3.7,2*30
$GNGSA,A,3,,,,,,,,,,,,,3.9,1.3,3.7,3*3F
$GLGSV,2,1,08,78,38,036,18,69,56,279,21,88,22,078,21,87,11,032,18,1*73
$GLGSV,2,2,08,68,39,195,27,70,09,333,,79,53,314,,81,11,130,,1*74
$PQGSV,4,1,15,02,20,116,,03,,,,05,34,137,,07,06,045,,0,4*58
$PQGSV,4,2,15,09,16,119,,10,27,049,,16,07,123,,19,36,213,,0,4*6A
$PQGSV,4,3,15,20,04,174,,21,04,324,,22,37,284,,27,27,088,,0,4*64
$PQGSV,4,4,15,28,08,040,,29,,,,30,21,144,,0,4*63
$GAGSV,1,1,02,04,52,298,,09,03,322,,7*78
$GPGSV,3,1,10,13,80,261,23,14,49,042,16,15,46,298,16,17,47,111,20,1*64
$GPGSV,3,2,10,19,34,153,17,30,33,085,23,05,15,232,,07,04,097,,1*6A
$GPGSV,3,3,10,20,,,,24,12,293,,1*5A
$GPGGA,191507.99,3645.869544,N,03124.656610,E,1,05,1.2,20.1,M,32.0,M,,*53
$GNGNS,191507.99,3645.869544,N,03124.656610,E,AAN,09,1.2,20.1,32.0,,,V*5F
$GPVTG,237.0,T,233.4,M,1.1,N,2.0,K,A*21
$GPRMC,191507.99,A,3645.869544,N,03124.656610,E,1.1,237.0,110922,3.6,E,A,V*4E
$GPGSA,A,3,13,14,15,17,19,,,,,,,,3.8,1.2,3.6,1*2F
$GNGSA,A,3,13,14,15,17,19,,,,,,,,3.8,1.2,3.6,1*31
$GNGSA,A,3,78,69,88,68,,,,,,,,,3.8,1.2,3.6,2*31
$GNGSA,A,3,,,,,,,,,,,,,3.8,1.2,3.6,3*3E
$GLGSV,2,1,08,78,38,036,18,69,56,279,21,88,22,078,21,87,11,032,18,1*73
$GLGSV,2,2,08,68,39,195,28,70,09,333,,79,53,314,,81,11,130,,1*7B
$PQGSV,4,1,15,02,20,116,,03,,,,05,34,137,,07,06,045,,0,4*58
$PQGSV,4,2,15,09,16,119,,10,27,049,,16,07,123,,19,36,213,,0,4*6A
$PQGSV,4,3,15,20,04,174,,21,04,324,,22,37,284,,27,27,088,,0,4*64
$PQGSV,4,4,15,28,08,040,,29,,,,30,21,144,,0,4*63
$GAGSV,1,1,02,04,52,298,,09,03,322,,7*78
$GPGSV,3,1,10,13,80,261,23,14,49,042,16,15,46,298,16,17,47,111,20,1*64
$GPGSV,3,2,10,19,34,153,20,30,33,085,23,05,15,232,,07,04,097,,1*6E
$GPGSV,3,3,10,20,,,,24,12,293,,1*5A
$GPGGA,191508.98,3645.861835,N,03124.651134,E,1,05,1.2,-2.3,M,32.0,M,,*47
$GNGNS,191508.98,3645.861835,N,03124.651134,E,AAN,09,1.2,-2.3,32.0,,,V*4B
$GPVTG,294.6,T,291.0,M,1.7,N,3.2,K,A*27
$GPRMC,191508.98,A,3645.861835,N,03124.651134,E,1.7,294.6,110922,3.6,E,A,V*4C
$GPGSA,A,3,13,14,15,17,19,,,,,,,,3.8,1.2,3.6,1*2F
$GNGSA,A,3,13,14,15,17,19,,,,,,,,3.8,1.2,3.6,1*31
$GNGSA,A,3,78,69,88,68,,,,,,,,,3.8,1.2,3.6,2*31
$GNGSA,A,3,,,,,,,,,,,,,3.8,1.2,3.6,3*3E
$GLGSV,2,1,08,78,38,036,21,69,56,279,21,88,22,078,20,87,11,032,18,1*78
$GLGSV,2,2,08,68,39,195,28,70,09,333,,79,53,314,,81,11,130,,1*7B
$PQGSV,4,1,15,02,20,116,,03,,,,05,34,137,,07,06,045,,0,4*58
$PQGSV,4,2,15,09,16,119,,10,27,049,,16,07,123,,19,36,213,,0,4*6A
$PQGSV,4,3,15,20,04,174,,21,04,324,,22,37,284,,27,27,088,,0,4*64
$PQGSV,4,4,15,28,08,040,,29,,,,30,21,144,,0,4*63
$GAGSV,1,1,02,04,52,298,,09,03,322,,7*78
$GPGSV,3,1,10,13,80,261,19,14,49,042,16,15,46,298,16,17,47,111,20,1*6D
$GPGSV,3,2,10,19,34,153,20,30,33,085,23,05,15,232,,07,04,097,,1*6E
$GPGSV,3,3,10,20,,,,24,12,293,,1*5A
$GPGGA,191509.98,3645.868327,N,03124.656607,E,1,05,1.2,42.2,M,32.0,M,,*5F
$GNGNS,191509.98,3645.868327,N,03124.656607,E,AAN,09,1.2,42.2,32.0,,,V*53
$GPVTG,268.2,T,264.5,M,2.1,N,3.8,K,A*20
$GPRMC,191509.98,A,3645.868327,N,03124.656607,E,2.1,268.2,110922,3.6,E,A,V*4E
$GPGSA,A,3,13,14,15,17,19,,,,,,,,3.8,1.2,3.6,1*2F
$GNGSA,A,3,13,14,15,17,19,,,,,,,,3.8,1.2,3.6,1*31
$GNGSA,A,3,78,69,88,68,,,,,,,,,3.8,1.2,3.6,2*31
$GNGSA,A,3,,,,,,,,,,,,,3.8,1.2,3.6,3*3E
$GLGSV,2,1,08,78,38,036,20,69,56,279,18,88,22,078,20,87,11,032,18,1*73
$GLGSV,2,2,08,68,39,195,25,70,09,333,,79,53,314,,81,11,130,,1*76
$PQGSV,4,1,14,02,20,116,,03,,,,05,34,137,,07,06,045,,0,4*59
$PQGSV,4,2,14,09,16,119,,10,27,049,,19,36,213,,20,04,174,,0,4*6F
$PQGSV,4,3,14,21,04,324,,22,37,284,,27,27,088,,28,08,040,,0,4*67
$PQGSV,4,4,14,29,,,,30,21,144,,0,4*54
$GAGSV,1,1,02,04,52,298,,09,03,322,,7*78
$GPGSV,3,1,10,13,80,261,21,14,49,042,16,15,46,298,16,17,47,111,20,1*66
$GPGSV,3,2,10,19,34,153,20,30,33,085,23,05,15,232,,07,04,097,,1*6E
$GPGSV,3,3,10,20,,,,24,12,293,,1*5A
$GPGGA,191510.98,3645.870025,N,03124.650833,E,1,05,1.2,-29.8,M,32.0,M,,*7A
$GNGNS,191510.98,3645.870025,N,03124.650833,E,AAN,09,1.2,-29.8,32.0,,,V*76
$GPVTG,268.2,T,264.5,M,1.1,N,2.1,K,A*2B
$GPRMC,191510.98,A,3645.870025,N,03124.650833,E,1.1,268.2,110922,3.6,E,A,V*42
$GPGSA,A,3,13,14,15,17,19,,,,,,,,3.8,1.2,3.6,1*2F
$GNGSA,A,3,13,14,15,17,19,,,,,,,,3.8,1.2,3.6,1*31
$GNGSA,A,3,78,69,88,68,,,,,,,,,3.8,1.2,3.6,2*31
$GNGSA,A,3,,,,,,,,,,,,,3.8,1.2,3.6,3*3E
$GLGSV,2,1,08,78,38,036,20,69,56,279,18,88,22,078,26,87,11,032,18,1*75
$GLGSV,2,2,08,68,39,195,25,70,09,333,,79,53,314,,81,11,130,,1*76
$PQGSV,4,1,15,02,20,116,,03,,,,05,34,137,,07,06,045,,0,4*58
$PQGSV,4,2,15,09,16,119,,10,27,049,,16,07,123,,19,36,213,,0,4*6A
$PQGSV,4,3,15,20,04,174,,21,04,324,,22,37,284,,27,27,088,,0,4*64
$PQGSV,4,4,15,28,08,040,,29,,,,30,21,144,,0,4*63
$GAGSV,1,1,02,04,52,298,,09,03,322,,7*78
$GPGSV,3,1,10,13,80,261,21,14,49,042,16,15,46,298,16,17,47,111,18,1*6D
$GPGSV,3,2,10,19,34,153,20,30,33,085,23,05,15,232,,07,04,097,,1*6E
$GPGSV,3,3,10,20,,,,24,12,293,,1*5A
$GPGGA,191511.98,3645.869415,N,03124.643007,E,1,05,1.2,-50.4,M,32.0,M,,*7B
$GNGNS,191511.98,3645.869415,N,03124.643007,E,AAN,09,1.2,-50.4,32.0,,,V*77
$GPVTG,132.8,T,129.1,M,4.1,N,7.5,K,A*27
$GPRMC,191511.98,A,3645.869415,N,03124.643007,E,4.1,132.8,110922,3.6,E,A,V*42
$GPGSA,A,3,13,14,15,17,19,,,,,,,,3.8,1.2,3.6,1*2F
$GNGSA,A,3,13,14,15,17,19,,,,,,,,3.8,1.2,3.6,1*31
$GNGSA,A,3,78,69,88,68,,,,,,,,,3.8,1.2,3.6,2*31
$GNGSA,A,3,,,,,,,,,,,,,3.8,1.2,3.6,3*3E
$GLGSV,2,1,08,78,38,036,24,69,56,279,18,88,22,078,25,87,11,032,18,1*72
$GLGSV,2,2,08,68,39,195,25,70,09,333,,79,53,314,,81,11,130,,1*76
$PQGSV,4,1,15,02,20,116,,03,,,,05,34,137,,07,06,045,,0,4*58
$PQGSV,4,2,15,09,16,119,,10,27,049,,16,07,123,,19,36,213,,0,4*6A
$PQGSV,4,3,15,20,04,174,,21,04,324,,22,37,284,,27,27,088,,0,4*64
$PQGSV,4,4,15,28,08,040,,29,,,,30,21,144,,0,4*63
$GAGSV,1,1,02,04,52,298,,09,03,322,,7*78
$GPGSV,3,1,10,13,80,261,21,14,49,042,19,15,46,298,16,17,47,111,18,1*62
$GPGSV,3,2,10,19,34,153,19,30,33,085,23,05,15,232,,07,04,097,,1*64
$GPGSV,3,3,10,20,,,,24,12,293,,1*5A
$GPGGA,191512.98,3645.866617,N,03124.641535,E,1,05,1.2,-6.0,M,32.0,M,,*46
$GNGNS,191512.98,3645.866617,N,03124.641535,E,AAN,09,1.2,-6.0,32.0,,,V*4A
$GPVTG,128.0,T,124.4,M,2.8,N,5.3,K,A*27
$GPRMC,191512.98,A,3645.866617,N,03124.641535,E,2.8,128.0,110922,3.6,E,A,V*44
$GPGSA,A,3,13,14,15,17,19,,,,,,,,3.8,1.2,3.6,1*2F
$GNGSA,A,3,13,14,15,17,19,,,,,,,,3.8,1.2,3.6,1*31
$GNGSA,A,3,78,69,88,68,,,,,,,,,3.8,1.2,3.6,2*31
$GNGSA,A,3,,,,,,,,,,,,,3.8,1.2,3.6,3*3E
$GLGSV,2,1,08,78,38,036,23,69,56,279,18,88,22,078,26,87,11,032,18,1*76
$GLGSV,2,2,08,68,39,195,25,70,09,333,,79,53,314,,81,11,130,,1*76
$PQGSV,4,1,15,02,20,116,,03,,,,05,34,137,,07,06,045,,0,4*58
$PQGSV,4,2,15,09,16,119,,10,27,049,,16,07,123,,19,36,213,,0,4*6A
$PQGSV,4,3,15,20,04,174,,21,04,324,,22,37,284,,27,27,088,,0,4*64
$PQGSV,4,4,15,28,08,040,,29,,,,30,21,144,,0,4*63
$GAGSV,1,1,02,04,52,298,,09,03,322,,7*78
$GPGSV,3,1,10,13,80,261,21,14,49,042,19,15,46,298,16,17,47,111,18,1*62
$GPGSV,3,2,10,19,34,153,23,30,33,085,23,05,15,232,,07,04,097,,1*6D
$GPGSV,3,3,10,20,,,,24,12,293,,1*5A
$GPGGA,191513.98,3645.868197,N,03124.636877,E,1,05,1.2,0.6,M,32.0,M,,*60
$GNGNS,191513.98,3645.868197,N,03124.636877,E,AAN,09,1.2,0.6,32.0,,,V*6C
$GPVTG,128.0,T,124.4,M,1.2,N,2.2,K,A*28
$GPRMC,191513.98,A,3645.868197,N,03124.636877,E,1.2,128.0,110922,3.6,E,A,V*46
$GPGSA,A,3,13,14,15,17,19,,,,,,,,3.8,1.2,3.6,1*2F
$GNGSA,A,3,13,14,15,17,19,,,,,,,,3.8,1.2,3.6,1*31
$GNGSA,A,3,78,69,88,68,,,,,,,,,3.8,1.2,3.6,2*31
$GNGSA,A,3,,,,,,,,,,,,,3.8,1.2,3.6,3*3E
$GLGSV,2,1,08,78,38,036,23,69,56,279,18,88,22,078,24,87,11,032,18,1*74
$GLGSV,2,2,08,68,39,195,25,70,09,333,,79,53,314,,81,11,130,,1*76
$PQGSV,4,1,15,02,20,116,,03,,,,05,34,137,,07,06,045,,0,4*58
$PQGSV,4,2,15,09,16,119,,10,27,049,,16,07,123,,19,36,213,,0,4*6A
$PQGSV,4,3,15,20,04,174,,21,04,324,,22,37,284,,27,27,088,,0,4*64
$PQGSV,4,4,15,28,08,040,,29,,,,30,21,144,,0,4*63
$GAGSV,1,1,02,04,52,298,,09,03,322,,7*78
$GPGSV,3,1,10,13,80,261,21,14,49,042,19,15,46,298,16,17,47,111,18,1*62
$GPGSV,3,2,10,19,34,153,23,30,33,085,23,05,15,232,,07,04,097,,1*6D
$GPGSV,3,3,10,20,,,,24,12,293,,1*5A
$GPGGA,191514.98,3645.861138,N,03124.634745,E,1,05,1.2,-7.4,M,32.0,M,,*4F
$GNGNS,191514.98,3645.861138,N,03124.634745,E,AAN,09,1.2,-7.4,32.0,,,V*43
$GPVTG,122.3,T,118.7,M,2.7,N,5.0,K,A*2E
$GPRMC,191514.98,A,3645.861138,N,03124.634745,E,2.7,122.3,110922,3.6,E,A,V*4E
$GPGSA,A,3,13,14,15,17,19,,,,,,,,3.8,1.2,3.6,1*2F
$GNGSA,A,3,13,14,15,17,19,,,,,,,,3.8,1.2,3.6,1*31
$GNGSA,A,3,78,69,88,68,,,,,,,,,3.8,1.2,3.6,2*31
$GNGSA,A,3,,,,,,,,,,,,,3.8,1.2,3.6,3*3E
$GLGSV,2,1,08,78,38,036,25,69,56,279,18,88,22,078,24,87,11,032,18,1*72
$GLGSV,2,2,08,68,39,195,25,70,09,333,,79,53,314,,81,11,130,,1*76
$PQGSV,4,1,15,02,20,116,,03,,,,05,34,137,,07,06,045,,0,4*58
$PQGSV,4,2,15,09,16,119,,10,27,049,,16,07,123,,19,36,213,,0,4*6A
$PQGSV,4,3,15,20,04,174,,21,04,324,,22,37,284,,27,27,088,,0,4*64
$PQGSV,4,4,15,28,08,040,,29,,,,30,21,144,,0,4*63
$GAGSV,1,1,02,04,52,298,,09,03,322,,7*78
$GPGSV,3,1,10,13,80,261,21,14,49,042,19,15,46,298,16,17,47,111,18,1*62
$GPGSV,3,2,10,19,34,153,20,30,33,085,23,05,15,232,,07,04,097,,1*6E
$GPGSV,3,3,10,20,,,,24,12,293,,1*5A
$GPGGA,191515.98,3645.868139,N,03124.632383,E,1,04,2.0,-99.4,M,32.0,M,,*79
$GNGNS,191515.98,3645.868139,N,03124.632383,E,AAN,08,2.0,-99.4,32.0,,,V*75
$GPVTG,154.9,T,151.3,M,2.9,N,5.4,K,A*26
$GPRMC,191515.98,A,3645.868139,N,03124.632383,E,2.9,154.9,110922,3.6,E,A,V*4A
$GPGSA,A,3,13,14,17,19,,,,,,,,,3.6,2.0,3.0,1*22
$GNGSA,A,3,13,14,17,19,,,,,,,,,3.6,2.0,3.0,1*3C
$GNGSA,A,3,78,88,87,68,,,,,,,,,3.6,2.0,3.0,2*38
$GNGSA,A,3,,,,,,,,,,,,,3.6,2.0,3.0,3*37
$GLGSV,2,1,08,78,38,037,22,69,56,279,18,88,23,078,25,87,11,032,18,1*74
$GLGSV,2,2,08,68,39,195,25,70,09,333,,79,53,314,,81,11,130,,1*76
$PQGSV,4,1,15,02,20,116,,03,,,,05,34,137,,07,06,045,,0,4*58
$PQGSV,4,2,15,09,16,119,,10,27,049,,16,07,123,,19,36,213,,0,4*6A
$PQGSV,4,3,15,20,04,174,,21,04,324,,22,37,284,,27,27,087,,0,4*6B
$PQGSV,4,4,15,28,08,040,,29,,,,30,21,144,,0,4*63
$GAGSV,1,1,02,04,52,298,,09,03,322,,7*78
$GPGSV,3,1,10,13,80,261,21,14,49,043,19,15,47,298,16,17,48,111,18,1*6D
$GPGSV,3,2,10,19,34,153,20,30,33,085,23,05,15,232,,07,04,097,,1*6E
$GPGSV,3,3,10,20,,,,24,12,293,,1*5A
$GPGGA,191516.98,3645.874753,N,03124.635752,E,1,04,2.0,-49.1,M,32.0,M,,*7A
$GNGNS,191516.98,3645.874753,N,03124.635752,E,AAN,08,2.0,-49.1,32.0,,,V*76
$GPVTG,265.0,T,261.4,M,5.5,N,10.1,K,A*13
$GPRMC,191516.98,A,3645.874753,N,03124.635752,E,5.5,265.0,110922,3.6,E,A,V*42
$GPGSA,A,3,13,14,17,19,,,,,,,,,3.6,2.0,3.0,1*22
$GNGSA,A,3,13,14,17,19,,,,,,,,,3.6,2.0,3.0,1*3C
$GNGSA,A,3,78,88,87,68,,,,,,,,,3.6,2.0,3.0,2*38
$GNGSA,A,3,,,,,,,,,,,,,3.6,2.0,3.0,3*37
$GLGSV,2,1,08,78,38,037,24,69,56,279,18,88,23,078,25,87,11,032,18,1*72
$GLGSV,2,2,08,68,39,195,25,70,09,333,,79,53,314,,81,11,130,,1*76
$PQGSV,4,1,15,02,20,116,,03,,,,05,34,137,,07,06,045,,0,4*58
$PQGSV,4,2,15,09,16,119,,10,27,049,,16,07,123,,19,36,213,,0,4*6A
$PQGSV,4,3,15,20,04,174,,21,04,324,,22,37,284,,27,27,087,,0,4*6B
$PQGSV,4,4,15,28,08,040,,29,,,,30,21,144,,0,4*63
$GAGSV,1,1,02,04,52,298,,09,03,322,,7*78
$GPGSV,3,1,10,13,80,261,21,14,49,043,19,15,47,298,16,17,48,111,18,1*6D
$GPGSV,3,2,10,19,34,153,20,30,33,085,23,05,15,232,,07,04,097,,1*6E
$GPGSV,3,3,10,20,,,,24,12,293,,1*5A
$GNGNS,191518.00,,,,,NNN,,,,,,*36
$GPVTG,,T,,M,,N,,K,N*2C
$GPGSA,A,1,,,,,,,,,,,,,,,,*32
$GNGSA,A,1,,,,,,,,,,,,,,,,*2C
$GPGGA,,,,,,0,,,,,,,,*66
$GPRMC,,V,,,,,,,,,,N*53
$GLGSV,2,1,08,78,38,037,23,69,56,279,18,88,23,078,26,87,11,032,18,1*76
$GLGSV,2,2,08,68,39,195,25,70,09,333,,79,53,314,,81,11,130,,1*76
$PQGSV,4,1,15,02,20,116,,03,,,,05,34,137,,07,06,045,,0,4*58
$PQGSV,4,2,15,09,16,119,,10,27,049,,16,07,123,,19,36,213,,0,4*6A
$PQGSV,4,3,15,20,04,174,,21,04,324,,22,37,284,,27,27,087,,0,4*6B
$PQGSV,4,4,15,28,08,040,,29,,,,30,21,144,,0,4*63
$GAGSV,1,1,02,04,52,298,,09,03,322,,7*78
$GPGSV,3,1,10,13,80,261,21,14,49,043,21,15,47,298,16,17,48,111,18,1*66
$GPGSV,3,2,10,19,34,153,19,30,33,085,23,05,15,232,,07,04,097,,1*64
$GPGSV,3,3,10,20,,,,24,12,293,,1*5A
$GNGNS,191519.00,,,,,NNN,,,,,,*37
$GPVTG,,T,,M,,N,,K,N*2C
$GPGSA,A,1,,,,,,,,,,,,,,,,*32
$GNGSA,A,1,,,,,,,,,,,,,,,,*2C
$GPGGA,,,,,,0,,,,,,,,*66
$GPRMC,,V,,,,,,,,,,N*53
$GLGSV,2,1,08,78,38,037,20,69,56,279,18,88,23,078,26,87,11,032,18,1*75
$GLGSV,2,2,08,68,39,195,25,70,09,333,,79,53,314,,81,11,130,,1*76
$PQGSV,4,1,15,02,20,116,,03,,,,05,34,137,,07,06,045,,0,4*58
$PQGSV,4,2,15,09,16,119,,10,27,049,,16,07,123,,19,36,213,,0,4*6A
$PQGSV,4,3,15,20,04,174,,21,04,324,,22,37,284,,27,27,087,,0,4*6B
$PQGSV,4,4,15,28,08,040,,29,,,,30,21,144,,0,4*63
$GAGSV,1,1,02,04,52,298,,09,03,322,,7*78
$GPGSV,3,1,10,13,80,261,21,14,49,043,21,15,47,298,16,17,48,111,18,1*66
$GPGSV,3,2,10,19,34,153,19,05,15,232,,07,04,097,,20,,,,1*59
$GPGSV,3,3,10,24,12,293,,30,33,085,,1*66
$GNGNS,191520.00,,,,,NNN,,,,,,*3D
$GPVTG,,T,,M,,N,,K,N*2C
$GPGSA,A,1,,,,,,,,,,,,,,,,*32
$GNGSA,A,1,,,,,,,,,,,,,,,,*2C
$GPGGA,,,,,,0,,,,,,,,*66
$GPRMC,,V,,,,,,,,,,N*53
$GLGSV,2,1,08,78,38,037,22,69,56,279,18,88,23,078,24,87,11,032,18,1*75
$GLGSV,2,2,08,68,39,195,25,70,09,333,,79,53,314,,81,11,130,,1*76
$PQGSV,4,1,15,02,20,116,,03,,,,05,34,137,,07,06,045,,0,4*58
$PQGSV,4,2,15,09,16,119,,10,27,049,,16,07,123,,19,36,213,,0,4*6A
$PQGSV,4,3,15,20,04,174,,21,04,324,,22,37,284,,27,27,087,,0,4*6B
$PQGSV,4,4,15,28,08,040,,29,,,,30,21,144,,0,4*63
$GAGSV,1,1,01,04,52,298,,7*42
$GPGSV,3,1,10,13,80,261,21,14,49,043,20,15,47,298,16,17,48,111,18,1*67
$GPGSV,3,2,10,19,34,153,19,05,15,232,,07,04,097,,20,,,,1*59
$GPGSV,3,3,10,24,12,293,,30,33,085,,1*66
$GNGNS,191521.00,,,,,NNN,,,,,,*3C
$GPVTG,,T,,M,,N,,K,N*2C
$GPGSA,A,1,,,,,,,,,,,,,,,,*32
$GNGSA,A,1,,,,,,,,,,,,,,,,*2C
$GPGGA,,,,,,0,,,,,,,,*66
$GPRMC,,V,,,,,,,,,,N*53
$GLGSV,2,1,08,78,38,037,21,69,56,279,18,88,23,078,24,87,11,032,16,1*78
$GLGSV,2,2,08,68,39,195,25,70,09,333,,79,53,314,,81,11,130,,1*76
$PQGSV,4,1,15,02,20,116,,03,,,,05,34,137,,07,06,045,,0,4*58
$PQGSV,4,2,15,09,16,119,,10,27,049,,16,07,123,,19,36,213,,0,4*6A
$PQGSV,4,3,15,20,04,174,,21,04,324,,22,37,284,,27,27,087,,0,4*6B
$PQGSV,4,4,15,28,08,040,,29,,,,30,21,144,,0,4*63
$GAGSV,1,1,02,04,52,298,,09,03,322,,7*78
$GPGSV,3,1,10,13,80,261,21,14,49,043,20,15,47,298,16,17,48,111,18,1*67
$GPGSV,3,2,10,19,34,153,19,05,15,232,,07,04,097,,20,,,,1*59
$GPGSV,3,3,10,24,12,293,,30,33,085,,1*66
$GNGNS,191522.00,,,,,NNN,,,,,,*3F
$GPVTG,,T,,M,,N,,K,N*2C
$GPGSA,A,1,,,,,,,,,,,,,,,,*32
$GNGSA,A,1,,,,,,,,,,,,,,,,*2C
$GPGGA,,,,,,0,,,,,,,,*66
$GPRMC,,V,,,,,,,,,,N*53
$GLGSV,2,1,08,78,38,037,22,69,56,279,18,88,23,078,21,87,11,032,16,1*7E
$GLGSV,2,2,08,68,39,195,25,70,09,331,,79,53,314,,81,11,130,,1*74
$PQGSV,4,1,15,02,20,116,,03,,,,05,34,137,,07,06,045,,0,4*58
$PQGSV,4,2,15,09,16,119,,10,27,049,,16,07,123,,19,36,213,,0,4*6A
$PQGSV,4,3,15,20,04,174,,21,04,324,,22,37,284,,27,27,087,,0,4*6B
$PQGSV,4,4,15,28,08,040,,29,,,,30,21,144,,0,4*63
$GAGSV,1,1,02,04,52,298,,09,04,322,,7*7F
$GPGSV,3,1,11,13,80,261,15,14,49,043,21,15,47,298,16,17,48,111,20,1*6B
$GPGSV,3,2,11,19,34,153,19,05,15,232,,07,04,097,,12,,,,1*59
$GPGSV,3,3,11,20,,,,24,12,293,,30,33,085,,1*65
$GNGNS,191522.98,,,,,NNN,,,,,,*3E
$GPVTG,,T,,M,,N,,K,N*2C
$GPGSA,A,1,,,,,,,,,,,,,,,,*32
$GNGSA,A,1,,,,,,,,,,,,,,,,*2C
$GPGGA,,,,,,0,,,,,,,,*66
$GPRMC,,V,,,,,,,,,,N*53
$GLGSV,2,1,08,78,38,037,21,69,56,279,18,88,23,078,24,87,11,032,16,1*78
$GLGSV,2,2,08,68,39,195,25,70,09,331,,79,53,314,,81,11,130,,1*74
$PQGSV,4,1,15,02,20,116,,03,,,,05,34,137,,07,06,045,,0,4*58
$PQGSV,4,2,15,09,16,119,,10,27,049,,16,07,123,,19,36,213,,0,4*6A
$PQGSV,4,3,15,20,04,174,,21,04,324,,22,37,284,,27,27,087,,0,4*6B
$PQGSV,4,4,15,28,08,040,,29,,,,30,21,144,,0,4*63
$GAGSV,1,1,02,04,52,298,,09,04,322,,7*7F
$GPGSV,3,1,11,13,80,261,15,14,49,043,21,15,47,298,16,17,48,111,20,1*6B
$GPGSV,3,2,11,19,34,153,19,05,15,232,,07,04,097,,12,,,,1*59
$GPGSV,3,3,11,20,,,,24,12,293,,30,33,085,,1*65
$GNGNS,191523.98,,,,,NNN,,,,,,*3F
$GPVTG,,T,,M,,N,,K,N*2C
$GPGSA,A,1,,,,,,,,,,,,,,,,*32
$GNGSA,A,1,,,,,,,,,,,,,,,,*2C
$GPGGA,,,,,,0,,,,,,,,*66
$GPRMC,,V,,,,,,,,,,N*53
$GLGSV,2,1,08,78,38,037,22,69,56,279,18,88,23,078,22,87,11,032,16,1*7D
$GLGSV,2,2,08,68,39,195,25,70,09,331,,79,53,314,,81,11,130,,1*74
$PQGSV,4,1,15,02,20,116,,03,,,,05,34,137,,07,06,045,,0,4*58
$PQGSV,4,2,15,09,16,119,,10,27,049,,16,07,123,,19,36,213,,0,4*6A
$PQGSV,4,3,15,20,04,174,,21,04,324,,22,37,284,,27,27,087,,0,4*6B
$PQGSV,4,4,15,28,08,040,,29,,,,30,21,144,,0,4*63
$GAGSV,1,1,02,04,52,298,,09,04,322,,7*7F
$GPGSV,3,1,11,13,80,261,15,14,49,043,21,15,47,298,16,17,48,111,20,1*6B
$GPGSV,3,2,11,19,34,153,19,05,15,232,,07,04,097,,12,,,,1*59
$GPGSV,3,3,11,20,,,,24,12,293,,30,33,085,,1*65
$GNGNS,191524.98,,,,,NNN,,,,,,*38
$GPVTG,,T,,M,,N,,K,N*2C
$GPGSA,A,1,,,,,,,,,,,,,,,,*32
$GNGSA,A,1,,,,,,,,,,,,,,,,*2C
$GPGGA,,,,,,0,,,,,,,,*66
$GPRMC,,V,,,,,,,,,,N*53
$GLGSV,2,1,08,78,38,037,21,79,53,314,18,69,56,279,18,88,23,078,24,1*76
$GLGSV,2,2,08,87,11,032,16,68,39,195,25,70,09,331,,81,11,130,,1*73
$PQGSV,4,1,15,02,20,116,,03,,,,05,34,137,,07,06,045,,0,4*58
$PQGSV,4,2,15,09,16,119,,10,27,049,,16,07,123,,19,36,213,,0,4*6A
$PQGSV,4,3,15,20,04,174,,21,04,324,,22,37,284,,27,27,087,,0,4*6B
$PQGSV,4,4,15,28,08,040,,29,,,,30,21,144,,0,4*63
$GAGSV,1,1,02,04,52,298,,09,04,322,,7*7F
$GPGSV,3,1,11,13,80,261,15,14,49,043,21,15,47,298,16,17,48,111,20,1*6B
$GPGSV,3,2,11,19,34,153,19,05,15,232,,07,04,097,,12,,,,1*59
$GPGSV,3,3,11,20,,,,24,12,293,,30,33,085,,1*65
$GPGGA,191525.98,3645.766186,N,03124.645830,E,1,04,4.1,-249.9,M,32.0,M,,*49
$GNGNS,191525.98,3645.766186,N,03124.645830,E,AAN,08,4.1,-249.9,32.0,,,V*45
$GPVTG,234.2,T,230.6,M,6.5,N,12.1,K,A*12
$GPRMC,191525.98,A,3645.766186,N,03124.645830,E,6.5,234.2,110922,3.6,E,A,V*49
$GPGSA,A,3,13,14,17,19,,,,,,,,,5.3,4.1,3.3,1*25
$GNGSA,A,3,13,14,17,19,,,,,,,,,5.3,4.1,3.3,1*3B
$GNGSA,A,3,78,79,88,87,,,,,,,,,5.3,4.1,3.3,2*3F
$GNGSA,A,3,,,,,,,,,,,,,5.3,4.1,3.3,3*30
$GLGSV,2,1,08,78,38,037,20,79,53,314,18,69,56,279,18,88,23,078,22,1*71
$GLGSV,2,2,08,87,11,032,17,68,39,195,25,70,09,331,,81,11,130,,1*72
$PQGSV,4,1,15,02,20,116,,03,,,,05,34,137,,07,06,045,,0,4*58
$PQGSV,4,2,15,09,16,119,,10,27,049,,16,07,123,,19,36,213,,0,4*6A
$PQGSV,4,3,15,20,04,174,,21,04,324,,22,37,284,,27,27,087,,0,4*6B
$PQGSV,4,4,15,28,08,040,,29,,,,30,21,144,,0,4*63
$GAGSV,1,1,02,04,52,298,,09,04,322,,7*7F
$GPGSV,3,1,11,13,80,261,15,14,49,043,21,15,47,298,16,17,48,111,18,1*60
$GPGSV,3,2,11,19,34,153,19,05,15,232,,07,04,097,,12,,,,1*59
$GPGSV,3,3,11,20,,,,24,12,293,,30,33,085,,1*65
$GNGNS,191526.98,,,,,NNN,,,,,,*3A
$GPVTG,,T,,M,,N,,K,N*2C
$GPGSA,A,1,,,,,,,,,,,,,,,,*32
$GNGSA,A,1,,,,,,,,,,,,,,,,*2C
$GPGGA,,,,,,0,,,,,,,,*66
$GPRMC,,V,,,,,,,,,,N*53
$GLGSV,2,1,08,78,38,037,22,79,53,314,17,69,56,279,18,88,23,078,24,1*7A
$GLGSV,2,2,08,87,11,032,17,68,39,195,25,70,09,331,,81,11,130,,1*72
$PQGSV,4,1,15,02,20,116,,03,,,,05,34,137,,07,06,045,,0,4*58
$PQGSV,4,2,15,09,16,119,,10,27,049,,16,07,123,,19,36,213,,0,4*6A
$PQGSV,4,3,15,20,04,174,,21,04,324,,22,37,284,,27,27,087,,0,4*6B
$PQGSV,4,4,15,28,08,040,,29,,,,30,21,144,,0,4*63
$GAGSV,1,1,02,04,52,298,,09,04,322,,7*7F
$GPGSV,3,1,11,13,80,261,15,14,49,043,20,17,48,111,18,19,34,153,19,1*62
$GPGSV,3,2,11,05,15,232,,07,04,097,,12,,,,15,47,298,,1*5D
$GPGSV,3,3,11,20,,,,24,12,293,,30,33,085,,1*65
$GPGGA,191527.98,3645.813738,N,03124.669044,E,1,03,3.8,-78.4,M,32.0,M,,*74
$GNGNS,191527.98,3645.813738,N,03124.669044,E,AAN,07,3.8,-78.4,32.0,,,V*70
$GPVTG,271.4,T,267.8,M,4.5,N,8.3,K,A*22
$GPRMC,191527.98,A,3645.813738,N,03124.669044,E,4.5,271.4,110922,3.6,E,A,V*45
$GPGSA,A,3,13,14,17,,,,,,,,,,4.0,3.8,1.0,1*20
$GNGSA,A,3,13,14,17,,,,,,,,,,4.0,3.8,1.0,1*3E
$GNGSA,A,3,78,79,88,87,,,,,,,,,4.0,3.8,1.0,2*32
$GNGSA,A,3,,,,,,,,,,,,,4.0,3.8,1.0,3*3D
$GLGSV,2,1,08,78,38,037,22,79,53,314,17,69,56,279,18,88,23,078,23,1*7D
$GLGSV,2,2,08,87,11,032,17,68,39,195,16,70,09,331,,81,11,130,,1*72
$PQGSV,4,1,15,02,20,116,,03,,,,05,34,137,,07,06,045,,0,4*58
$PQGSV,4,2,15,09,16,119,,10,27,049,,16,07,123,,19,36,213,,0,4*6A
$PQGSV,4,3,15,20,04,174,,21,04,324,,22,37,284,,27,27,087,,0,4*6B
$PQGSV,4,4,15,28,08,040,,29,,,,30,21,144,,0,4*63
$GAGSV,1,1,02,04,52,298,,09,04,322,,7*7F
$GPGSV,3,1,11,13,80,261,15,14,49,043,20,17,48,111,18,19,34,153,19,1*62
$GPGSV,3,2,11,05,15,232,,07,04,097,,12,,,,15,47,298,,1*5D
$GPGSV,3,3,11,20,,,,24,12,293,,30,33,085,,1*65
$GPGGA,191528.98,3645.854306,N,03124.706287,E,1,03,1.6,37.8,M,32.0,M,,*52
$GNGNS,191528.98,3645.854306,N,03124.706287,E,AAN,08,1.6,37.8,32.0,,,V*59
$GPVTG,271.4,T,267.8,M,1.2,N,2.3,K,A*2A
$GPRMC,191528.98,A,3645.854306,N,03124.706287,E,1.2,271.4,110922,3.6,E,A,V*47
$GPGSA,A,3,13,14,17,,,,,,,,,,3.8,1.6,3.4,1*25
$GNGSA,A,3,13,14,17,,,,,,,,,,3.8,1.6,3.4,1*3B
$GNGSA,A,3,78,79,88,87,68,,,,,,,,3.8,1.6,3.4,2*39
$GNGSA,A,3,,,,,,,,,,,,,3.8,1.6,3.4,3*38
$GLGSV,2,1,08,78,38,037,20,79,53,314,17,69,56,279,18,88,23,078,22,1*7E
$GLGSV,2,2,08,87,11,032,18,81,11,130,17,68,39,195,16,70,09,331,,1*7B
$PQGSV,4,1,15,02,20,116,,03,,,,05,34,137,,07,06,045,,0,4*58
$PQGSV,4,2,15,09,16,119,,10,27,049,,16,07,123,,19,36,213,,0,4*6A
$PQGSV,4,3,15,20,04,174,,21,04,324,,22,37,284,,27,27,087,,0,4*6B
$PQGSV,4,4,15,28,08,040,,29,,,,30,21,144,,0,4*63
$GAGSV,1,1,02,04,52,298,,09,04,322,,7*7F
$GPGSV,3,1,11,13,80,261,15,14,49,043,21,17,48,111,19,19,34,153,17,1*6C
$GPGSV,3,2,11,05,15,232,,07,04,097,,12,,,,15,47,298,,1*5D
$GPGSV,3,3,11,20,,,,24,12,293,,30,33,085,,1*65
$GPGGA,191529.98,3645.848341,N,03124.657876,E,1,04,1.5,-103.5,M,32.0,M,,*4E
$GNGNS,191529.98,3645.848341,N,03124.657876,E,AAN,10,1.5,-103.5,32.0,,,V*4B
$GPVTG,254.7,T,251.1,M,4.3,N,7.9,K,A*29
$GPRMC,191529.98,A,3645.848341,N,03124.657876,E,4.3,254.7,110922,3.6,E,A,V*49
$GPGSA,A,3,13,14,17,19,,,,,,,,,3.2,1.5,2.8,1*29
$GNGSA,A,3,13,14,17,19,,,,,,,,,3.2,1.5,2.8,1*37
$GNGSA,A,3,78,79,88,87,81,68,,,,,,,3.2,1.5,2.8,2*34
$GNGSA,A,3,,,,,,,,,,,,,3.2,1.5,2.8,3*3C
$GLGSV,2,1,08,78,38,037,21,79,53,314,17,69,56,279,18,88,23,078,24,1*79
$GLGSV,2,2,08,87,11,032,18,81,11,130,17,68,38,195,16,70,10,331,,1*72
$PQGSV,4,1,15,02,20,116,,03,,,,05,34,137,,07,06,045,,0,4*58
$PQGSV,4,2,15,09,16,119,,10,27,049,,16,07,123,,19,36,213,,0,4*6A
$PQGSV,4,3,15,20,04,174,,21,04,324,,22,37,284,,27,27,087,,0,4*6B
$PQGSV,4,4,15,28,08,040,,29,,,,30,21,144,,0,4*63
$GAGSV,1,1,02,04,52,298,,09,04,322,,7*7F
$GPGSV,3,1,11,13,80,260,15,14,49,043,21,17,48,109,19,19,35,153,17,1*65
$GPGSV,3,2,11,05,15,232,,07,04,097,,12,,,,15,47,298,,1*5D
$GPGSV,3,3,11,20,,,,24,12,293,,30,33,085,,1*65
$GPGGA,191530.98,3645.850151,N,03124.651134,E,1,03,1.5,-114.9,M,32.0,M,,*48
$GNGNS,191530.98,3645.850151,N,03124.651134,E,AAN,09,1.5,-114.9,32.0,,,V*42
$GPVTG,274.9,T,271.2,M,3.4,N,6.3,K,A*2F
$GPRMC,191530.98,A,3645.850151,N,03124.651134,E,3.4,274.9,110922,3.6,E,A,V*4E
$GPGSA,A,3,14,17,19,,,,,,,,,,3.2,1.5,2.8,1*2B
$GNGSA,A,3,14,17,19,,,,,,,,,,3.2,1.5,2.8,1*35
$GNGSA,A,3,78,79,88,87,81,68,,,,,,,3.2,1.5,2.8,2*34
$GNGSA,A,3,,,,,,,,,,,,,3.2,1.5,2.8,3*3C
$GLGSV,2,1,08,78,38,037,21,79,53,314,17,69,56,279,18,88,23,078,25,1*78
$GLGSV,2,2,08,87,11,032,18,81,11,130,17,68,38,195,16,70,10,331,,1*72
$PQGSV,4,1,15,02,20,116,,03,,,,05,34,137,,07,06,045,,0,4*58
$PQGSV,4,2,15,09,16,119,,10,27,049,,16,07,123,,19,36,213,,0,4*6A
$PQGSV,4,3,15,20,04,174,,21,04,324,,22,37,284,,27,27,087,,0,4*6B
$PQGSV,4,4,15,28,08,040,,29,,,,30,21,144,,0,4*63
$GAGSV,1,1,02,04,52,298,,09,04,322,,7*7F
$GPGSV,3,1,11,13,80,260,15,14,49,043,20,17,48,109,20,19,35,153,17,1*6E
$GPGSV,3,2,11,05,15,232,,07,04,097,,12,,,,15,47,298,,1*5D
$GPGSV,3,3,11,20,,,,24,12,293,,30,33,085,,1*65
$GPGGA,191531.98,3645.852732,N,03124.654299,E,1,03,1.5,-79.0,M,32.0,M,,*7A
$GNGNS,191531.98,3645.852732,N,03124.654299,E,AAN,09,1.5,-79.0,32.0,,,V*70
$GPVTG,237.8,T,234.1,M,3.6,N,6.6,K,A*2C
$GPRMC,191531.98,A,3645.852732,N,03124.654299,E,3.6,237.8,110922,3.6,E,A,V*4B
$GPGSA,A,3,14,17,19,,,,,,,,,,3.2,1.5,2.8,1*2B
$GNGSA,A,3,14,17,19,,,,,,,,,,3.2,1.5,2.8,1*35
$GNGSA,A,3,78,79,88,87,81,68,,,,,,,3.2,1.5,2.8,2*34
$GNGSA,A,3,,,,,,,,,,,,,3.2,1.5,2.8,3*3C
$GLGSV,2,1,08,78,38,037,21,79,53,314,17,69,56,279,18,88,23,078,25,1*78
$GLGSV,2,2,08,87,11,032,18,81,11,130,17,68,38,195,16,70,10,331,,1*72
$PQGSV,4,1,15,02,20,116,,03,,,,05,34,137,,07,06,045,,0,4*58
$PQGSV,4,2,15,09,16,119,,10,27,049,,16,07,123,,19,36,213,,0,4*6A
$PQGSV,4,3,15,20,04,174,,21,04,324,,22,37,284,,27,27,087,,0,4*6B
$PQGSV,4,4,15,28,08,040,,29,,,,30,21,144,,0,4*63
$GAGSV,1,1,02,04,52,298,,09,04,322,,7*7F
$GPGSV,3,1,11,13,80,260,15,14,49,043,20,17,48,109,20,19,35,153,20,1*6A
$GPGSV,3,2,11,05,15,232,,07,04,097,,12,,,,15,47,298,,1*5D
$GPGSV,3,3,11,20,,,,24,12,293,,30,33,085,,1*65
$GPGGA,191532.98,3645.860672,N,03124.663460,E,1,03,1.5,-89.8,M,32.0,M,,*7E
$GNGNS,191532.98,3645.860672,N,03124.663460,E,AAN,09,1.5,-89.8,32.0,,,V*74
$GPVTG,237.8,T,234.1,M,1.4,N,2.7,K,A*29
$GPRMC,191532.98,A,3645.860672,N,03124.663460,E,1.4,237.8,110922,3.6,E,A,V*48
$GPGSA,A,3,14,17,19,,,,,,,,,,3.2,1.5,2.8,1*2B
$GNGSA,A,3,14,17,19,,,,,,,,,,3.2,1.5,2.8,1*35
$GNGSA,A,3,78,79,88,87,81,68,,,,,,,3.2,1.5,2.8,2*34
$GNGSA,A,3,,,,,,,,,,,,,3.2,1.5,2.8,3*3C
$GLGSV,2,1,08,78,38,037,22,79,53,314,17,88,23,078,23,87,11,032,18,1*73
$GLGSV,2,2,08,81,11,130,17,68,38,195,16,70,10,331,,,56,279,,1*7A
$PQGSV,4,1,15,02,20,116,,03,,,,05,34,137,,07,06,045,,0,4*58
$PQGSV,4,2,15,09,16,119,,10,27,049,,16,07,123,,19,36,213,,0,4*6A
$PQGSV,4,3,15,20,04,174,,21,04,324,,22,37,284,,27,27,087,,0,4*6B
$PQGSV,4,4,15,28,08,040,,29,,,,30,21,144,,0,4*63
$GAGSV,1,1,02,04,52,298,,09,04,322,,7*7F
$GPGSV,3,1,11,13,80,260,15,14,49,043,20,17,48,109,20,19,35,153,20,1*6A
$GPGSV,3,2,11,05,15,232,,07,04,097,,12,,,,15,47,298,,1*5D
$GPGSV,3,3,11,20,,,,24,12,293,,30,33,085,,1*65
$GPGGA,191533.98,3645.828239,N,03124.652575,E,1,03,3.1,-80.3,M,32.0,M,,*7B
$GNGNS,191533.98,3645.828239,N,03124.652575,E,AAN,08,3.1,-80.3,32.0,,,V*70
$GPVTG,226.8,T,223.2,M,1.8,N,3.3,K,A*25
$GPRMC,191533.98,A,3645.828239,N,03124.652575,E,1.8,226.8,110922,3.6,E,A,V*45
