$GPGGA,235951.952,0000.0000,N,00000.0000,E,0,00,,0.0,M,0.0,M,,0000*44
{"class":"TPV","mode":1}
$GPGSA,A,1,,,,,,,,,,,,,,,*1E
{"class":"TPV","mode":1}
$GPGSV,3,1,12,20,00,000,,10,00,000,,31,00,000,,27,00,000,*7C
$GPGSV,3,2,12,19,00,000,,07,00,000,,04,00,000,,24,00,000,*76
$GPGSV,3,3,12,16,00,000,,28,00,000,,26,00,000,,29,00,000,*78
$GPRMC,235951.952,V,0000.0000,N,00000.0000,E,,0.00,050180,,,N*63
{"class":"TPV","mode":1}
$GPGGA,235952.953,0000.0000,N,00000.0000,E,0,00,,0.0,M,0.0,M,,0000*46
{"class":"TPV","mode":1}
$GPGSA,A,1,,,,,,,,,,,,,,,*1E
{"class":"TPV","mode":1}
$GPGSV,3,1,12,20,00,000,,10,00,000,,31,00,000,,27,00,000,*7C
$GPGSV,3,2,12,19,00,000,,07,00,000,,04,00,000,,24,00,000,*76
$GPGSV,3,3,12,16,00,000,,28,00,000,,26,00,000,,29,00,000,*78
$GPRMC,235952.953,V,0000.0000,N,00000.0000,E,,0.00,050180,,,N*61
{"class":"TPV","mode":1}
$GPGGA,102523.342,4815.6883,N,01140.3675,E,1,03,4.1,-47.5,M,47.5,M,,0000*4B
{"class":"TPV","mode":2,"lat":48.261471667,"lon":11.672791667,"altHAE":0.0000,"altMSL":-47.5000,"alt":-47.5000,"magvar":3.4,"eph":77.900}
{"class":"SKY","hdop":4.10,"uSat":3}
$GPGSA,A,2,09,18,15,,,,,,,,,,4.2,4.1,1.0*35
{"class":"TPV","mode":2,"lat":48.261471667,"lon":11.672791667,"altHAE":0.0000,"altMSL":-47.5000,"alt":-47.5000,"magvar":3.4,"eph":77.900,"sep":79.800}
{"class":"SKY","hdop":4.10,"pdop":4.20,"vdop":1.00,"uSat":3}
$GPGSV,3,1,11,15,78,236,41,09,30,277,44,18,26,303,36,22,04,332,34*73
$GPGSV,3,2,11,26,64,298,,29,53,146,,28,45,057,25,17,28,119,22*78
$GPGSV,3,3,11,08,13,081,27,12,06,219,22,10,05,190,21*4F
{"class":"TPV","mode":2,"lat":48.261471667,"lon":11.672791667,"altHAE":0.0000,"altMSL":-47.5000,"alt":-47.5000,"magvar":3.4,"eph":77.900,"sep":79.800}
{"class":"SKY","hdop":4.10,"pdop":4.20,"vdop":1.00,"nSat":11,"uSat":3,"satellites":[{"PRN":15,"gnssid":0,"svid":15,"az":236.0,"el":78.0,"ss":41.0,"used":true},{"PRN":9,"gnssid":0,"svid":9,"az":277.0,"el":30.0,"ss":44.0,"used":true},{"PRN":18,"gnssid":0,"svid":18,"az":303.0,"el":26.0,"ss":36.0,"used":true},{"PRN":22,"gnssid":0,"svid":22,"az":332.0,"el":4.0,"ss":34.0,"used":false},{"PRN":26,"gnssid":0,"svid":26,"az":298.0,"el":64.0,"ss":0.0,"used":false},{"PRN":29,"gnssid":0,"svid":29,"az":146.0,"el":53.0,"ss":0.0,"used":false},{"PRN":28,"gnssid":0,"svid":28,"az":57.0,"el":45.0,"ss":25.0,"used":false},{"PRN":17,"gnssid":0,"svid":17,"az":119.0,"el":28.0,"ss":22.0,"used":false},{"PRN":8,"gnssid":0,"svid":8,"az":81.0,"el":13.0,"ss":27.0,"used":false},{"PRN":12,"gnssid":0,"svid":12,"az":219.0,"el":6.0,"ss":22.0,"used":false},{"PRN":10,"gnssid":0,"svid":10,"az":190.0,"el":5.0,"ss":21.0,"used":false}]}
$GPRMC,102523.342,A,4815.6883,N,01140.3675,E,0.00,0.00,210808,,,A*61
$GPGGA,102524.342,4815.6880,N,01140.3673,E,1,03,4.1,-47.5,M,47.5,M,,0000*49
{"class":"TPV","mode":3,"time":"2008-08-21T10:25:24.342Z","ept":0.005,"lat":48.261466667,"lon":11.672788333,"altHAE":0.0000,"altMSL":-47.5000,"alt":-47.5000,"epv":23.000,"magvar":3.4,"speed":0.609,"climb":0.000,"epc":46.00,"geoidSep":47.500,"eph":77.900,"sep":79.800}
{"class":"SKY","hdop":4.10,"pdop":4.20,"vdop":1.00,"uSat":3}
$GPGSA,A,2,09,18,15,,,,,,,,,,4.2,4.1,1.0*35
{"class":"TPV","mode":3,"time":"2008-08-21T10:25:24.342Z","ept":0.005,"lat":48.261466667,"lon":11.672788333,"altHAE":0.0000,"altMSL":-47.5000,"alt":-47.5000,"epv":23.000,"magvar":3.4,"speed":0.609,"climb":0.000,"epc":46.00,"geoidSep":47.500,"eph":77.900,"sep":79.800}
{"class":"SKY","hdop":4.10,"pdop":4.20,"vdop":1.00,"uSat":3}
$GPGSV,3,1,11,15,78,236,41,09,30,277,44,18,26,303,36,22,04,332,34*73
$GPGSV,3,2,11,26,64,298,,29,53,146,,28,45,057,25,17,28,119,22*78
$GPGSV,3,3,11,08,13,081,28,12,06,219,22,10,05,190,21*40
{"class":"TPV","mode":3,"time":"2008-08-21T10:25:24.342Z","ept":0.005,"lat":48.261466667,"lon":11.672788333,"altHAE":0.0000,"altMSL":-47.5000,"alt":-47.5000,"epv":23.000,"magvar":3.4,"speed":0.609,"climb":0.000,"epc":46.00,"geoidSep":47.500,"eph":77.900,"sep":79.800}
{"class":"SKY","hdop":4.10,"pdop":4.20,"vdop":1.00,"nSat":11,"uSat":3,"satellites":[{"PRN":15,"gnssid":0,"svid":15,"az":236.0,"el":78.0,"ss":41.0,"used":true},{"PRN":9,"gnssid":0,"svid":9,"az":277.0,"el":30.0,"ss":44.0,"used":true},{"PRN":18,"gnssid":0,"svid":18,"az":303.0,"el":26.0,"ss":36.0,"used":true},{"PRN":22,"gnssid":0,"svid":22,"az":332.0,"el":4.0,"ss":34.0,"used":false},{"PRN":26,"gnssid":0,"svid":26,"az":298.0,"el":64.0,"ss":0.0,"used":false},{"PRN":29,"gnssid":0,"svid":29,"az":146.0,"el":53.0,"ss":0.0,"used":false},{"PRN":28,"gnssid":0,"svid":28,"az":57.0,"el":45.0,"ss":25.0,"used":false},{"PRN":17,"gnssid":0,"svid":17,"az":119.0,"el":28.0,"ss":22.0,"used":false},{"PRN":8,"gnssid":0,"svid":8,"az":81.0,"el":13.0,"ss":28.0,"used":false},{"PRN":12,"gnssid":0,"svid":12,"az":219.0,"el":6.0,"ss":22.0,"used":false},{"PRN":10,"gnssid":0,"svid":10,"az":190.0,"el":5.0,"ss":21.0,"used":false}]}
$GPRMC,102524.342,A,4815.6880,N,01140.3673,E,0.00,0.00,210808,,,A*63
{"class":"TPV","mode":3,"time":"2008-08-21T10:25:24.342Z","ept":0.005,"lat":48.261466667,"lon":11.672788333,"altHAE":0.0000,"altMSL":-47.5000,"alt":-47.5000,"epv":23.000,"track":0.0000,"magtrack":3.3696,"magvar":3.4,"speed":0.000,"climb":0.000,"epc":46.00,"geoidSep":47.500,"eph":77.900,"sep":79.800}
