{"class":"SKY","time":"2023-12-09T23:59:43.000Z","nSat":0,"uSat":0}
$GPRMC,235943.00,V,,S,,W,,,091223,,*1A
$GPGSA,A,1,,,,,,,,,,,,,,,,*32
{"class":"TPV","mode":1,"time":"2023-12-09T23:59:43.000Z","ept":0.005}
{"class":"SKY","time":"2023-12-09T23:59:43.990Z","nSat":0,"uSat":0}
$GPRMC,235943.99,V,,S,,W,,,091223,,*1A
$GPGSA,A,1,,,,,,,,,,,,,,,,*32
{"class":"TPV","mode":1,"time":"2023-12-09T23:59:43.990Z","ept":0.005}
{"class":"SKY","time":"2023-12-09T23:59:43.990Z","nSat":0,"uSat":0}
{"class":"SKY","time":"2023-12-09T23:59:44.990Z","nSat":0,"uSat":0}
$GPRMC,235944.99,V,,S,,W,,,091223,,*1D
$GPGSA,A,1,,,,,,,,,,,,,,,,*32
{"class":"TPV","mode":1,"time":"2023-12-09T23:59:44.990Z","ept":0.005}
{"class":"SKY","time":"2023-12-09T23:59:45.990Z","nSat":0,"uSat":0}
$GPRMC,235945.99,V,,S,,W,,,091223,,*1C
$GPGSA,A,1,,,,,,,,,,,,,,,,*32
{"class":"TPV","mode":1,"time":"2023-12-09T23:59:45.990Z","ept":0.005}
{"class":"SKY","time":"2023-12-09T23:59:46.990Z","nSat":0,"uSat":0}
$GPRMC,235946.99,V,,S,,W,,,091223,,*1F
$GPGSA,A,1,,,,,,,,,,,,,,,,*32
{"class":"TPV","mode":1,"time":"2023-12-09T23:59:46.990Z","ept":0.005}
{"class":"SKY","time":"2023-12-09T23:59:46.990Z","nSat":0,"uSat":0}
{"class":"SKY","time":"2023-12-09T23:59:47.990Z","nSat":0,"uSat":0}
$GPRMC,235947.99,V,,S,,W,,,091223,,*1E
$GPGSA,A,1,,,,,,,,,,,,,,,,*32
{"class":"TPV","mode":1,"time":"2023-12-09T23:59:47.990Z","ept":0.005}
{"class":"SKY","time":"2023-12-09T23:59:48.990Z","nSat":0,"uSat":0}
$GPRMC,235948.99,V,,S,,W,,,091223,,*11
$GPGSA,A,1,,,,,,,,,,,,,,,,*32
{"class":"TPV","mode":1,"time":"2023-12-09T23:59:48.990Z","ept":0.005}
{"class":"SKY","time":"2023-12-09T23:59:49.990Z","nSat":0,"uSat":0}
$GPRMC,235949.99,V,,S,,W,,,091223,,*10
$GPGSA,A,1,,,,,,,,,,,,,,,,*32
{"class":"TPV","mode":1,"time":"2023-12-09T23:59:49.990Z","ept":0.005}
{"class":"SKY","time":"2023-12-09T23:59:50.990Z","nSat":0,"uSat":0}
{"class":"SKY","time":"2023-12-09T23:59:50.990Z","nSat":0,"uSat":0}
$GPRMC,235950.99,V,,S,,W,,,091223,,*18
$GPGSA,A,1,,,,,,,,,,,,,,,,*32
{"class":"TPV","mode":1,"time":"2023-12-09T23:59:50.990Z","ept":0.005}
{"class":"SKY","time":"2023-12-09T23:59:51.990Z","nSat":0,"uSat":0}
$GPRMC,235951.99,V,,S,,W,,,091223,,*19
$GPGSA,A,1,,,,,,,,,,,,,,,,*32
{"class":"TPV","mode":1,"time":"2023-12-09T23:59:51.990Z","ept":0.005}
{"class":"SKY","time":"2023-12-09T23:59:52.990Z","nSat":0,"uSat":0}
$GPRMC,235952.99,V,,S,,W,,,091223,,*1A
$GPGSA,A,1,,,,,,,,,,,,,,,,*32
{"class":"TPV","mode":1,"time":"2023-12-09T23:59:52.990Z","ept":0.005}
{"class":"SKY","time":"2023-12-09T23:59:53.990Z","nSat":0,"uSat":0}
$GPRMC,235953.99,V,,S,,W,,,091223,,*1B
$GPGSA,A,1,,,,,,,,,,,,,,,,*32
{"class":"TPV","mode":1,"time":"2023-12-09T23:59:53.990Z","ept":0.005}
{"class":"SKY","time":"2023-12-09T23:59:53.990Z","nSat":0,"uSat":0}
{"class":"SKY","time":"2023-12-09T23:59:54.990Z","nSat":0,"uSat":0}
$GPRMC,235954.99,V,,S,,W,,,091223,,*1C
$GPGSA,A,1,,,,,,,,,,,,,,,,*32
{"class":"TPV","mode":1,"time":"2023-12-09T23:59:54.990Z","ept":0.005}
{"class":"SKY","time":"2023-12-09T23:59:55.990Z","nSat":0,"uSat":0}
$GPRMC,235955.99,V,,S,,W,,,091223,,*1D
$GPGSA,A,1,,,,,,,,,,,,,,,,*32
{"class":"TPV","mode":1,"time":"2023-12-09T23:59:55.990Z","ept":0.005}
{"class":"SKY","time":"2023-12-09T23:59:56.990Z","nSat":0,"uSat":0}
$GPRMC,235956.99,V,,S,,W,,,091223,,*1E
$GPGSA,A,1,,,,,,,,,,,,,,,,*32
{"class":"TPV","mode":1,"time":"2023-12-09T23:59:56.990Z","ept":0.005}
{"class":"SKY","time":"2023-12-09T23:59:56.990Z","nSat":0,"uSat":0}
{"class":"SKY","time":"2023-12-09T23:59:57.990Z","nSat":0,"uSat":0}
$GPRMC,235957.99,V,,S,,W,,,091223,,*1F
$GPGSA,A,1,,,,,,,,,,,,,,,,*32
{"class":"TPV","mode":1,"time":"2023-12-09T23:59:57.990Z","ept":0.005}
{"class":"SKY","time":"2023-12-09T23:59:58.990Z","nSat":0,"uSat":0}
$GPRMC,235958.99,V,,S,,W,,,091223,,*10
$GPGSA,A,1,,,,,,,,,,,,,,,,*32
{"class":"TPV","mode":1,"time":"2023-12-09T23:59:58.990Z","ept":0.005}
{"class":"SKY","time":"2023-12-09T23:59:59.990Z","nSat":0,"uSat":0}
$GPRMC,235959.99,V,,S,,W,,,091223,,*11
$GPGSA,A,1,,,,,,,,,,,,,,,,*32
{"class":"TPV","mode":1,"time":"2023-12-09T23:59:59.990Z","ept":0.005}
{"class":"SKY","time":"2023-12-09T23:59:59.990Z","nSat":0,"uSat":0}
{"class":"SKY","time":"2023-12-10T00:00:00.990Z","nSat":0,"uSat":0}
$GPRMC,000000.99,V,,S,,W,,,101223,,*18
$GPGSA,A,1,,,,,,,,,,,,,,,,*32
{"class":"TPV","mode":1,"time":"2023-12-10T00:00:00.990Z","ept":0.005}
{"class":"SKY","time":"2023-12-10T00:00:01.990Z","nSat":0,"uSat":0}
$GPRMC,000001.99,V,,S,,W,,,101223,,*19
$GPGSA,A,1,,,,,,,,,,,,,,,,*32
{"class":"TPV","mode":1,"time":"2023-12-10T00:00:01.990Z","ept":0.005}
{"class":"SKY","time":"2023-12-10T00:00:02.990Z","nSat":0,"uSat":0}
$GPRMC,000002.99,V,,S,,W,,,101223,,*1A
$GPGSA,A,1,,,,,,,,,,,,,,,,*32
{"class":"TPV","mode":1,"time":"2023-12-10T00:00:02.990Z","ept":0.005}
{"class":"SKY","time":"2023-12-10T00:00:03.990Z","nSat":0,"uSat":0}
$GPRMC,000003.99,V,,S,,W,,,101223,,*1B
$GPGSA,A,1,,,,,,,,,,,,,,,,*32
{"class":"TPV","mode":1,"time":"2023-12-10T00:00:03.990Z","ept":0.005}
{"class":"SKY","time":"2023-12-10T00:00:03.990Z","nSat":0,"uSat":0}
{"class":"SKY","time":"2023-12-10T00:00:04.990Z","nSat":0,"uSat":0}
$GPRMC,000004.99,V,,S,,W,,,101223,,*1C
$GPGSA,A,1,,,,,,,,,,,,,,,,*32
{"class":"TPV","mode":1,"time":"2023-12-10T00:00:04.990Z","ept":0.005}
{"class":"SKY","time":"2023-12-10T00:00:05.990Z","nSat":0,"uSat":0}
$GPRMC,000005.99,V,,S,,W,,,101223,,*1D
$GPGSA,A,1,,,,,,,,,,,,,,,,*32
{"class":"TPV","mode":1,"time":"2023-12-10T00:00:05.990Z","ept":0.005}
{"class":"SKY","time":"2023-12-10T00:00:06.990Z","nSat":0,"uSat":0}
$GPRMC,000006.99,V,,S,,W,,,101223,,*1E
$GPGSA,A,1,,,,,,,,,,,,,,,,*32
{"class":"TPV","mode":1,"time":"2023-12-10T00:00:06.990Z","ept":0.005}
{"class":"SKY","time":"2023-12-10T00:00:06.990Z","nSat":0,"uSat":0}
{"class":"SKY","time":"2023-12-10T00:00:07.990Z","nSat":0,"uSat":0}
$GPRMC,000007.99,V,,S,,W,,,101223,,*1F
$GPGSA,A,1,,,,,,,,,,,,,,,,*32
{"class":"TPV","mode":1,"time":"2023-12-10T00:00:07.990Z","ept":0.005}
{"class":"SKY","time":"2023-12-10T00:00:08.990Z","nSat":0,"uSat":0}
$GPRMC,000008.99,V,,S,,W,,,101223,,*10
$GPGSA,A,1,,,,,,,,,,,,,,,,*32
{"class":"TPV","mode":1,"time":"2023-12-10T00:00:08.990Z","ept":0.005}
{"class":"SKY","time":"2023-12-10T00:00:09.990Z","nSat":0,"uSat":0}
$GPRMC,000009.99,V,,S,,W,,,101223,,*11
$GPGSA,A,1,,,,,,,,,,,,,,,,*32
{"class":"TPV","mode":1,"time":"2023-12-10T00:00:09.990Z","ept":0.005}
{"class":"SKY","time":"2023-12-10T00:00:10.990Z","nSat":0,"uSat":0}
$GPRMC,000010.99,V,,S,,W,,,101223,,*19
$GPGSA,A,1,,,,,,,,,,,,,,,,*32
{"class":"TPV","mode":1,"time":"2023-12-10T00:00:10.990Z","ept":0.005}
{"class":"SKY","time":"2023-12-10T00:00:10.990Z","nSat":0,"uSat":0}
{"class":"SKY","time":"2023-12-10T00:00:11.990Z","nSat":0,"uSat":0}
$GPRMC,000011.99,V,,S,,W,,,101223,,*18
$GPGSA,A,1,,,,,,,,,,,,,,,,*32
{"class":"TPV","mode":1,"time":"2023-12-10T00:00:11.990Z","ept":0.005}
{"class":"SKY","time":"2023-12-10T00:00:12.990Z","nSat":0,"uSat":0}
$GPRMC,000012.99,V,,S,,W,,,101223,,*1B
$GPGSA,A,1,,,,,,,,,,,,,,,,*32
{"class":"TPV","mode":1,"time":"2023-12-10T00:00:12.990Z","ept":0.005}
{"class":"SKY","time":"2023-12-10T00:00:13.990Z","nSat":0,"uSat":0}
$GPRMC,000013.99,V,,S,,W,,,101223,,*1A
$GPGSA,A,1,,,,,,,,,,,,,,,,*32
{"class":"TPV","mode":1,"time":"2023-12-10T00:00:13.990Z","ept":0.005}
{"class":"SKY","time":"2023-12-10T00:00:13.990Z","nSat":0,"uSat":0}
{"class":"SKY","time":"2023-12-10T00:00:14.990Z","nSat":0,"uSat":0}
$GPRMC,000014.99,V,,S,,W,,,101223,,*1D
$GPGSA,A,1,,,,,,,,,,,,,,,,*32
{"class":"TPV","mode":1,"time":"2023-12-10T00:00:14.990Z","ept":0.005}
{"class":"SKY","time":"2023-12-10T00:00:15.990Z","nSat":0,"uSat":0}
$GPRMC,000015.99,V,,S,,W,,,101223,,*1C
$GPGSA,A,1,,,,,,,,,,,,,,,,*32
{"class":"TPV","mode":1,"time":"2023-12-10T00:00:15.990Z","ept":0.005}
{"class":"SKY","time":"2023-12-10T00:00:16.990Z","nSat":0,"uSat":0}
$GPRMC,000016.99,V,,S,,W,,,101223,,*1F
$GPGSA,A,1,,,,,,,,,,,,,,,,*32
{"class":"TPV","mode":1,"time":"2023-12-10T00:00:16.990Z","ept":0.005}
{"class":"SKY","time":"2023-12-10T00:00:17.990Z","nSat":0,"uSat":0}
$GPRMC,000017.99,V,,S,,W,,,101223,,*1E
$GPGSA,A,1,,,,,,,,,,,,,,,,*32
{"class":"TPV","mode":1,"time":"2023-12-10T00:00:17.990Z","ept":0.005}
{"class":"SKY","time":"2023-12-10T00:00:17.990Z","nSat":0,"uSat":0}
{"class":"SKY","time":"2023-12-10T00:00:18.990Z","nSat":0,"uSat":0}
$GPRMC,000018.99,V,,S,,W,,,101223,,*11
$GPGSA,A,1,,,,,,,,,,,,,,,,*32
{"class":"TPV","mode":1,"time":"2023-12-10T00:00:18.990Z","ept":0.005}
{"class":"SKY","time":"2023-12-10T00:00:19.990Z","nSat":0,"uSat":0}
$GPRMC,000019.99,V,,S,,W,,,101223,,*10
$GPGSA,A,1,,,,,,,,,,,,,,,,*32
{"class":"TPV","mode":1,"time":"2023-12-10T00:00:19.990Z","ept":0.005}
{"class":"SKY","time":"2023-12-10T00:00:20.990Z","nSat":0,"uSat":0}
$GPRMC,000020.99,V,,S,,W,,,101223,,*1A
$GPGSA,A,1,,,,,,,,,,,,,,,,*32
{"class":"TPV","mode":1,"time":"2023-12-10T00:00:20.990Z","ept":0.005}
{"class":"SKY","time":"2023-12-10T00:00:21.990Z","nSat":0,"uSat":0}
$GPRMC,000021.99,V,,S,,W,,,101223,,*1B
$GPGSA,A,1,,,,,,,,,,,,,,,,*32
{"class":"TPV","mode":1,"time":"2023-12-10T00:00:21.990Z","ept":0.005}
{"class":"SKY","time":"2023-12-10T00:00:22.990Z","nSat":0,"uSat":0}
$GPRMC,000022.99,V,,S,,W,,,101223,,*18
$GPGSA,A,1,,,,,,,,,,,,,,,,*32
{"class":"TPV","mode":1,"time":"2023-12-10T00:00:22.990Z","ept":0.005}
{"class":"SKY","time":"2023-12-10T00:00:23.990Z","nSat":0,"uSat":0}
$GPRMC,000023.99,V,,S,,W,,,101223,,*19
$GPGSA,A,1,,,,,,,,,,,,,,,,*32
{"class":"TPV","mode":1,"time":"2023-12-10T00:00:23.990Z","ept":0.005}
{"class":"SKY","time":"2023-12-10T00:00:24.990Z","nSat":0,"uSat":0}
$GPRMC,000024.99,V,,S,,W,,,101223,,*1E
$GPGSA,A,1,,,,,,,,,,,,,,,,*32
{"class":"TPV","mode":1,"time":"2023-12-10T00:00:24.990Z","ept":0.005}
{"class":"SKY","time":"2023-12-10T00:00:25.990Z","nSat":0,"uSat":0}
$GPRMC,000025.99,V,,S,,W,,,101223,,*1F
$GPGSA,A,1,,,,,,,,,,,,,,,,*32
{"class":"TPV","mode":1,"time":"2023-12-10T00:00:25.990Z","ept":0.005}
{"class":"SKY","time":"2023-12-10T00:00:26.990Z","nSat":0,"uSat":0}
$GPRMC,000026.99,V,,S,,W,,,101223,,*1C
$GPGSA,A,1,,,,,,,,,,,,,,,,*32
{"class":"TPV","mode":1,"time":"2023-12-10T00:00:26.990Z","ept":0.005}
{"class":"SKY","time":"2023-12-10T00:00:27.990Z","nSat":0,"uSat":0}
$GPRMC,000027.99,V,,S,,W,,,101223,,*1D
$GPGSA,A,1,,,,,,,,,,,,,,,,*32
{"class":"TPV","mode":1,"time":"2023-12-10T00:00:27.990Z","ept":0.005}
{"class":"SKY","time":"2023-12-10T00:00:28.990Z","nSat":0,"uSat":0}
$GPRMC,000028.99,V,,S,,W,,,101223,,*12
$GPGSA,A,1,,,,,,,,,,,,,,,,*32
{"class":"TPV","mode":1,"time":"2023-12-10T00:00:28.990Z","ept":0.005}
{"class":"SKY","time":"2023-12-10T00:00:29.990Z","nSat":0,"uSat":0}
$GPRMC,000029.99,V,,S,,W,,,101223,,*13
$GPGSA,A,1,,,,,,,,,,,,,,,,*32
{"class":"TPV","mode":1,"time":"2023-12-10T00:00:29.990Z","ept":0.005}
{"class":"SKY","time":"2023-12-10T00:00:30.990Z","nSat":0,"uSat":0}
$GPRMC,000030.99,V,,S,,W,,,101223,,*1B
$GPGSA,A,1,,,,,,,,,,,,,,,,*32
{"class":"TPV","mode":1,"time":"2023-12-10T00:00:30.990Z","ept":0.005}
{"class":"SKY","time":"2023-12-10T00:00:31.990Z","nSat":0,"uSat":0}
$GPRMC,000031.99,V,,S,,W,,,101223,,*1A
$GPGSA,A,1,,,,,,,,,,,,,,,,*32
{"class":"TPV","mode":1,"time":"2023-12-10T00:00:31.990Z","ept":0.005}
{"class":"SKY","time":"2023-12-10T00:00:32.990Z","nSat":0,"uSat":0}
$GPRMC,000032.99,V,,S,,W,,,101223,,*19
$GPGSA,A,1,,,,,,,,,,,,,,,,*32
{"class":"TPV","mode":1,"time":"2023-12-10T00:00:32.990Z","ept":0.005}
{"class":"SKY","time":"2023-12-10T00:00:33.990Z","nSat":0,"uSat":0}
$GPRMC,000033.99,V,,S,,W,,,101223,,*18
$GPGSA,A,1,,,,,,,,,,,,,,,,*32
{"class":"TPV","mode":1,"time":"2023-12-10T00:00:33.990Z","ept":0.005}
{"class":"SKY","time":"2023-12-10T00:00:34.990Z","nSat":0,"uSat":0}
$GPRMC,000034.99,V,,S,,W,,,101223,,*1F
$GPGSA,A,1,,,,,,,,,,,,,,,,*32
{"class":"TPV","mode":1,"time":"2023-12-10T00:00:34.990Z","ept":0.005}
{"class":"SKY","time":"2023-12-10T00:00:35.990Z","nSat":0,"uSat":0}
$GPRMC,000035.99,V,,S,,W,,,101223,,*1E
$GPGSA,A,1,,,,,,,,,,,,,,,,*32
{"class":"TPV","mode":1,"time":"2023-12-10T00:00:35.990Z","ept":0.005}
{"class":"SKY","time":"2023-12-10T00:00:36.990Z","nSat":0,"uSat":0}
$GPRMC,000036.99,V,,S,,W,,,101223,,*1D
$GPGSA,A,1,,,,,,,,,,,,,,,,*32
{"class":"TPV","mode":1,"time":"2023-12-10T00:00:36.990Z","ept":0.005}
{"class":"SKY","time":"2023-12-10T00:00:37.990Z","nSat":0,"uSat":0}
$GPRMC,000037.99,V,,S,,W,,,101223,,*1C
$GPGSA,A,1,,,,,,,,,,,,,,,,*32
{"class":"TPV","mode":1,"time":"2023-12-10T00:00:37.990Z","ept":0.005}
{"class":"SKY","time":"2023-12-10T00:00:37.990Z","nSat":0,"uSat":0}
{"class":"SKY","time":"2023-12-10T00:00:38.990Z","nSat":0,"uSat":0}
$GPRMC,000038.99,V,,S,,W,,,101223,,*13
$GPGSA,A,1,,,,,,,,,,,,,,,,*32
{"class":"TPV","mode":1,"time":"2023-12-10T00:00:38.990Z","ept":0.005}
{"class":"SKY","time":"2023-12-10T00:00:39.990Z","nSat":0,"uSat":0}
$GPRMC,000039.99,V,,S,,W,,,101223,,*12
$GPGSA,A,1,,,,,,,,,,,,,,,,*32
{"class":"TPV","mode":1,"time":"2023-12-10T00:00:39.990Z","ept":0.005}
{"class":"SKY","time":"2023-12-10T00:00:40.990Z","nSat":0,"uSat":0}
$GPRMC,000040.99,V,,S,,W,,,101223,,*1C
$GPGSA,A,1,,,,,,,,,,,,,,,,*32
{"class":"TPV","mode":1,"time":"2023-12-10T00:00:40.990Z","ept":0.005}
{"class":"SKY","time":"2023-12-10T00:00:41.990Z","nSat":0,"uSat":0}
$GPRMC,000041.99,V,,S,,W,,,101223,,*1D
$GPGSA,A,1,,,,,,,,,,,,,,,,*32
{"class":"TPV","mode":1,"time":"2023-12-10T00:00:41.990Z","ept":0.005}
{"class":"SKY","time":"2023-12-10T00:00:42.990Z","nSat":0,"uSat":0}
$GPRMC,000042.99,V,,S,,W,,,101223,,*1E
$GPGSA,A,1,,,,,,,,,,,,,,,,*32
{"class":"TPV","mode":1,"time":"2023-12-10T00:00:42.990Z","ept":0.005}
{"class":"SKY","time":"2023-12-10T00:00:43.990Z","nSat":0,"uSat":0}
$GPRMC,000043.99,V,,S,,W,,,101223,,*1F
$GPGSA,A,1,,,,,,,,,,,,,,,,*32
{"class":"TPV","mode":1,"time":"2023-12-10T00:00:43.990Z","ept":0.005}
{"class":"SKY","time":"2023-12-10T00:00:44.990Z","nSat":0,"uSat":0}
$GPRMC,000044.99,V,,S,,W,,,101223,,*18
$GPGSA,A,1,,,,,,,,,,,,,,,,*32
{"class":"TPV","mode":1,"time":"2023-12-10T00:00:44.990Z","ept":0.005}
{"class":"SKY","time":"2023-12-10T00:00:45.990Z","nSat":0,"uSat":0}
$GPRMC,000045.99,V,,S,,W,,,101223,,*19
$GPGSA,A,1,,,,,,,,,,,,,,,,*32
{"class":"TPV","mode":1,"time":"2023-12-10T00:00:45.990Z","ept":0.005}
{"class":"SKY","time":"2023-12-10T00:00:46.990Z","nSat":0,"uSat":0}
$GPRMC,000046.99,V,,S,,W,,,101223,,*1A
$GPGSA,A,1,,,,,,,,,,,,,,,,*32
{"class":"TPV","mode":1,"time":"2023-12-10T00:00:46.990Z","ept":0.005}
{"class":"SKY","time":"2023-12-10T00:00:47.990Z","nSat":0,"uSat":0}
$GPRMC,000047.99,V,,S,,W,,,101223,,*1B
$GPGSA,A,1,,,,,,,,,,,,,,,,*32
{"class":"TPV","mode":1,"time":"2023-12-10T00:00:47.990Z","ept":0.005}
{"class":"SKY","time":"2023-12-10T00:00:48.990Z","nSat":0,"uSat":0}
$GPRMC,000048.99,V,,S,,W,,,101223,,*14
$GPGSA,A,1,,,,,,,,,,,,,,,,*32
{"class":"TPV","mode":1,"time":"2023-12-10T00:00:48.990Z","ept":0.005}
{"class":"SKY","time":"2023-12-10T00:00:49.990Z","nSat":0,"uSat":0}
$GPRMC,000049.99,V,,S,,W,,,101223,,*15
$GPGSA,A,1,,,,,,,,,,,,,,,,*32
{"class":"TPV","mode":1,"time":"2023-12-10T00:00:49.990Z","ept":0.005}
{"class":"SKY","time":"2023-12-10T00:00:50.990Z","nSat":0,"uSat":0}
$GPRMC,000050.99,V,,S,,W,,,101223,,*1D
$GPGSA,A,1,,,,,,,,,,,,,,,,*32
{"class":"TPV","mode":1,"time":"2023-12-10T00:00:50.990Z","ept":0.005}
{"class":"SKY","time":"2023-12-10T00:00:51.990Z","nSat":0,"uSat":0}
$GPRMC,000051.99,V,,S,,W,,,101223,,*1C
$GPGSA,A,1,,,,,,,,,,,,,,,,*32
{"class":"TPV","mode":1,"time":"2023-12-10T00:00:51.990Z","ept":0.005}
{"class":"SKY","time":"2023-12-10T00:00:52.990Z","nSat":0,"uSat":0}
$GPRMC,000052.99,V,,S,,W,,,101223,,*1F
$GPGSA,A,1,,,,,,,,,,,,,,,,*32
{"class":"TPV","mode":1,"time":"2023-12-10T00:00:52.990Z","ept":0.005}
{"class":"SKY","time":"2023-12-10T00:00:53.990Z","nSat":0,"uSat":0}
$GPRMC,000053.99,V,,S,,W,,,101223,,*1E
$GPGSA,A,1,,,,,,,,,,,,,,,,*32
{"class":"TPV","mode":1,"time":"2023-12-10T00:00:53.990Z","ept":0.005}
{"class":"SKY","time":"2023-12-10T00:00:54.990Z","nSat":0,"uSat":0}
$GPRMC,000054.99,V,,S,,W,,,101223,,*19
$GPGSA,A,1,,,,,,,,,,,,,,,,*32
{"class":"TPV","mode":1,"time":"2023-12-10T00:00:54.990Z","ept":0.005}
{"class":"SKY","time":"2023-12-10T00:00:55.990Z","nSat":0,"uSat":0}
$GPRMC,000055.99,V,,S,,W,,,101223,,*18
$GPGSA,A,1,,,,,,,,,,,,,,,,*32
{"class":"TPV","mode":1,"time":"2023-12-10T00:00:55.990Z","ept":0.005}
{"class":"SKY","time":"2023-12-10T00:00:56.990Z","nSat":0,"uSat":0}
$GPRMC,000056.99,V,,S,,W,,,101223,,*1B
$GPGSA,A,1,,,,,,,,,,,,,,,,*32
{"class":"TPV","mode":1,"time":"2023-12-10T00:00:56.990Z","ept":0.005}
{"class":"SKY","time":"2023-12-10T00:00:57.990Z","nSat":0,"uSat":0}
$GPRMC,000057.99,V,,S,,W,,,101223,,*1A
$GPGSA,A,1,,,,,,,,,,,,,,,,*32
{"class":"TPV","mode":1,"time":"2023-12-10T00:00:57.990Z","ept":0.005}
{"class":"SKY","time":"2023-12-10T00:00:58.990Z","nSat":0,"uSat":0}
$GPRMC,000058.99,V,,S,,W,,,101223,,*15
$GPGSA,A,1,,,,,,,,,,,,,,,,*32
{"class":"TPV","mode":1,"time":"2023-12-10T00:00:58.990Z","ept":0.005}
{"class":"SKY","time":"2023-12-10T00:00:58.990Z","nSat":0,"uSat":0}
{"class":"SKY","time":"2023-12-10T00:00:59.990Z","nSat":0,"uSat":0}
$GPRMC,000059.99,V,,S,,W,,,101223,,*14
$GPGSA,A,1,,,,,,,,,,,,,,,,*32
{"class":"TPV","mode":1,"time":"2023-12-10T00:00:59.990Z","ept":0.005}
{"class":"SKY","time":"2023-12-10T00:01:00.990Z","nSat":0,"uSat":0}
$GPRMC,000100.99,V,,S,,W,,,101223,,*19
$GPGSA,A,1,,,,,,,,,,,,,,,,*32
{"class":"TPV","mode":1,"time":"2023-12-10T00:01:00.990Z","ept":0.005}
{"class":"SKY","time":"2023-12-10T00:01:01.990Z","nSat":0,"uSat":0}
$GPRMC,000101.99,V,,S,,W,,,101223,,*18
$GPGSA,A,1,,,,,,,,,,,,,,,,*32
{"class":"TPV","mode":1,"time":"2023-12-10T00:01:01.990Z","ept":0.005}
{"class":"SKY","time":"2023-12-10T00:01:02.990Z","nSat":0,"uSat":0}
$GPRMC,000102.99,V,,S,,W,,,101223,,*1B
$GPGSA,A,1,,,,,,,,,,,,,,,,*32
{"class":"TPV","mode":1,"time":"2023-12-10T00:01:02.990Z","ept":0.005}
{"class":"SKY","time":"2023-12-10T00:01:03.990Z","nSat":0,"uSat":0}
$GPRMC,000103.99,V,,S,,W,,,101223,,*1A
$GPGSA,A,1,,,,,,,,,,,,,,,,*32
{"class":"TPV","mode":1,"time":"2023-12-10T00:01:03.990Z","ept":0.005}
{"class":"SKY","time":"2023-12-10T00:01:04.990Z","nSat":0,"uSat":0}
$GPRMC,000104.99,V,,S,,W,,,101223,,*1D
$GPGSA,A,1,,,,,,,,,,,,,,,,*32
{"class":"TPV","mode":1,"time":"2023-12-10T00:01:04.990Z","ept":0.005}
{"class":"SKY","time":"2023-12-10T00:01:05.990Z","nSat":0,"uSat":0}
$GPRMC,000105.99,V,,S,,W,,,101223,,*1C
$GPGSA,A,1,,,,,,,,,,,,,,,,*32
{"class":"TPV","mode":1,"time":"2023-12-10T00:01:05.990Z","ept":0.005}
{"class":"SKY","time":"2023-12-10T00:01:06.990Z","nSat":0,"uSat":0}
$GPRMC,000106.99,V,,S,,W,,,101223,,*1F
$GPGSA,A,1,,,,,,,,,,,,,,,,*32
{"class":"TPV","mode":1,"time":"2023-12-10T00:01:06.990Z","ept":0.005}
{"class":"SKY","time":"2023-12-10T00:01:07.990Z","nSat":0,"uSat":0}
$GPRMC,000107.99,V,,S,,W,,,101223,,*1E
$GPGSA,A,1,,,,,,,,,,,,,,,,*32
{"class":"TPV","mode":1,"time":"2023-12-10T00:01:07.990Z","ept":0.005}
{"class":"SKY","time":"2023-12-10T00:01:08.990Z","nSat":0,"uSat":0}
$GPRMC,000108.99,V,,S,,W,,,101223,,*11
$GPGSA,A,1,,,,,,,,,,,,,,,,*32
{"class":"TPV","mode":1,"time":"2023-12-10T00:01:08.990Z","ept":0.005}
{"class":"SKY","time":"2023-12-10T00:01:09.990Z","nSat":0,"uSat":0}
$GPRMC,000109.99,V,,S,,W,,,101223,,*10
$GPGSA,A,1,,,,,,,,,,,,,,,,*32
{"class":"TPV","mode":1,"time":"2023-12-10T00:01:09.990Z","ept":0.005}
{"class":"SKY","time":"2023-12-10T00:01:10.990Z","nSat":0,"uSat":0}
$GPRMC,000110.99,V,,S,,W,,,101223,,*18
$GPGSA,A,1,,,,,,,,,,,,,,,,*32
{"class":"TPV","mode":1,"time":"2023-12-10T00:01:10.990Z","ept":0.005}
{"class":"SKY","time":"2023-12-10T00:01:11.990Z","nSat":0,"uSat":0}
$GPRMC,000111.99,V,,S,,W,,,101223,,*19
$GPGSA,A,1,,,,,,,,,,,,,,,,*32
{"class":"TPV","mode":1,"time":"2023-12-10T00:01:11.990Z","ept":0.005}
{"class":"SKY","time":"2023-12-10T00:01:12.990Z","nSat":0,"uSat":0}
$GPRMC,000112.99,V,,S,,W,,,101223,,*1A
$GPGSA,A,1,,,,,,,,,,,,,,,,*32
{"class":"TPV","mode":1,"time":"2023-12-10T00:01:12.990Z","ept":0.005}
{"class":"SKY","time":"2023-12-10T00:01:13.990Z","nSat":0,"uSat":0}
$GPRMC,000113.99,V,,S,,W,,,101223,,*1B
$GPGSA,A,1,,,,,,,,,,,,,,,,*32
{"class":"TPV","mode":1,"time":"2023-12-10T00:01:13.990Z","ept":0.005}
{"class":"SKY","time":"2023-12-10T00:01:14.990Z","nSat":0,"uSat":0}
$GPRMC,000114.99,V,,S,,W,,,101223,,*1C
$GPGSA,A,1,,,,,,,,,,,,,,,,*32
{"class":"TPV","mode":1,"time":"2023-12-10T00:01:14.990Z","ept":0.005}
{"class":"SKY","time":"2023-12-10T00:01:15.990Z","nSat":0,"uSat":0}
$GPRMC,000115.99,V,,S,,W,,,101223,,*1D
$GPGSA,A,1,,,,,,,,,,,,,,,,*32
{"class":"TPV","mode":1,"time":"2023-12-10T00:01:15.990Z","ept":0.005}
{"class":"SKY","time":"2023-12-10T00:01:16.990Z","nSat":0,"uSat":0}
$GPRMC,000116.99,V,,S,,W,,,101223,,*1E
$GPGSA,A,1,,,,,,,,,,,,,,,,*32
{"class":"TPV","mode":1,"time":"2023-12-10T00:01:16.990Z","ept":0.005}
{"class":"SKY","time":"2023-12-10T00:01:17.990Z","nSat":0,"uSat":0}
$GPRMC,000117.99,V,,S,,W,,,101223,,*1F
$GPGSA,A,1,,,,,,,,,,,,,,,,*32
{"class":"TPV","mode":1,"time":"2023-12-10T00:01:17.990Z","ept":0.005}
{"class":"SKY","time":"2023-12-10T00:01:18.990Z","nSat":0,"uSat":0}
$GPRMC,000118.99,V,,S,,W,,,101223,,*10
$GPGSA,A,1,,,,,,,,,,,,,,,,*32
{"class":"TPV","mode":1,"time":"2023-12-10T00:01:18.990Z","ept":0.005}
{"class":"SKY","time":"2023-12-10T00:01:19.990Z","nSat":0,"uSat":0}
$GPRMC,000119.99,V,,S,,W,,,101223,,*11
$GPGSA,A,1,,,,,,,,,,,,,,,,*32
{"class":"TPV","mode":1,"time":"2023-12-10T00:01:19.990Z","ept":0.005}
{"class":"SKY","time":"2023-12-10T00:01:20.990Z","nSat":0,"uSat":0}
$GPRMC,000120.99,V,,S,,W,,,101223,,*1B
$GPGSA,A,1,,,,,,,,,,,,,,,,*32
{"class":"TPV","mode":1,"time":"2023-12-10T00:01:20.990Z","ept":0.005}
{"class":"SKY","time":"2023-12-10T00:01:20.990Z","nSat":0,"uSat":0}
{"class":"SKY","time":"2023-12-10T00:01:21.990Z","nSat":0,"uSat":0}
$GPRMC,000121.99,V,,S,,W,,,101223,,*1A
$GPGSA,A,1,,,,,,,,,,,,,,,,*32
{"class":"TPV","mode":1,"time":"2023-12-10T00:01:21.990Z","ept":0.005}
{"class":"SKY","time":"2023-12-10T00:01:22.990Z","nSat":0,"uSat":0}
$GPRMC,000122.99,V,,S,,W,,,101223,,*19
$GPGSA,A,1,,,,,,,,,,,,,,,,*32
{"class":"TPV","mode":1,"time":"2023-12-10T00:01:22.990Z","ept":0.005}
{"class":"SKY","time":"2023-12-10T00:01:23.990Z","nSat":0,"uSat":0}
$GPRMC,000123.99,V,,S,,W,,,101223,,*18
$GPGSA,A,1,,,,,,,,,,,,,,,,*32
{"class":"TPV","mode":1,"time":"2023-12-10T00:01:23.990Z","ept":0.005}
{"class":"SKY","time":"2023-12-10T00:01:24.990Z","nSat":0,"uSat":0}
$GPRMC,000124.99,V,,S,,W,,,101223,,*1F
$GPGSA,A,1,,,,,,,,,,,,,,,,*32
{"class":"TPV","mode":1,"time":"2023-12-10T00:01:24.990Z","ept":0.005}
{"class":"SKY","time":"2023-12-10T00:01:25.990Z","nSat":0,"uSat":0}
$GPRMC,000125.99,V,,S,,W,,,101223,,*1E
$GPGSA,A,1,,,,,,,,,,,,,,,,*32
{"class":"TPV","mode":1,"time":"2023-12-10T00:01:25.990Z","ept":0.005}
{"class":"SKY","time":"2023-12-10T00:01:26.990Z","nSat":0,"uSat":0}
$GPRMC,000126.99,V,,S,,W,,,101223,,*1D
$GPGSA,A,1,,,,,,,,,,,,,,,,*32
{"class":"TPV","mode":1,"time":"2023-12-10T00:01:26.990Z","ept":0.005}
{"class":"SKY","time":"2023-12-10T00:01:27.990Z","nSat":0,"uSat":0}
$GPRMC,000127.99,V,,S,,W,,,101223,,*1C
$GPGSA,A,1,,,,,,,,,,,,,,,,*32
{"class":"TPV","mode":1,"time":"2023-12-10T00:01:27.990Z","ept":0.005}
{"class":"SKY","time":"2023-12-10T00:01:28.990Z","nSat":0,"uSat":0}
$GPRMC,000128.99,V,,S,,W,,,101223,,*13
$GPGSA,A,1,,,,,,,,,,,,,,,,*32
{"class":"TPV","mode":1,"time":"2023-12-10T00:01:28.990Z","ept":0.005}
{"class":"SKY","time":"2023-12-10T00:01:29.990Z","nSat":0,"uSat":0}
$GPRMC,000129.99,V,,S,,W,,,101223,,*12
$GPGSA,A,1,,,,,,,,,,,,,,,,*32
{"class":"TPV","mode":1,"time":"2023-12-10T00:01:29.990Z","ept":0.005}
{"class":"SKY","time":"2023-12-10T00:01:30.990Z","nSat":0,"uSat":0}
$GPRMC,000130.99,V,,S,,W,,,101223,,*1A
$GPGSA,A,1,,,,,,,,,,,,,,,,*32
{"class":"TPV","mode":1,"time":"2023-12-10T00:01:30.990Z","ept":0.005}
{"class":"SKY","time":"2023-12-10T00:01:31.990Z","nSat":0,"uSat":0}
$GPRMC,000131.99,V,,S,,W,,,101223,,*1B
$GPGSA,A,1,,,,,,,,,,,,,,,,*32
{"class":"TPV","mode":1,"time":"2023-12-10T00:01:31.990Z","ept":0.005}
{"class":"SKY","time":"2023-12-10T00:01:32.990Z","nSat":0,"uSat":0}
$GPRMC,000132.99,V,,S,,W,,,101223,,*18
$GPGSA,A,1,,,,,,,,,,,,,,,,*32
{"class":"TPV","mode":1,"time":"2023-12-10T00:01:32.990Z","ept":0.005}
{"class":"SKY","time":"2023-12-10T00:01:33.990Z","nSat":0,"uSat":0}
$GPRMC,000133.99,V,,S,,W,,,101223,,*19
$GPGSA,A,1,,,,,,,,,,,,,,,,*32
{"class":"TPV","mode":1,"time":"2023-12-10T00:01:33.990Z","ept":0.005}
{"class":"SKY","time":"2023-12-10T00:01:34.990Z","nSat":0,"uSat":0}
$GPRMC,000134.99,V,,S,,W,,,101223,,*1E
$GPGSA,A,1,,,,,,,,,,,,,,,,*32
{"class":"TPV","mode":1,"time":"2023-12-10T00:01:34.990Z","ept":0.005}
{"class":"SKY","time":"2023-12-10T00:01:35.990Z","nSat":0,"uSat":0}
$GPRMC,000135.99,V,,S,,W,,,101223,,*1F
$GPGSA,A,1,,,,,,,,,,,,,,,,*32
{"class":"TPV","mode":1,"time":"2023-12-10T00:01:35.990Z","ept":0.005}
{"class":"SKY","time":"2023-12-10T00:01:36.990Z","nSat":0,"uSat":0}
$GPRMC,000136.99,V,,S,,W,,,101223,,*1C
$GPGSA,A,1,,,,,,,,,,,,,,,,*32
{"class":"TPV","mode":1,"time":"2023-12-10T00:01:36.990Z","ept":0.005}
{"class":"SKY","time":"2023-12-10T00:01:37.990Z","nSat":0,"uSat":0}
$GPRMC,000137.99,V,,S,,W,,,101223,,*1D
$GPGSA,A,1,,,,,,,,,,,,,,,,*32
{"class":"TPV","mode":1,"time":"2023-12-10T00:01:37.990Z","ept":0.005}
{"class":"SKY","time":"2023-12-10T00:01:38.990Z","nSat":0,"uSat":0}
$GPRMC,000138.99,V,,S,,W,,,101223,,*12
$GPGSA,A,1,,,,,,,,,,,,,,,,*32
{"class":"TPV","mode":1,"time":"2023-12-10T00:01:38.990Z","ept":0.005}
{"class":"SKY","time":"2023-12-10T00:01:39.990Z","nSat":0,"uSat":0}
$GPRMC,000139.99,V,,S,,W,,,101223,,*13
$GPGSA,A,1,,,,,,,,,,,,,,,,*32
{"class":"TPV","mode":1,"time":"2023-12-10T00:01:39.990Z","ept":0.005}
{"class":"SKY","time":"2023-12-10T00:01:40.990Z","nSat":0,"uSat":0}
$GPRMC,000140.99,V,,S,,W,,,101223,,*1D
$GPGSA,A,1,,,,,,,,,,,,,,,,*32
{"class":"TPV","mode":1,"time":"2023-12-10T00:01:40.990Z","ept":0.005}
{"class":"SKY","time":"2023-12-10T00:01:41.990Z","nSat":0,"uSat":0}
$GPRMC,000141.99,V,,S,,W,,,101223,,*1C
$GPGSA,A,1,,,,,,,,,,,,,,,,*32
{"class":"TPV","mode":1,"time":"2023-12-10T00:01:41.990Z","ept":0.005}
{"class":"SKY","time":"2023-12-10T00:01:41.990Z","nSat":0,"uSat":0}
{"class":"SKY","time":"2023-12-10T00:01:42.990Z","nSat":0,"uSat":0}
$GPRMC,000142.99,V,,S,,W,,,101223,,*1F
$GPGSA,A,1,,,,,,,,,,,,,,,,*32
{"class":"TPV","mode":1,"time":"2023-12-10T00:01:42.990Z","ept":0.005}
{"class":"SKY","time":"2023-12-10T00:01:43.990Z","nSat":0,"uSat":0}
$GPRMC,000143.99,V,,S,,W,,,101223,,*1E
$GPGSA,A,1,,,,,,,,,,,,,,,,*32
{"class":"TPV","mode":1,"time":"2023-12-10T00:01:43.990Z","ept":0.005}
{"class":"SKY","time":"2023-12-10T00:01:44.990Z","nSat":0,"uSat":0}
$GPRMC,000144.99,V,,S,,W,,,101223,,*19
$GPGSA,A,1,,,,,,,,,,,,,,,,*32
{"class":"TPV","mode":1,"time":"2023-12-10T00:01:44.990Z","ept":0.005}
{"class":"SKY","time":"2023-12-10T00:01:45.990Z","nSat":0,"uSat":0}
$GPRMC,000145.99,V,,S,,W,,,101223,,*18
$GPGSA,A,1,,,,,,,,,,,,,,,,*32
{"class":"TPV","mode":1,"time":"2023-12-10T00:01:45.990Z","ept":0.005}
{"class":"SKY","time":"2023-12-10T00:01:46.990Z","nSat":0,"uSat":0}
$GPRMC,000146.99,V,,S,,W,,,101223,,*1B
$GPGSA,A,1,,,,,,,,,,,,,,,,*32
{"class":"TPV","mode":1,"time":"2023-12-10T00:01:46.990Z","ept":0.005}
{"class":"SKY","time":"2023-12-10T00:01:47.990Z","nSat":0,"uSat":0}
$GPRMC,000147.99,V,,S,,W,,,101223,,*1A
$GPGSA,A,1,,,,,,,,,,,,,,,,*32
{"class":"TPV","mode":1,"time":"2023-12-10T00:01:47.990Z","ept":0.005}
{"class":"SKY","time":"2023-12-10T00:01:48.990Z","nSat":0,"uSat":0}
$GPRMC,000148.99,V,,S,,W,,,101223,,*15
$GPGSA,A,1,,,,,,,,,,,,,,,,*32
{"class":"TPV","mode":1,"time":"2023-12-10T00:01:48.990Z","ept":0.005}
{"class":"SKY","time":"2023-12-10T00:01:49.990Z","nSat":0,"uSat":0}
$GPRMC,000149.99,V,,S,,W,,,101223,,*14
$GPGSA,A,1,,,,,,,,,,,,,,,,*32
{"class":"TPV","mode":1,"time":"2023-12-10T00:01:49.990Z","ept":0.005}
{"class":"SKY","time":"2023-12-10T00:01:50.990Z","nSat":0,"uSat":0}
$GPRMC,000150.99,V,,S,,W,,,101223,,*1C
$GPGSA,A,1,,,,,,,,,,,,,,,,*32
{"class":"TPV","mode":1,"time":"2023-12-10T00:01:50.990Z","ept":0.005}
{"class":"SKY","time":"2023-12-10T00:01:51.990Z","nSat":0,"uSat":0}
$GPRMC,000151.99,V,,S,,W,,,101223,,*1D
$GPGSA,A,1,,,,,,,,,,,,,,,,*32
{"class":"TPV","mode":1,"time":"2023-12-10T00:01:51.990Z","ept":0.005}
{"class":"SKY","time":"2023-12-10T00:01:52.990Z","nSat":0,"uSat":0}
$GPRMC,000152.99,V,,S,,W,,,101223,,*1E
$GPGSA,A,1,,,,,,,,,,,,,,,,*32
{"class":"TPV","mode":1,"time":"2023-12-10T00:01:52.990Z","ept":0.005}
{"class":"SKY","time":"2023-12-10T00:01:53.990Z","nSat":0,"uSat":0}
$GPRMC,000153.99,V,,S,,W,,,101223,,*1F
$GPGSA,A,1,,,,,,,,,,,,,,,,*32
{"class":"TPV","mode":1,"time":"2023-12-10T00:01:53.990Z","ept":0.005}
{"class":"SKY","time":"2023-12-10T00:01:54.990Z","nSat":0,"uSat":0}
$GPRMC,000154.99,V,,S,,W,,,101223,,*18
$GPGSA,A,1,,,,,,,,,,,,,,,,*32
{"class":"TPV","mode":1,"time":"2023-12-10T00:01:54.990Z","ept":0.005}
{"class":"SKY","time":"2023-12-10T00:01:55.990Z","nSat":0,"uSat":0}
$GPRMC,000155.99,V,,S,,W,,,101223,,*19
$GPGSA,A,1,,,,,,,,,,,,,,,,*32
{"class":"TPV","mode":1,"time":"2023-12-10T00:01:55.990Z","ept":0.005}
{"class":"SKY","time":"2023-12-10T00:01:56.990Z","nSat":0,"uSat":0}
$GPRMC,000156.99,V,,S,,W,,,101223,,*1A
$GPGSA,A,1,,,,,,,,,,,,,,,,*32
{"class":"TPV","mode":1,"time":"2023-12-10T00:01:56.990Z","ept":0.005}
{"class":"SKY","time":"2023-12-10T00:01:57.990Z","nSat":0,"uSat":0}
$GPRMC,000157.99,V,,S,,W,,,101223,,*1B
$GPGSA,A,1,,,,,,,,,,,,,,,,*32
{"class":"TPV","mode":1,"time":"2023-12-10T00:01:57.990Z","ept":0.005}
{"class":"SKY","time":"2023-12-10T00:01:58.990Z","nSat":0,"uSat":0}
$GPRMC,000158.99,V,,S,,W,,,101223,,*14
$GPGSA,A,1,,,,,,,,,,,,,,,,*32
{"class":"TPV","mode":1,"time":"2023-12-10T00:01:58.990Z","ept":0.005}
{"class":"SKY","time":"2023-12-10T00:01:59.990Z","nSat":0,"uSat":0}
$GPRMC,000159.99,V,,S,,W,,,101223,,*15
$GPGSA,A,1,,,,,,,,,,,,,,,,*32
{"class":"TPV","mode":1,"time":"2023-12-10T00:01:59.990Z","ept":0.005}
{"class":"SKY","time":"2023-12-10T00:02:00.990Z","nSat":0,"uSat":0}
$GPRMC,000200.99,V,,S,,W,,,101223,,*1A
$GPGSA,A,1,,,,,,,,,,,,,,,,*32
{"class":"TPV","mode":1,"time":"2023-12-10T00:02:00.990Z","ept":0.005}
{"class":"SKY","time":"2023-12-10T00:02:01.990Z","nSat":0,"uSat":0}
$GPRMC,000201.99,V,,S,,W,,,101223,,*1B
$GPGSA,A,1,,,,,,,,,,,,,,,,*32
{"class":"TPV","mode":1,"time":"2023-12-10T00:02:01.990Z","ept":0.005}
{"class":"SKY","time":"2023-12-10T00:02:02.990Z","nSat":0,"uSat":0}
$GPRMC,000202.99,V,,S,,W,,,101223,,*18
$GPGSA,A,1,,,,,,,,,,,,,,,,*32
{"class":"TPV","mode":1,"time":"2023-12-10T00:02:02.990Z","ept":0.005}
{"class":"SKY","time":"2023-12-10T00:02:03.990Z","nSat":0,"uSat":0}
$GPRMC,000203.99,V,,S,,W,,,101223,,*19
$GPGSA,A,1,,,,,,,,,,,,,,,,*32
{"class":"TPV","mode":1,"time":"2023-12-10T00:02:03.990Z","ept":0.005}
{"class":"SKY","time":"2023-12-10T00:02:04.990Z","nSat":0,"uSat":0}
$GPRMC,000204.99,V,,S,,W,,,101223,,*1E
$GPGSA,A,1,,,,,,,,,,,,,,,,*32
{"class":"TPV","mode":1,"time":"2023-12-10T00:02:04.990Z","ept":0.005}
{"class":"SKY","time":"2023-12-10T00:02:05.990Z","nSat":0,"uSat":0}
$GPRMC,000205.99,V,,S,,W,,,101223,,*1F
$GPGSA,A,1,,,,,,,,,,,,,,,,*32
{"class":"TPV","mode":1,"time":"2023-12-10T00:02:05.990Z","ept":0.005}
{"class":"SKY","time":"2023-12-10T00:02:06.990Z","nSat":0,"uSat":0}
$GPRMC,000206.99,V,,S,,W,,,101223,,*1C
$GPGSA,A,1,,,,,,,,,,,,,,,,*32
{"class":"TPV","mode":1,"time":"2023-12-10T00:02:06.990Z","ept":0.005}
{"class":"SKY","time":"2023-12-10T00:02:07.990Z","nSat":0,"uSat":0}
$GPRMC,000207.99,V,,S,,W,,,101223,,*1D
$GPGSA,A,1,,,,,,,,,,,,,,,,*32
{"class":"TPV","mode":1,"time":"2023-12-10T00:02:07.990Z","ept":0.005}
{"class":"SKY","time":"2023-12-10T00:02:08.990Z","nSat":0,"uSat":0}
$GPRMC,000208.99,V,,S,,W,,,101223,,*12
$GPGSA,A,1,,,,,,,,,,,,,,,,*32
{"class":"TPV","mode":1,"time":"2023-12-10T00:02:08.990Z","ept":0.005}
{"class":"SKY","time":"2023-12-10T00:02:09.990Z","nSat":0,"uSat":0}
$GPRMC,000209.99,V,,S,,W,,,101223,,*13
$GPGSA,A,1,,,,,,,,,,,,,,,,*32
{"class":"TPV","mode":1,"time":"2023-12-10T00:02:09.990Z","ept":0.005}
{"class":"SKY","time":"2023-12-14T20:37:19.820Z","nSat":0,"uSat":0}
$GPRMC,203719.82,V,,S,,W,,,141223,,*18
$GPGSA,A,1,,,,,,,,,,,,,,,,*32
{"class":"TPV","mode":1,"time":"2023-12-14T20:37:19.820Z","ept":0.005}
{"class":"SKY","time":"2023-12-14T20:37:20.820Z","nSat":0,"uSat":0}
$GPRMC,203720.82,V,,S,,W,,,141223,,*12
$GPGSA,A,1,,,,,,,,,,,,,,,,*32
{"class":"TPV","mode":1,"time":"2023-12-14T20:37:20.820Z","ept":0.005}
{"class":"SKY","time":"2023-12-14T20:37:21.820Z","nSat":0,"uSat":0}
$GPRMC,203721.82,V,,S,,W,,,141223,,*13
$GPGSA,A,1,,,,,,,,,,,,,,,,*32
{"class":"TPV","mode":1,"time":"2023-12-14T20:37:21.820Z","ept":0.005}
{"class":"SKY","time":"2023-12-14T20:37:22.820Z","nSat":0,"uSat":0}
$GPRMC,203722.82,V,,S,,W,,,141223,,*10
$GPGSA,A,1,,,,,,,,,,,,,,,,*32
{"class":"TPV","mode":1,"time":"2023-12-14T20:37:22.820Z","ept":0.005}
{"class":"SKY","time":"2023-12-14T20:37:23.820Z","nSat":0,"uSat":0}
$GPRMC,203723.82,V,,S,,W,,,141223,,*11
$GPGSA,A,1,,,,,,,,,,,,,,,,*32
{"class":"TPV","mode":1,"time":"2023-12-14T20:37:23.820Z","ept":0.005}
{"class":"SKY","time":"2023-12-14T20:37:24.820Z","nSat":0,"uSat":0}
$GPRMC,203724.82,V,,S,,W,,,141223,,*16
$GPGSA,A,1,,,,,,,,,,,,,,,,*32
{"class":"TPV","mode":1,"time":"2023-12-14T20:37:24.820Z","ept":0.005}
{"class":"SKY","time":"2023-12-14T20:37:25.820Z","nSat":0,"uSat":0}
$GPRMC,203725.82,V,,S,,W,,,141223,,*17
$GPGSA,A,1,,,,,,,,,,,,,,,,*32
{"class":"TPV","mode":1,"time":"2023-12-14T20:37:25.820Z","ept":0.005}
{"class":"SKY","time":"2023-12-14T20:37:26.820Z","nSat":0,"uSat":0}
$GPRMC,203726.82,V,,S,,W,,,141223,,*14
$GPGSA,A,1,,,,,,,,,,,,,,,,*32
{"class":"TPV","mode":1,"time":"2023-12-14T20:37:26.820Z","ept":0.005}
{"class":"SKY","time":"2023-12-14T20:37:27.820Z","nSat":0,"uSat":0}
$GPRMC,203727.82,V,,S,,W,,,141223,,*15
$GPGSA,A,1,,,,,,,,,,,,,,,,*32
{"class":"TPV","mode":1,"time":"2023-12-14T20:37:27.820Z","ept":0.005}
{"class":"SKY","time":"2023-12-14T20:37:28.820Z","nSat":0,"uSat":0}
$GPRMC,203728.82,V,,S,,W,,,141223,,*1A
$GPGSA,A,1,,,,,,,,,,,,,,,,*32
{"class":"TPV","mode":1,"time":"2023-12-14T20:37:28.820Z","ept":0.005}
{"class":"SKY","time":"2023-12-14T20:37:29.820Z","nSat":0,"uSat":0}
$GPRMC,203729.82,V,,S,,W,,,141223,,*1B
$GPGSA,A,1,,,,,,,,,,,,,,,,*32
{"class":"TPV","mode":1,"time":"2023-12-14T20:37:29.820Z","ept":0.005}
{"class":"SKY","time":"2021-12-09T20:37:30.820Z","nSat":0,"uSat":0}
$GPRMC,203730.82,V,,S,,W,,,091221,,*1D
$GPGSA,A,1,,,,,,,,,,,,,,,,*32
{"class":"TPV","mode":1,"time":"2021-12-09T20:37:30.820Z","ept":0.005}
{"class":"SKY","time":"2021-12-09T20:37:30.820Z","hdop":27.40}
{"class":"SKY","time":"2021-12-09T20:37:31.820Z","hdop":27.40,"nSat":0,"uSat":0}
$GPZDA,203731.82,09,12,2021,00,00*63
$GPGGA,203731.82,3717.6315672,N,12155.1216959,W,1,00,27.40,31.61,M,-32.150,M,,*5F
$GPRMC,203731.82,A,3717.6315672,N,12155.1216959,W,0.0000,0.000,091221,13.1,E*4D
$GPGSA,A,2,,,,,,,,,,,,,,27.4,*02
{"class":"TPV","mode":2,"time":"2021-12-09T20:37:31.820Z","ept":0.005,"lat":37.293859454,"lon":-121.918694932,"altHAE":-0.5392,"altMSL":31.6110,"alt":31.6110,"track":0.0000,"magtrack":13.0861,"magvar":13.1,"speed":0.000,"eph":520.600}
{"class":"SKY","time":"2021-12-09T20:37:31.820Z","hdop":27.40}
{"class":"SKY","time":"2021-12-09T20:37:31.820Z","hdop":27.40}
$GPGSV,1,1,04,09,44,309,43,16,50,096,37,07,20,236,00,04,70,010,39*7A
{"class":"SKY","time":"2021-12-09T20:37:32.820Z","hdop":27.40,"nSat":4,"uSat":3,"satellites":[{"PRN":9,"gnssid":0,"svid":9,"az":309.0,"el":44.0,"ss":43.2,"used":true},{"PRN":16,"gnssid":0,"svid":16,"az":96.0,"el":50.0,"ss":37.0,"used":true},{"PRN":7,"gnssid":0,"svid":7,"az":235.5,"el":20.5,"ss":0.0,"used":false},{"PRN":4,"gnssid":0,"svid":4,"az":10.5,"el":69.5,"ss":38.7,"used":true}]}
$GPZDA,203732.82,09,12,2021,00,00*60
$GPGGA,203732.82,3717.6340852,N,12155.1203306,W,1,03,27.40,32.10,M,-32.150,M,,*52
$GPRMC,203732.82,A,3717.6340852,N,12155.1203306,W,0.0000,0.000,091221,13.1,E*46
$GPGSA,A,2,9,16,4,,,,,,,,,,,27.4,*08
{"class":"TPV","mode":2,"time":"2021-12-09T20:37:32.820Z","ept":0.005,"lat":37.293901420,"lon":-121.918672177,"altHAE":-0.0527,"altMSL":32.0975,"alt":32.0975,"track":0.0000,"magtrack":13.0861,"magvar":13.1,"speed":0.000,"eph":520.600}
{"class":"SKY","time":"2021-12-09T20:37:32.820Z","hdop":27.40}
{"class":"SKY","time":"2021-12-09T20:37:32.820Z","hdop":27.40}
$GPGSV,3,1,10,09,44,309,43,15,64,336,00,16,50,096,37,28,42,160,00*7C
$GPGSV,3,2,10,26,31,294,00,07,20,236,00,21,14,282,00,31,12,048,00*71
$GPGSV,3,3,10,18,10,318,00,04,70,010,38*73
{"class":"SKY","time":"2021-12-09T20:37:33.820Z","hdop":27.40,"nSat":10,"uSat":3,"satellites":[{"PRN":9,"gnssid":0,"svid":9,"az":309.0,"el":44.0,"ss":43.1,"used":true},{"PRN":15,"gnssid":0,"svid":15,"az":336.0,"el":64.0,"ss":0.0,"used":false},{"PRN":16,"gnssid":0,"svid":16,"az":96.0,"el":50.0,"ss":37.0,"used":true},{"PRN":28,"gnssid":0,"svid":28,"az":160.5,"el":42.0,"ss":0.0,"used":false},{"PRN":26,"gnssid":0,"svid":26,"az":294.0,"el":31.0,"ss":0.0,"used":false},{"PRN":7,"gnssid":0,"svid":7,"az":235.5,"el":20.5,"ss":0.0,"used":false},{"PRN":21,"gnssid":0,"svid":21,"az":282.0,"el":14.5,"ss":0.0,"used":false},{"PRN":31,"gnssid":0,"svid":31,"az":48.0,"el":12.0,"ss":0.0,"used":false},{"PRN":18,"gnssid":0,"svid":18,"az":318.0,"el":10.0,"ss":0.0,"used":false},{"PRN":4,"gnssid":0,"svid":4,"az":10.5,"el":69.5,"ss":37.9,"used":true}]}
$GPZDA,203733.82,09,12,2021,00,00*61
$GPGGA,203733.82,3717.6319973,N,12155.1216959,W,1,03,27.40,32.22,M,-32.150,M,,*58
$GPRMC,203733.82,A,3717.6319973,N,12155.1216959,W,0.0000,0.000,091221,13.1,E*4D
$GPGSA,A,2,9,16,4,,,,,,,,,,,27.4,*08
{"class":"TPV","mode":2,"time":"2021-12-09T20:37:33.820Z","ept":0.005,"lat":37.293866622,"lon":-121.918694932,"altHAE":0.0667,"altMSL":32.2169,"alt":32.2169,"track":0.0000,"magtrack":13.0861,"magvar":13.1,"speed":0.000,"eph":520.600}
{"class":"SKY","time":"2021-12-09T20:37:33.820Z","hdop":27.40}
{"class":"SKY","time":"2021-12-09T20:37:33.820Z","hdop":27.40}
$GPGSV,3,1,10,09,44,309,44,15,64,336,00,16,50,096,38,28,42,160,00*74
$GPGSV,3,2,10,26,31,294,00,07,20,236,00,21,14,282,00,31,12,048,00*71
$GPGSV,3,3,10,18,10,318,00,04,70,010,38*73
{"class":"SKY","time":"2021-12-09T20:37:34.820Z","hdop":27.40,"nSat":10,"uSat":3,"satellites":[{"PRN":9,"gnssid":0,"svid":9,"az":309.0,"el":44.0,"ss":43.6,"used":true},{"PRN":15,"gnssid":0,"svid":15,"az":336.0,"el":64.0,"ss":0.0,"used":false},{"PRN":16,"gnssid":0,"svid":16,"az":96.0,"el":50.0,"ss":37.8,"used":true},{"PRN":28,"gnssid":0,"svid":28,"az":160.5,"el":42.0,"ss":0.0,"used":false},{"PRN":26,"gnssid":0,"svid":26,"az":294.0,"el":31.0,"ss":0.0,"used":false},{"PRN":7,"gnssid":0,"svid":7,"az":235.5,"el":20.5,"ss":0.0,"used":false},{"PRN":21,"gnssid":0,"svid":21,"az":282.0,"el":14.5,"ss":0.0,"used":false},{"PRN":31,"gnssid":0,"svid":31,"az":48.0,"el":12.0,"ss":0.0,"used":false},{"PRN":18,"gnssid":0,"svid":18,"az":318.0,"el":10.0,"ss":0.0,"used":false},{"PRN":4,"gnssid":0,"svid":4,"az":10.5,"el":69.5,"ss":38.1,"used":true}]}
$GPZDA,203734.82,09,12,2021,00,00*66
$GPGGA,203734.82,3717.6339120,N,12155.1209050,W,1,03,27.40,32.52,M,-32.150,M,,*5A
$GPRMC,203734.82,A,3717.6339120,N,12155.1209050,W,0.0000,0.000,091221,13.1,E*48
$GPGSA,A,2,9,16,4,,,,,,,,,,,27.4,*08
{"class":"TPV","mode":2,"time":"2021-12-09T20:37:34.820Z","ept":0.005,"lat":37.293898533,"lon":-121.918681749,"altHAE":0.3680,"altMSL":32.5181,"alt":32.5181,"track":0.0000,"magtrack":13.0861,"magvar":13.1,"speed":0.000,"eph":520.600}
{"class":"SKY","time":"2021-12-09T20:37:34.820Z","hdop":27.40}
{"class":"SKY","time":"2021-12-09T20:37:34.820Z","hdop":27.40}
$GPGSV,3,1,10,09,44,309,43,15,64,336,00,16,50,096,37,28,42,160,00*7C
$GPGSV,3,2,10,26,31,294,00,07,20,236,00,21,14,282,00,31,12,048,00*71
$GPGSV,3,3,10,18,10,318,00,04,70,010,38*73
{"class":"SKY","time":"2021-12-09T20:37:35.820Z","hdop":27.40,"nSat":10,"uSat":3,"satellites":[{"PRN":9,"gnssid":0,"svid":9,"az":309.0,"el":44.0,"ss":43.2,"used":true},{"PRN":15,"gnssid":0,"svid":15,"az":336.0,"el":64.0,"ss":0.0,"used":false},{"PRN":16,"gnssid":0,"svid":16,"az":96.0,"el":50.0,"ss":37.2,"used":true},{"PRN":28,"gnssid":0,"svid":28,"az":160.5,"el":42.0,"ss":0.0,"used":false},{"PRN":26,"gnssid":0,"svid":26,"az":294.0,"el":31.0,"ss":0.0,"used":false},{"PRN":7,"gnssid":0,"svid":7,"az":235.5,"el":20.5,"ss":0.0,"used":false},{"PRN":21,"gnssid":0,"svid":21,"az":282.0,"el":14.5,"ss":0.0,"used":false},{"PRN":31,"gnssid":0,"svid":31,"az":48.0,"el":12.0,"ss":0.0,"used":false},{"PRN":18,"gnssid":0,"svid":18,"az":318.0,"el":10.0,"ss":0.0,"used":false},{"PRN":4,"gnssid":0,"svid":4,"az":10.5,"el":69.5,"ss":37.8,"used":true}]}
$GPZDA,203735.82,09,12,2021,00,00*67
$GPGGA,203735.82,3717.6333087,N,12155.1214793,W,1,03,27.40,32.33,M,-32.150,M,,*5E
$GPRMC,203735.82,A,3717.6333087,N,12155.1214793,W,0.0000,0.000,091221,13.1,E*4B
$GPGSA,A,2,9,16,4,,,,,,,,,,,27.4,*08
{"class":"TPV","mode":2,"time":"2021-12-09T20:37:35.820Z","ept":0.005,"lat":37.293888479,"lon":-121.918691322,"altHAE":0.1827,"altMSL":32.3328,"alt":32.3328,"track":0.0000,"magtrack":13.0861,"magvar":13.1,"speed":0.000,"eph":520.600}
{"class":"SKY","time":"2021-12-09T20:37:35.820Z","hdop":27.40}
{"class":"SKY","time":"2021-12-09T20:37:35.820Z","hdop":27.40}
$GPGSV,3,1,10,09,44,309,43,15,64,336,00,16,50,096,37,28,42,160,00*7C
$GPGSV,3,2,10,26,31,294,00,07,20,236,00,21,14,282,00,31,12,048,00*71
$GPGSV,3,3,10,18,10,318,00,04,70,010,37*7C
{"class":"SKY","time":"2021-12-09T20:37:36.820Z","hdop":27.40,"nSat":10,"uSat":3,"satellites":[{"PRN":9,"gnssid":0,"svid":9,"az":309.0,"el":44.0,"ss":42.8,"used":true},{"PRN":15,"gnssid":0,"svid":15,"az":336.0,"el":64.0,"ss":0.0,"used":false},{"PRN":16,"gnssid":0,"svid":16,"az":96.0,"el":50.0,"ss":36.8,"used":true},{"PRN":28,"gnssid":0,"svid":28,"az":160.5,"el":42.0,"ss":0.0,"used":false},{"PRN":26,"gnssid":0,"svid":26,"az":294.0,"el":31.0,"ss":0.0,"used":false},{"PRN":7,"gnssid":0,"svid":7,"az":235.5,"el":20.5,"ss":0.0,"used":false},{"PRN":21,"gnssid":0,"svid":21,"az":282.0,"el":14.5,"ss":0.0,"used":false},{"PRN":31,"gnssid":0,"svid":31,"az":48.0,"el":12.0,"ss":0.0,"used":false},{"PRN":18,"gnssid":0,"svid":18,"az":318.0,"el":10.0,"ss":0.0,"used":false},{"PRN":4,"gnssid":0,"svid":4,"az":10.5,"el":69.5,"ss":37.4,"used":true}]}
$GPZDA,203736.82,09,12,2021,00,00*64
$GPGGA,203736.82,3717.6301875,N,12155.1234190,W,1,03,27.40,31.66,M,-32.150,M,,*5D
$GPRMC,203736.82,A,3717.6301875,N,12155.1234190,W,0.0000,0.000,091221,13.1,E*4B
$GPGSA,A,2,9,16,4,,,,,,,,,,,27.4,*08
{"class":"TPV","mode":2,"time":"2021-12-09T20:37:36.820Z","ept":0.005,"lat":37.293836458,"lon":-121.918723650,"altHAE":-0.4891,"altMSL":31.6612,"alt":31.6612,"track":0.0000,"magtrack":13.0861,"magvar":13.1,"speed":0.000,"eph":520.600}
{"class":"SKY","time":"2021-12-09T20:37:36.820Z","hdop":27.40}
{"class":"SKY","time":"2021-12-09T20:37:36.820Z","hdop":27.40}
$GPGSV,3,1,10,09,44,309,43,15,64,336,00,16,50,096,37,28,42,160,00*7C
$GPGSV,3,2,10,26,31,294,00,07,20,236,00,21,14,282,00,31,12,048,00*71
$GPGSV,3,3,10,18,10,318,00,04,70,010,38*73
{"class":"SKY","time":"2021-12-09T20:37:37.820Z","hdop":27.40,"nSat":10,"uSat":3,"satellites":[{"PRN":9,"gnssid":0,"svid":9,"az":309.0,"el":44.0,"ss":43.3,"used":true},{"PRN":15,"gnssid":0,"svid":15,"az":336.0,"el":64.0,"ss":0.0,"used":false},{"PRN":16,"gnssid":0,"svid":16,"az":96.0,"el":50.0,"ss":37.1,"used":true},{"PRN":28,"gnssid":0,"svid":28,"az":160.5,"el":42.0,"ss":0.0,"used":false},{"PRN":26,"gnssid":0,"svid":26,"az":294.0,"el":31.0,"ss":0.0,"used":false},{"PRN":7,"gnssid":0,"svid":7,"az":235.5,"el":20.5,"ss":0.0,"used":false},{"PRN":21,"gnssid":0,"svid":21,"az":282.0,"el":14.5,"ss":0.0,"used":false},{"PRN":31,"gnssid":0,"svid":31,"az":48.0,"el":12.0,"ss":0.0,"used":false},{"PRN":18,"gnssid":0,"svid":18,"az":318.0,"el":10.0,"ss":0.0,"used":false},{"PRN":4,"gnssid":0,"svid":4,"az":10.5,"el":69.5,"ss":38.0,"used":true}]}
$GPZDA,203737.82,09,12,2021,00,00*65
$GPGGA,203737.82,3717.6327055,N,12155.1220537,W,1,03,27.40,32.15,M,-32.150,M,,*59
$GPRMC,203737.82,A,3717.6327055,N,12155.1220537,W,0.0000,0.000,091221,13.1,E*48
$GPGSA,A,2,9,16,4,,,,,,,,,,,27.4,*08
{"class":"TPV","mode":2,"time":"2021-12-09T20:37:37.820Z","ept":0.005,"lat":37.293878424,"lon":-121.918700895,"altHAE":-0.0026,"altMSL":32.1476,"alt":32.1476,"track":0.0000,"magtrack":13.0861,"magvar":13.1,"speed":0.000,"eph":520.600}
{"class":"SKY","time":"2021-12-09T20:37:37.820Z","hdop":27.40}
{"class":"SKY","time":"2021-12-09T20:37:37.820Z","hdop":27.40}
$GPGSV,3,1,10,09,44,309,43,15,64,336,00,16,50,096,37,28,42,160,00*7C
$GPGSV,3,2,10,26,31,294,00,07,20,236,00,21,14,282,00,31,12,048,00*71
$GPGSV,3,3,10,18,10,318,00,04,70,010,38*73
{"class":"SKY","time":"2021-12-09T20:37:38.820Z","hdop":27.40,"nSat":10,"uSat":3,"satellites":[{"PRN":9,"gnssid":0,"svid":9,"az":309.0,"el":44.0,"ss":43.1,"used":true},{"PRN":15,"gnssid":0,"svid":15,"az":336.0,"el":64.0,"ss":0.0,"used":false},{"PRN":16,"gnssid":0,"svid":16,"az":96.0,"el":50.0,"ss":36.9,"used":true},{"PRN":28,"gnssid":0,"svid":28,"az":160.5,"el":42.0,"ss":0.0,"used":false},{"PRN":26,"gnssid":0,"svid":26,"az":294.0,"el":31.0,"ss":0.0,"used":false},{"PRN":7,"gnssid":0,"svid":7,"az":235.5,"el":20.5,"ss":0.0,"used":false},{"PRN":21,"gnssid":0,"svid":21,"az":282.0,"el":14.5,"ss":0.0,"used":false},{"PRN":31,"gnssid":0,"svid":31,"az":48.0,"el":12.0,"ss":0.0,"used":false},{"PRN":18,"gnssid":0,"svid":18,"az":318.0,"el":10.0,"ss":0.0,"used":false},{"PRN":4,"gnssid":0,"svid":4,"az":10.5,"el":69.5,"ss":37.6,"used":true}]}
$GPZDA,203738.82,09,12,2021,00,00*6A
$GPGGA,203738.82,3717.6285297,N,12155.1247844,W,1,03,27.40,32.39,M,-32.150,M,,*55
$GPRMC,203738.82,A,3717.6285297,N,12155.1247844,W,0.0000,0.000,091221,13.1,E*4A
$GPGSA,A,2,9,16,4,,,,,,,,,,,27.4,*08
{"class":"TPV","mode":2,"time":"2021-12-09T20:37:38.820Z","ept":0.005,"lat":37.293808829,"lon":-121.918746406,"altHAE":0.2361,"altMSL":32.3866,"alt":32.3866,"track":0.0000,"magtrack":13.0861,"magvar":13.1,"speed":0.000,"eph":520.600}
{"class":"SKY","time":"2021-12-09T20:37:38.820Z","hdop":27.40}
{"class":"SKY","time":"2021-12-09T20:37:38.820Z","hdop":27.40}
$GPGSV,3,1,10,09,44,309,44,15,64,336,00,16,50,096,37,28,42,160,00*7B
$GPGSV,3,2,10,26,31,294,00,07,20,236,00,21,14,282,00,31,12,048,00*71
$GPGSV,3,3,10,18,10,318,00,04,70,010,38*73
{"class":"SKY","time":"2021-12-09T20:37:39.820Z","hdop":27.40,"nSat":10,"uSat":3,"satellites":[{"PRN":9,"gnssid":0,"svid":9,"az":309.0,"el":44.0,"ss":43.8,"used":true},{"PRN":15,"gnssid":0,"svid":15,"az":336.0,"el":64.0,"ss":0.0,"used":false},{"PRN":16,"gnssid":0,"svid":16,"az":96.0,"el":50.0,"ss":37.1,"used":true},{"PRN":28,"gnssid":0,"svid":28,"az":160.5,"el":42.0,"ss":0.0,"used":false},{"PRN":26,"gnssid":0,"svid":26,"az":294.0,"el":31.0,"ss":0.0,"used":false},{"PRN":7,"gnssid":0,"svid":7,"az":235.5,"el":20.5,"ss":0.0,"used":false},{"PRN":21,"gnssid":0,"svid":21,"az":282.0,"el":14.5,"ss":0.0,"used":false},{"PRN":31,"gnssid":0,"svid":31,"az":48.0,"el":12.0,"ss":0.0,"used":false},{"PRN":18,"gnssid":0,"svid":18,"az":318.0,"el":10.0,"ss":0.0,"used":false},{"PRN":4,"gnssid":0,"svid":4,"az":10.5,"el":69.5,"ss":38.2,"used":true}]}
$GPZDA,203739.82,09,12,2021,00,00*6B
$GPGGA,203739.82,3717.6266151,N,12155.1255753,W,1,03,27.40,32.09,M,-32.150,M,,*59
$GPRMC,203739.82,A,3717.6266151,N,12155.1255753,W,0.0000,0.000,091221,13.1,E*45
$GPGSA,A,2,9,16,4,,,,,,,,,,,27.4,*08
{"class":"TPV","mode":2,"time":"2021-12-09T20:37:39.820Z","ept":0.005,"lat":37.293776918,"lon":-121.918759589,"altHAE":-0.0651,"altMSL":32.0854,"alt":32.0854,"track":0.0000,"magtrack":13.0861,"magvar":13.1,"speed":0.000,"eph":520.600}
{"class":"SKY","time":"2021-12-09T20:37:39.820Z","hdop":27.40}
{"class":"SKY","time":"2021-12-09T20:37:39.820Z","hdop":27.40}
$GPGSV,3,1,10,09,44,309,43,15,64,336,00,16,50,096,37,28,42,160,00*7C
$GPGSV,3,2,10,26,31,294,00,07,20,236,00,21,14,282,00,31,12,048,00*71
$GPGSV,3,3,10,18,10,318,00,04,70,010,38*73
{"class":"SKY","time":"2021-12-09T20:37:40.820Z","hdop":27.40,"nSat":10,"uSat":3,"satellites":[{"PRN":9,"gnssid":0,"svid":9,"az":309.0,"el":44.0,"ss":43.4,"used":true},{"PRN":15,"gnssid":0,"svid":15,"az":336.0,"el":64.0,"ss":0.0,"used":false},{"PRN":16,"gnssid":0,"svid":16,"az":96.0,"el":50.0,"ss":37.0,"used":true},{"PRN":28,"gnssid":0,"svid":28,"az":160.5,"el":42.0,"ss":0.0,"used":false},{"PRN":26,"gnssid":0,"svid":26,"az":294.0,"el":31.0,"ss":0.0,"used":false},{"PRN":7,"gnssid":0,"svid":7,"az":235.5,"el":20.5,"ss":0.0,"used":false},{"PRN":21,"gnssid":0,"svid":21,"az":282.0,"el":14.5,"ss":0.0,"used":false},{"PRN":31,"gnssid":0,"svid":31,"az":48.0,"el":12.0,"ss":0.0,"used":false},{"PRN":18,"gnssid":0,"svid":18,"az":318.0,"el":10.0,"ss":0.0,"used":false},{"PRN":4,"gnssid":0,"svid":4,"az":10.5,"el":69.5,"ss":38.0,"used":true}]}
$GPZDA,203740.82,09,12,2021,00,00*65
$GPGGA,203740.82,3717.6287029,N,12155.1242100,W,1,03,27.40,31.97,M,-32.150,M,,*54
$GPRMC,203740.82,A,3717.6287029,N,12155.1242100,W,0.0000,0.000,091221,13.1,E*4C
$GPGSA,A,2,9,16,4,,,,,,,,,,,27.4,*08
{"class":"TPV","mode":2,"time":"2021-12-09T20:37:40.820Z","ept":0.005,"lat":37.293811715,"lon":-121.918736833,"altHAE":-0.1845,"altMSL":31.9659,"alt":31.9659,"track":0.0000,"magtrack":13.0861,"magvar":13.1,"speed":0.000,"eph":520.600}
{"class":"SKY","time":"2021-12-09T20:37:40.820Z","hdop":27.40}
{"class":"SKY","time":"2021-12-09T20:37:40.820Z","hdop":27.40}
$GPGSV,3,1,10,09,44,309,44,15,64,336,00,16,50,096,38,28,42,160,00*74
$GPGSV,3,2,10,26,31,294,00,07,20,236,00,21,14,282,00,31,12,048,00*71
$GPGSV,3,3,10,18,10,318,00,04,70,010,38*73
{"class":"SKY","time":"2021-12-09T20:37:41.820Z","hdop":27.40,"nSat":10,"uSat":3,"satellites":[{"PRN":9,"gnssid":0,"svid":9,"az":309.0,"el":44.0,"ss":44.3,"used":true},{"PRN":15,"gnssid":0,"svid":15,"az":336.0,"el":64.0,"ss":0.0,"used":false},{"PRN":16,"gnssid":0,"svid":16,"az":96.0,"el":50.0,"ss":37.5,"used":true},{"PRN":28,"gnssid":0,"svid":28,"az":160.5,"el":42.0,"ss":0.0,"used":false},{"PRN":26,"gnssid":0,"svid":26,"az":294.0,"el":31.0,"ss":0.0,"used":false},{"PRN":7,"gnssid":0,"svid":7,"az":235.5,"el":20.5,"ss":0.0,"used":false},{"PRN":21,"gnssid":0,"svid":21,"az":282.0,"el":14.5,"ss":0.0,"used":false},{"PRN":31,"gnssid":0,"svid":31,"az":48.0,"el":12.0,"ss":0.0,"used":false},{"PRN":18,"gnssid":0,"svid":18,"az":318.0,"el":10.0,"ss":0.0,"used":false},{"PRN":4,"gnssid":0,"svid":4,"az":10.5,"el":69.5,"ss":38.3,"used":true}]}
$GPZDA,203741.82,09,12,2021,00,00*64
$GPGGA,203741.82,3717.6340169,N,12155.1218371,W,1,03,27.40,32.26,M,-32.150,M,,*58
$GPRMC,203741.82,A,3717.6340169,N,12155.1218371,W,0.0000,0.000,091221,13.1,E*49
$GPGSA,A,2,9,16,4,,,,,,,,,,,27.4,*08
{"class":"TPV","mode":2,"time":"2021-12-09T20:37:41.820Z","ept":0.005,"lat":37.293900281,"lon":-121.918697285,"altHAE":0.1133,"altMSL":32.2635,"alt":32.2635,"track":0.0000,"magtrack":13.0861,"magvar":13.1,"speed":0.000,"eph":520.600}
{"class":"SKY","time":"2021-12-09T20:37:41.820Z","hdop":27.40}
{"class":"SKY","time":"2021-12-09T20:37:41.820Z","hdop":27.40}
$GPGSV,3,1,10,09,44,309,44,15,64,336,00,16,50,096,38,28,42,160,00*74
$GPGSV,3,2,10,26,31,294,00,07,20,236,00,21,14,282,00,31,12,048,00*71
$GPGSV,3,3,10,18,10,318,00,04,70,010,39*72
{"class":"SKY","time":"2021-12-09T20:37:42.820Z","hdop":27.40,"nSat":10,"uSat":3,"satellites":[{"PRN":9,"gnssid":0,"svid":9,"az":309.0,"el":44.0,"ss":43.9,"used":true},{"PRN":15,"gnssid":0,"svid":15,"az":336.0,"el":64.0,"ss":0.0,"used":false},{"PRN":16,"gnssid":0,"svid":16,"az":96.0,"el":50.0,"ss":37.5,"used":true},{"PRN":28,"gnssid":0,"svid":28,"az":160.5,"el":42.0,"ss":0.0,"used":false},{"PRN":26,"gnssid":0,"svid":26,"az":294.0,"el":31.0,"ss":0.0,"used":false},{"PRN":7,"gnssid":0,"svid":7,"az":235.5,"el":20.5,"ss":0.0,"used":false},{"PRN":21,"gnssid":0,"svid":21,"az":282.0,"el":14.5,"ss":0.0,"used":false},{"PRN":31,"gnssid":0,"svid":31,"az":48.0,"el":12.0,"ss":0.0,"used":false},{"PRN":18,"gnssid":0,"svid":18,"az":318.0,"el":10.0,"ss":0.0,"used":false},{"PRN":4,"gnssid":0,"svid":4,"az":10.5,"el":69.5,"ss":39.0,"used":true}]}
$GPZDA,203742.82,09,12,2021,00,00*67
$GPGGA,203742.82,3717.6307224,N,12155.1243512,W,1,03,27.40,32.01,M,-32.150,M,,*5A
$GPRMC,203742.82,A,3717.6307224,N,12155.1243512,W,0.0000,0.000,091221,13.1,E*4E
$GPGSA,A,2,9,16,4,,,,,,,,,,,27.4,*08
{"class":"TPV","mode":2,"time":"2021-12-09T20:37:42.820Z","ept":0.005,"lat":37.293845374,"lon":-121.918739186,"altHAE":-0.1379,"altMSL":32.0124,"alt":32.0124,"track":0.0000,"magtrack":13.0861,"magvar":13.1,"speed":0.000,"eph":520.600}
{"class":"SKY","time":"2021-12-09T20:37:42.820Z","hdop":27.40}
{"class":"SKY","time":"2021-12-09T20:37:42.820Z","hdop":27.40}
$GPGSV,3,1,10,09,44,309,44,15,64,336,00,16,50,096,37,28,42,160,00*7B
$GPGSV,3,2,10,26,32,294,00,07,21,236,00,21,14,282,00,31,12,048,00*73
$GPGSV,3,3,10,18,10,318,00,04,70,010,39*72
{"class":"SKY","time":"2021-12-09T20:37:43.820Z","hdop":27.40,"nSat":10,"uSat":3,"satellites":[{"PRN":9,"gnssid":0,"svid":9,"az":309.0,"el":44.0,"ss":43.9,"used":true},{"PRN":15,"gnssid":0,"svid":15,"az":336.0,"el":64.0,"ss":0.0,"used":false},{"PRN":16,"gnssid":0,"svid":16,"az":96.0,"el":50.0,"ss":37.3,"used":true},{"PRN":28,"gnssid":0,"svid":28,"az":160.5,"el":42.0,"ss":0.0,"used":false},{"PRN":26,"gnssid":0,"svid":26,"az":294.0,"el":31.5,"ss":0.0,"used":false},{"PRN":7,"gnssid":0,"svid":7,"az":235.5,"el":21.0,"ss":0.0,"used":false},{"PRN":21,"gnssid":0,"svid":21,"az":282.0,"el":14.5,"ss":0.0,"used":false},{"PRN":31,"gnssid":0,"svid":31,"az":48.0,"el":12.0,"ss":0.0,"used":false},{"PRN":18,"gnssid":0,"svid":18,"az":318.0,"el":10.0,"ss":0.0,"used":false},{"PRN":4,"gnssid":0,"svid":4,"az":10.5,"el":69.5,"ss":39.1,"used":true}]}
$GPZDA,203743.82,09,12,2021,00,00*66
$GPGGA,203743.82,3717.6305493,N,12155.1249255,W,1,03,27.40,32.43,M,-32.150,M,,*5B
$GPRMC,203743.82,A,3717.6305493,N,12155.1249255,W,0.0000,0.000,091221,13.1,E*49
$GPGSA,A,2,9,16,4,,,,,,,,,,,27.4,*08
{"class":"TPV","mode":2,"time":"2021-12-09T20:37:43.820Z","ept":0.005,"lat":37.293842488,"lon":-121.918748759,"altHAE":0.2827,"altMSL":32.4331,"alt":32.4331,"track":0.0000,"magtrack":13.0861,"magvar":13.1,"speed":0.000,"eph":520.600}
{"class":"SKY","time":"2021-12-09T20:37:43.820Z","hdop":27.40}
{"class":"SKY","time":"2021-12-09T20:37:43.820Z","hdop":27.40}
$GPGSV,3,1,10,09,44,309,44,15,64,336,00,16,50,096,37,28,42,160,00*7B
$GPGSV,3,2,10,26,32,294,00,07,21,236,00,21,14,282,00,31,12,048,00*73
$GPGSV,3,3,10,18,10,318,00,04,70,010,39*72
{"class":"SKY","time":"2021-12-09T20:37:44.820Z","hdop":27.40,"nSat":10,"uSat":3,"satellites":[{"PRN":9,"gnssid":0,"svid":9,"az":309.0,"el":44.0,"ss":43.9,"used":true},{"PRN":15,"gnssid":0,"svid":15,"az":336.0,"el":64.0,"ss":0.0,"used":false},{"PRN":16,"gnssid":0,"svid":16,"az":96.0,"el":50.0,"ss":37.0,"used":true},{"PRN":28,"gnssid":0,"svid":28,"az":160.5,"el":42.0,"ss":0.0,"used":false},{"PRN":26,"gnssid":0,"svid":26,"az":294.0,"el":31.5,"ss":0.0,"used":false},{"PRN":7,"gnssid":0,"svid":7,"az":235.5,"el":21.0,"ss":0.0,"used":false},{"PRN":21,"gnssid":0,"svid":21,"az":282.0,"el":14.5,"ss":0.0,"used":false},{"PRN":31,"gnssid":0,"svid":31,"az":48.0,"el":12.0,"ss":0.0,"used":false},{"PRN":18,"gnssid":0,"svid":18,"az":318.0,"el":10.0,"ss":0.0,"used":false},{"PRN":4,"gnssid":0,"svid":4,"az":10.5,"el":69.5,"ss":39.0,"used":true}]}
$GPZDA,203744.82,09,12,2021,00,00*61
$GPGGA,203744.82,3717.6307224,N,12155.1243512,W,1,03,27.40,32.01,M,-32.150,M,,*5C
$GPRMC,203744.82,A,3717.6307224,N,12155.1243512,W,0.0000,0.000,091221,13.1,E*48
$GPGSA,A,2,9,16,4,,,,,,,,,,,27.4,*08
{"class":"TPV","mode":2,"time":"2021-12-09T20:37:44.820Z","ept":0.005,"lat":37.293845374,"lon":-121.918739186,"altHAE":-0.1379,"altMSL":32.0124,"alt":32.0124,"track":0.0000,"magtrack":13.0861,"magvar":13.1,"speed":0.000,"eph":520.600}
{"class":"SKY","time":"2021-12-09T20:37:44.820Z","hdop":27.40}
{"class":"SKY","time":"2021-12-09T20:37:44.820Z","hdop":27.40}
$GPGSV,3,1,10,09,44,309,44,15,64,336,00,16,50,096,37,28,42,160,00*7B
$GPGSV,3,2,10,26,32,294,00,07,21,236,00,21,14,282,00,31,12,048,00*73
$GPGSV,3,3,10,18,10,318,00,04,70,010,39*72
{"class":"SKY","time":"2021-12-09T20:37:45.820Z","hdop":27.40,"nSat":10,"uSat":3,"satellites":[{"PRN":9,"gnssid":0,"svid":9,"az":309.0,"el":44.0,"ss":43.8,"used":true},{"PRN":15,"gnssid":0,"svid":15,"az":336.0,"el":64.0,"ss":0.0,"used":false},{"PRN":16,"gnssid":0,"svid":16,"az":96.0,"el":50.0,"ss":37.0,"used":true},{"PRN":28,"gnssid":0,"svid":28,"az":160.5,"el":42.0,"ss":0.0,"used":false},{"PRN":26,"gnssid":0,"svid":26,"az":294.0,"el":31.5,"ss":0.0,"used":false},{"PRN":7,"gnssid":0,"svid":7,"az":235.5,"el":21.0,"ss":0.0,"used":false},{"PRN":21,"gnssid":0,"svid":21,"az":282.0,"el":14.5,"ss":0.0,"used":false},{"PRN":31,"gnssid":0,"svid":31,"az":48.0,"el":12.0,"ss":0.0,"used":false},{"PRN":18,"gnssid":0,"svid":18,"az":318.0,"el":10.0,"ss":0.0,"used":false},{"PRN":4,"gnssid":0,"svid":4,"az":10.5,"el":69.5,"ss":39.0,"used":true}]}
$GPZDA,203745.82,09,12,2021,00,00*60
$GPGGA,203745.82,3717.6368128,N,12155.1208295,W,1,03,27.40,32.07,M,-32.150,M,,*5A
$GPRMC,203745.82,A,3717.6368128,N,12155.1208295,W,0.0000,0.000,091221,13.1,E*48
$GPGSA,A,2,9,16,4,,,,,,,,,,,27.4,*08
{"class":"TPV","mode":2,"time":"2021-12-09T20:37:45.820Z","ept":0.005,"lat":37.293946881,"lon":-121.918680492,"altHAE":-0.0754,"altMSL":32.0746,"alt":32.0746,"track":0.0000,"magtrack":13.0861,"magvar":13.1,"speed":0.000,"eph":520.600}
{"class":"SKY","time":"2021-12-09T20:37:45.820Z","hdop":27.40}
{"class":"SKY","time":"2021-12-09T20:37:45.820Z","hdop":27.60}
$GPGSV,3,1,10,09,44,309,44,15,64,336,00,16,50,096,37,28,42,160,00*7B
$GPGSV,3,2,10,26,32,294,00,07,21,236,00,21,14,282,00,31,12,048,00*73
$GPGSV,3,3,10,18,10,318,00,04,70,010,39*72
{"class":"SKY","time":"2021-12-09T20:37:46.820Z","hdop":27.60,"nSat":10,"uSat":3,"satellites":[{"PRN":9,"gnssid":0,"svid":9,"az":309.0,"el":44.0,"ss":43.5,"used":true},{"PRN":15,"gnssid":0,"svid":15,"az":336.0,"el":64.0,"ss":0.0,"used":false},{"PRN":16,"gnssid":0,"svid":16,"az":96.0,"el":50.0,"ss":36.8,"used":true},{"PRN":28,"gnssid":0,"svid":28,"az":160.5,"el":42.0,"ss":0.0,"used":false},{"PRN":26,"gnssid":0,"svid":26,"az":294.0,"el":31.5,"ss":0.0,"used":false},{"PRN":7,"gnssid":0,"svid":7,"az":235.5,"el":21.0,"ss":0.0,"used":false},{"PRN":21,"gnssid":0,"svid":21,"az":282.0,"el":14.5,"ss":0.0,"used":false},{"PRN":31,"gnssid":0,"svid":31,"az":48.0,"el":12.0,"ss":0.0,"used":false},{"PRN":18,"gnssid":0,"svid":18,"az":318.0,"el":10.0,"ss":0.0,"used":false},{"PRN":4,"gnssid":0,"svid":4,"az":10.5,"el":69.5,"ss":39.0,"used":true}]}
$GPZDA,203746.82,09,12,2021,00,00*63
$GPGGA,203746.82,3717.6382974,N,12155.1200386,W,1,03,27.60,31.77,M,-32.150,M,,*51
$GPRMC,203746.82,A,3717.6382974,N,12155.1200386,W,0.0000,0.000,091221,13.1,E*45
$GPGSA,A,2,9,16,4,,,,,,,,,,,27.6,*0A
{"class":"TPV","mode":2,"time":"2021-12-09T20:37:46.820Z","ept":0.005,"lat":37.293971624,"lon":-121.918667310,"altHAE":-0.3801,"altMSL":31.7699,"alt":31.7699,"track":0.0000,"magtrack":13.0861,"magvar":13.1,"speed":0.000,"eph":524.400}
{"class":"SKY","time":"2021-12-09T20:37:46.820Z","hdop":27.60}
{"class":"SKY","time":"2021-12-09T20:37:46.820Z","hdop":27.60}
$GPGSV,3,1,10,09,44,309,44,15,64,336,00,16,50,096,37,28,42,160,00*7B
$GPGSV,3,2,10,26,32,294,00,07,21,236,00,21,14,282,00,31,12,048,00*73
$GPGSV,3,3,10,18,10,318,00,04,70,010,39*72
