$GPGGA,020935.000,4404.1351,N,12118.8556,W,1,08,0.9,1123.9,M,-19.6,M,,0000*5E
{"class":"TPV","mode":3,"lat":44.068918333,"lon":-121.314260000,"altHAE":1104.3000,"altMSL":1123.9000,"alt":1123.9000,"magvar":14.4,"geoidSep":-19.600,"eph":17.100}
{"class":"SKY","hdop":0.90}
$GLGGA,020935.000,4404.1351,N,12118.8556,W,1,02,0.9,1123.9,M,-19.6,M,,0000*48
{"class":"TPV","mode":1}
{"class":"SKY","hdop":0.90}
$GNGSA,A,3,15,17,30,28,01,19,24,11,,,,,1.8,0.9,1.5*2C
{"class":"TPV","mode":3,"lat":44.068918333,"lon":-121.314260000,"altHAE":1104.3000,"altMSL":1123.9000,"alt":1123.9000,"epv":34.500,"magvar":14.4,"geoidSep":-19.600,"eph":17.100,"sep":34.200}
$GNGSA,A,3,73,82,,,,,,,,,,,1.8,0.9,1.5*26
{"class":"TPV","mode":3,"lat":44.068918333,"lon":-121.314260000,"altHAE":1104.3000,"altMSL":1123.9000,"alt":1123.9000,"epv":34.500,"magvar":14.4,"geoidSep":-19.600,"eph":17.100,"sep":34.200}
{"class":"SKY","hdop":0.90,"pdop":1.80,"vdop":1.50}
$GNRMC,020935.000,A,4404.1351,N,12118.8556,W,0.04,359.11,050219,,,A*6C
{"class":"TPV","mode":3,"time":"2019-02-05T02:09:35.000Z","ept":0.005,"lat":44.068918333,"lon":-121.314260000,"altHAE":1104.3000,"altMSL":1123.9000,"alt":1123.9000,"epv":34.500,"track":359.1100,"magtrack":13.5285,"magvar":14.4,"speed":0.021,"geoidSep":-19.600,"eph":17.100,"sep":34.200}
$GPGGA,020936.000,4404.1351,N,12118.8557,W,1,08,0.9,1123.9,M,-19.6,M,,0000*5C
{"class":"SKY","hdop":0.90,"pdop":1.80,"vdop":1.50}
$GLGGA,020936.000,4404.1351,N,12118.8557,W,1,02,0.9,1123.9,M,-19.6,M,,0000*4A
{"class":"SKY","hdop":0.90,"pdop":1.80,"vdop":1.50}
$GNGSA,A,3,15,17,30,28,01,19,11,24,,,,,1.8,0.9,1.5*2C
$GNGSA,A,3,73,82,,,,,,,,,,,1.8,0.9,1.5*26
{"class":"SKY","hdop":0.90,"pdop":1.80,"vdop":1.50}
$GNRMC,020936.000,A,4404.1351,N,12118.8557,W,0.11,359.11,050219,,,A*6A
{"class":"TPV","mode":3,"time":"2019-02-05T02:09:36.000Z","ept":0.005,"lat":44.068918333,"lon":-121.314261667,"altHAE":1104.3000,"altMSL":1123.9000,"alt":1123.9000,"epv":34.500,"track":359.1100,"magtrack":13.5285,"magvar":14.4,"speed":0.057,"climb":0.000,"epc":69.00,"geoidSep":-19.600,"eph":17.100,"sep":34.200}
$GPGGA,020937.000,4404.1351,N,12118.8557,W,1,09,0.9,1123.8,M,-19.6,M,,0000*5D
{"class":"SKY","hdop":0.90,"pdop":1.80,"vdop":1.50}
$GLGGA,020937.000,4404.1351,N,12118.8557,W,1,02,0.9,1123.8,M,-19.6,M,,0000*4A
{"class":"SKY","hdop":0.90,"pdop":1.80,"vdop":1.50}
$GNGSA,A,3,15,17,30,28,01,19,18,11,24,,,,1.6,0.9,1.3*2D
$GNGSA,A,3,73,82,,,,,,,,,,,1.6,0.9,1.3*2E
{"class":"SKY","hdop":0.90,"pdop":1.60,"vdop":1.30}
$GPGSV,3,1,11,15,29,271,37,17,81,131,33,30,27,137,32,28,52,062,28*79
$GPGSV,3,2,11,01,23,054,27,19,56,202,25,18,06,032,21,11,15,044,19*71
$GPGSV,3,3,11,24,24,310,18,06,07,167,19,13,37,229,*44
{"class":"SKY","gdop":2.13,"hdop":0.90,"pdop":1.60,"tdop":1.00,"xdop":0.59,"ydop":0.84,"vdop":1.30,"nSat":11,"uSat":9,"satellites":[{"PRN":15,"gnssid":0,"svid":15,"az":271.0,"el":29.0,"ss":37.0,"used":true},{"PRN":17,"gnssid":0,"svid":17,"az":131.0,"el":81.0,"ss":33.0,"used":true},{"PRN":30,"gnssid":0,"svid":30,"az":137.0,"el":27.0,"ss":32.0,"used":true},{"PRN":28,"gnssid":0,"svid":28,"az":62.0,"el":52.0,"ss":28.0,"used":true},{"PRN":1,"gnssid":0,"svid":1,"az":54.0,"el":23.0,"ss":27.0,"used":true},{"PRN":19,"gnssid":0,"svid":19,"az":202.0,"el":56.0,"ss":25.0,"used":true},{"PRN":18,"gnssid":0,"svid":18,"az":32.0,"el":6.0,"ss":21.0,"used":true},{"PRN":11,"gnssid":0,"svid":11,"az":44.0,"el":15.0,"ss":19.0,"used":true},{"PRN":24,"gnssid":0,"svid":24,"az":310.0,"el":24.0,"ss":18.0,"used":true},{"PRN":6,"gnssid":0,"svid":6,"az":167.0,"el":7.0,"ss":19.0,"used":false},{"PRN":13,"gnssid":0,"svid":13,"az":229.0,"el":37.0,"ss":0.0,"used":false}]}
$GLGSV,3,1,11,73,47,322,36,82,55,053,29,84,03,192,18,71,11,268,20*65
$GLGSV,3,2,11,72,14,317,19,80,57,086,,83,54,163,,81,10,026,*6F
$GLGSV,3,3,11,79,09,112,,74,04,304,,65,02,357,*50
{"class":"SKY","gdop":2.13,"hdop":0.90,"pdop":1.60,"tdop":1.00,"xdop":0.59,"ydop":0.84,"vdop":1.30,"nSat":22,"uSat":11,"satellites":[{"PRN":15,"gnssid":0,"svid":15,"az":271.0,"el":29.0,"ss":37.0,"used":true},{"PRN":17,"gnssid":0,"svid":17,"az":131.0,"el":81.0,"ss":33.0,"used":true},{"PRN":30,"gnssid":0,"svid":30,"az":137.0,"el":27.0,"ss":32.0,"used":true},{"PRN":28,"gnssid":0,"svid":28,"az":62.0,"el":52.0,"ss":28.0,"used":true},{"PRN":1,"gnssid":0,"svid":1,"az":54.0,"el":23.0,"ss":27.0,"used":true},{"PRN":19,"gnssid":0,"svid":19,"az":202.0,"el":56.0,"ss":25.0,"used":true},{"PRN":18,"gnssid":0,"svid":18,"az":32.0,"el":6.0,"ss":21.0,"used":true},{"PRN":11,"gnssid":0,"svid":11,"az":44.0,"el":15.0,"ss":19.0,"used":true},{"PRN":24,"gnssid":0,"svid":24,"az":310.0,"el":24.0,"ss":18.0,"used":true},{"PRN":6,"gnssid":0,"svid":6,"az":167.0,"el":7.0,"ss":19.0,"used":false},{"PRN":13,"gnssid":0,"svid":13,"az":229.0,"el":37.0,"ss":0.0,"used":false},{"PRN":73,"gnssid":6,"svid":9,"az":322.0,"el":47.0,"ss":36.0,"used":true},{"PRN":82,"gnssid":6,"svid":18,"az":53.0,"el":55.0,"ss":29.0,"used":true},{"PRN":84,"gnssid":6,"svid":20,"az":192.0,"el":3.0,"ss":18.0,"used":false},{"PRN":71,"gnssid":6,"svid":7,"az":268.0,"el":11.0,"ss":20.0,"used":false},{"PRN":72,"gnssid":6,"svid":8,"az":317.0,"el":14.0,"ss":19.0,"used":false},{"PRN":80,"gnssid":6,"svid":16,"az":86.0,"el":57.0,"ss":0.0,"used":false},{"PRN":83,"gnssid":6,"svid":19,"az":163.0,"el":54.0,"ss":0.0,"used":false},{"PRN":81,"gnssid":6,"svid":17,"az":26.0,"el":10.0,"ss":0.0,"used":false},{"PRN":79,"gnssid":6,"svid":15,"az":112.0,"el":9.0,"ss":0.0,"used":false},{"PRN":74,"gnssid":6,"svid":10,"az":304.0,"el":4.0,"ss":0.0,"used":false},{"PRN":65,"gnssid":6,"svid":1,"az":357.0,"el":2.0,"ss":0.0,"used":false}]}
$GNRMC,020937.000,A,4404.1351,N,12118.8557,W,0.11,359.11,050219,,,A*6B
{"class":"TPV","mode":3,"time":"2019-02-05T02:09:37.000Z","ept":0.005,"lat":44.068918333,"lon":-121.314261667,"altHAE":1104.2000,"altMSL":1123.8000,"alt":1123.8000,"epx":8.820,"epy":12.604,"epv":34.500,"track":359.1100,"magtrack":13.5285,"magvar":14.4,"speed":0.057,"climb":-0.100,"epc":69.00,"geoidSep":-19.600,"eph":17.100,"sep":34.200}
$GPGGA,020938.000,4404.1351,N,12118.8557,W,1,10,0.7,1123.8,M,-19.6,M,,0000*54
{"class":"SKY","gdop":2.13,"hdop":0.70,"pdop":1.60,"tdop":1.00,"xdop":0.59,"ydop":0.84,"vdop":1.30}
$GLGGA,020938.000,4404.1351,N,12118.8557,W,1,05,0.7,1123.8,M,-19.6,M,,0000*4C
{"class":"SKY","gdop":2.13,"hdop":0.70,"pdop":1.60,"tdop":1.00,"xdop":0.59,"ydop":0.84,"vdop":1.30}
$GNGSA,A,3,15,17,30,28,01,19,18,11,06,24,,,1.1,0.7,0.9*29
$GNGSA,A,3,73,82,71,72,80,,,,,,,,1.1,0.7,0.9*27
{"class":"SKY","gdop":2.13,"hdop":0.70,"pdop":1.10,"tdop":1.00,"xdop":0.59,"ydop":0.84,"vdop":0.90}
$GNRMC,020938.000,A,4404.1351,N,12118.8557,W,0.00,359.11,050219,,,A*64
{"class":"TPV","mode":3,"time":"2019-02-05T02:09:38.000Z","ept":0.005,"lat":44.068918333,"lon":-121.314261667,"altHAE":1104.2000,"altMSL":1123.8000,"alt":1123.8000,"epx":8.820,"epy":12.604,"epv":29.900,"track":359.1100,"magtrack":13.5285,"magvar":14.4,"speed":0.000,"climb":0.000,"eps":25.21,"epc":64.40,"geoidSep":-19.600,"eph":13.300,"sep":30.400}
$GPGGA,020939.000,4404.1351,N,12118.8557,W,1,10,0.7,1123.8,M,-19.6,M,,0000*55
{"class":"SKY","gdop":2.13,"hdop":0.70,"pdop":1.10,"tdop":1.00,"xdop":0.59,"ydop":0.84,"vdop":0.90}
$GLGGA,020939.000,4404.1351,N,12118.8557,W,1,05,0.7,1123.8,M,-19.6,M,,0000*4D
{"class":"SKY","gdop":2.13,"hdop":0.70,"pdop":1.10,"tdop":1.00,"xdop":0.59,"ydop":0.84,"vdop":0.90}
$GNGSA,A,3,15,17,30,28,01,19,18,11,06,24,,,1.1,0.7,0.9*29
$GNGSA,A,3,73,82,71,72,80,,,,,,,,1.1,0.7,0.9*27
{"class":"SKY","gdop":2.13,"hdop":0.70,"pdop":1.10,"tdop":1.00,"xdop":0.59,"ydop":0.84,"vdop":0.90}
$GNRMC,020939.000,A,4404.1351,N,12118.8557,W,0.00,359.11,050219,,,A*65
{"class":"TPV","mode":3,"time":"2019-02-05T02:09:39.000Z","ept":0.005,"lat":44.068918333,"lon":-121.314261667,"altHAE":1104.2000,"altMSL":1123.8000,"alt":1123.8000,"epx":8.820,"epy":12.604,"epv":20.700,"track":359.1100,"magtrack":13.5285,"magvar":14.4,"speed":0.000,"climb":0.000,"eps":25.21,"epc":50.60,"geoidSep":-19.600,"eph":13.300,"sep":20.900}
$GPGGA,020940.000,4404.1352,N,12118.8557,W,1,10,0.7,1123.8,M,-19.6,M,,0000*58
{"class":"SKY","gdop":2.13,"hdop":0.70,"pdop":1.10,"tdop":1.00,"xdop":0.59,"ydop":0.84,"vdop":0.90}
$GLGGA,020940.000,4404.1352,N,12118.8557,W,1,05,0.7,1123.8,M,-19.6,M,,0000*40
{"class":"SKY","gdop":2.13,"hdop":0.70,"pdop":1.10,"tdop":1.00,"xdop":0.59,"ydop":0.84,"vdop":0.90}
$GNGSA,A,3,15,17,30,28,01,19,18,11,06,24,,,1.1,0.7,0.9*29
$GNGSA,A,3,73,82,71,72,80,,,,,,,,1.1,0.7,0.9*27
{"class":"SKY","gdop":2.13,"hdop":0.70,"pdop":1.10,"tdop":1.00,"xdop":0.59,"ydop":0.84,"vdop":0.90}
$GNRMC,020940.000,A,4404.1352,N,12118.8557,W,0.19,359.11,050219,,,A*60
{"class":"TPV","mode":3,"time":"2019-02-05T02:09:40.000Z","ept":0.005,"lat":44.068920000,"lon":-121.314261667,"altHAE":1104.2000,"altMSL":1123.8000,"alt":1123.8000,"epx":8.820,"epy":12.604,"epv":20.700,"track":359.1100,"magtrack":13.5285,"magvar":14.4,"speed":0.098,"climb":0.000,"eps":25.21,"epc":41.40,"geoidSep":-19.600,"eph":13.300,"sep":20.900}
$GPGGA,020941.000,4404.1352,N,12118.8557,W,1,10,0.7,1123.9,M,-19.6,M,,0000*58
{"class":"SKY","gdop":2.13,"hdop":0.70,"pdop":1.10,"tdop":1.00,"xdop":0.59,"ydop":0.84,"vdop":0.90}
$GLGGA,020941.000,4404.1352,N,12118.8557,W,1,04,0.7,1123.9,M,-19.6,M,,0000*41
{"class":"SKY","gdop":2.13,"hdop":0.70,"pdop":1.10,"tdop":1.00,"xdop":0.59,"ydop":0.84,"vdop":0.90}
$GNGSA,A,3,15,17,30,28,01,19,18,11,06,24,,,1.2,0.7,1.0*22
$GNGSA,A,3,73,82,71,72,,,,,,,,,1.2,0.7,1.0*24
{"class":"SKY","gdop":2.13,"hdop":0.70,"pdop":1.20,"tdop":1.00,"xdop":0.59,"ydop":0.84,"vdop":1.00}
$GNRMC,020941.000,A,4404.1352,N,12118.8557,W,0.01,359.11,050219,,,A*68
{"class":"TPV","mode":3,"time":"2019-02-05T02:09:41.000Z","ept":0.005,"lat":44.068920000,"lon":-121.314261667,"altHAE":1104.3000,"altMSL":1123.9000,"alt":1123.9000,"epx":8.820,"epy":12.604,"epv":20.700,"track":359.1100,"magtrack":13.5285,"magvar":14.4,"speed":0.005,"climb":0.100,"eps":25.21,"epc":41.40,"geoidSep":-19.600,"eph":13.300,"sep":20.900}
$GPGGA,020942.000,4404.1353,N,12118.8557,W,1,10,0.7,1123.9,M,-19.6,M,,0000*5A
{"class":"SKY","gdop":2.13,"hdop":0.70,"pdop":1.20,"tdop":1.00,"xdop":0.59,"ydop":0.84,"vdop":1.00}
$GLGGA,020942.000,4404.1353,N,12118.8557,W,1,05,0.7,1123.9,M,-19.6,M,,0000*42
{"class":"SKY","gdop":2.13,"hdop":0.70,"pdop":1.20,"tdop":1.00,"xdop":0.59,"ydop":0.84,"vdop":1.00}
$GNGSA,A,3,15,17,30,28,01,19,18,11,06,24,,,1.1,0.7,0.9*29
$GNGSA,A,3,73,82,71,80,72,,,,,,,,1.1,0.7,0.9*27
{"class":"SKY","gdop":2.13,"hdop":0.70,"pdop":1.10,"tdop":1.00,"xdop":0.59,"ydop":0.84,"vdop":0.90}
$GPGSV,3,1,11,15,29,271,37,17,81,131,33,30,27,137,31,28,52,062,29*7B
$GPGSV,3,2,11,01,23,054,26,19,56,202,25,18,06,032,21,11,15,044,20*7A
$GPGSV,3,3,11,06,07,167,19,24,24,310,18,13,37,229,*44
$GLGSV,3,1,11,73,47,322,34,82,55,053,26,71,11,268,21,80,57,086,20*63
$GLGSV,3,2,11,72,14,317,19,79,09,112,15,84,03,192,17,81,10,026,04*63
$GLGSV,3,3,11,83,54,163,,74,04,304,,65,02,357,*5B
{"class":"SKY","gdop":2.13,"hdop":0.70,"pdop":1.10,"tdop":1.00,"xdop":0.59,"ydop":0.84,"vdop":0.90,"nSat":22,"uSat":15,"satellites":[{"PRN":15,"gnssid":0,"svid":15,"az":271.0,"el":29.0,"ss":37.0,"used":true},{"PRN":17,"gnssid":0,"svid":17,"az":131.0,"el":81.0,"ss":33.0,"used":true},{"PRN":30,"gnssid":0,"svid":30,"az":137.0,"el":27.0,"ss":31.0,"used":true},{"PRN":28,"gnssid":0,"svid":28,"az":62.0,"el":52.0,"ss":29.0,"used":true},{"PRN":1,"gnssid":0,"svid":1,"az":54.0,"el":23.0,"ss":26.0,"used":true},{"PRN":19,"gnssid":0,"svid":19,"az":202.0,"el":56.0,"ss":25.0,"used":true},{"PRN":18,"gnssid":0,"svid":18,"az":32.0,"el":6.0,"ss":21.0,"used":true},{"PRN":11,"gnssid":0,"svid":11,"az":44.0,"el":15.0,"ss":20.0,"used":true},{"PRN":6,"gnssid":0,"svid":6,"az":167.0,"el":7.0,"ss":19.0,"used":true},{"PRN":24,"gnssid":0,"svid":24,"az":310.0,"el":24.0,"ss":18.0,"used":true},{"PRN":13,"gnssid":0,"svid":13,"az":229.0,"el":37.0,"ss":0.0,"used":false},{"PRN":73,"gnssid":6,"svid":9,"az":322.0,"el":47.0,"ss":34.0,"used":true},{"PRN":82,"gnssid":6,"svid":18,"az":53.0,"el":55.0,"ss":26.0,"used":true},{"PRN":71,"gnssid":6,"svid":7,"az":268.0,"el":11.0,"ss":21.0,"used":true},{"PRN":80,"gnssid":6,"svid":16,"az":86.0,"el":57.0,"ss":20.0,"used":true},{"PRN":72,"gnssid":6,"svid":8,"az":317.0,"el":14.0,"ss":19.0,"used":true},{"PRN":79,"gnssid":6,"svid":15,"az":112.0,"el":9.0,"ss":15.0,"used":false},{"PRN":84,"gnssid":6,"svid":20,"az":192.0,"el":3.0,"ss":17.0,"used":false},{"PRN":81,"gnssid":6,"svid":17,"az":26.0,"el":10.0,"ss":4.0,"used":false},{"PRN":83,"gnssid":6,"svid":19,"az":163.0,"el":54.0,"ss":0.0,"used":false},{"PRN":74,"gnssid":6,"svid":10,"az":304.0,"el":4.0,"ss":0.0,"used":false},{"PRN":65,"gnssid":6,"svid":1,"az":357.0,"el":2.0,"ss":0.0,"used":false}]}
$GNRMC,020942.000,A,4404.1353,N,12118.8557,W,0.00,359.11,050219,,,A*6B
{"class":"TPV","mode":3,"time":"2019-02-05T02:09:42.000Z","ept":0.005,"lat":44.068921667,"lon":-121.314261667,"altHAE":1104.3000,"altMSL":1123.9000,"alt":1123.9000,"epx":8.820,"epy":12.604,"epv":23.000,"track":359.1100,"magtrack":13.5285,"magvar":14.4,"speed":0.000,"climb":0.000,"eps":25.21,"epc":43.70,"geoidSep":-19.600,"eph":13.300,"sep":22.800}
$GPGGA,020943.000,4404.1353,N,12118.8557,W,1,10,0.7,1124.0,M,-19.6,M,,0000*55
{"class":"SKY","gdop":2.13,"hdop":0.70,"pdop":1.10,"tdop":1.00,"xdop":0.59,"ydop":0.84,"vdop":0.90}
$GLGGA,020943.000,4404.1353,N,12118.8557,W,1,05,0.7,1124.0,M,-19.6,M,,0000*4D
{"class":"SKY","gdop":2.13,"hdop":0.70,"pdop":1.10,"tdop":1.00,"xdop":0.59,"ydop":0.84,"vdop":0.90}
$GNGSA,A,3,15,17,30,28,01,19,18,11,06,24,,,1.1,0.7,0.9*29
$GNGSA,A,3,73,82,71,80,72,,,,,,,,1.1,0.7,0.9*27
{"class":"SKY","gdop":2.13,"hdop":0.70,"pdop":1.10,"tdop":1.00,"xdop":0.59,"ydop":0.84,"vdop":0.90}
$GNRMC,020943.000,A,4404.1353,N,12118.8557,W,0.00,359.11,050219,,,A*6A
{"class":"TPV","mode":3,"time":"2019-02-05T02:09:43.000Z","ept":0.005,"lat":44.068921667,"lon":-121.314261667,"altHAE":1104.4000,"altMSL":1124.0000,"alt":1124.0000,"epx":8.820,"epy":12.604,"epv":20.700,"track":359.1100,"magtrack":13.5285,"magvar":14.4,"speed":0.000,"climb":0.100,"eps":25.21,"epc":43.70,"geoidSep":-19.600,"eph":13.300,"sep":20.900}
$GPGGA,020944.000,4404.1353,N,12118.8557,W,1,10,0.7,1124.0,M,-19.6,M,,0000*52
{"class":"SKY","gdop":2.13,"hdop":0.70,"pdop":1.10,"tdop":1.00,"xdop":0.59,"ydop":0.84,"vdop":0.90}
$GLGGA,020944.000,4404.1353,N,12118.8557,W,1,04,0.7,1124.0,M,-19.6,M,,0000*4B
{"class":"SKY","gdop":2.13,"hdop":0.70,"pdop":1.10,"tdop":1.00,"xdop":0.59,"ydop":0.84,"vdop":0.90}
$GNGSA,A,3,15,17,30,28,01,19,18,11,06,24,,,1.2,0.7,1.0*22
$GNGSA,A,3,73,82,80,72,,,,,,,,,1.2,0.7,1.0*2A
{"class":"SKY","gdop":2.13,"hdop":0.70,"pdop":1.20,"tdop":1.00,"xdop":0.59,"ydop":0.84,"vdop":1.00}
$GNRMC,020944.000,A,4404.1353,N,12118.8557,W,0.00,359.11,050219,,,A*6D
{"class":"TPV","mode":3,"time":"2019-02-05T02:09:44.000Z","ept":0.005,"lat":44.068921667,"lon":-121.314261667,"altHAE":1104.4000,"altMSL":1124.0000,"alt":1124.0000,"epx":8.820,"epy":12.604,"epv":20.700,"track":359.1100,"magtrack":13.5285,"magvar":14.4,"speed":0.000,"climb":0.000,"eps":25.21,"epc":41.40,"geoidSep":-19.600,"eph":13.300,"sep":20.900}
$GPGGA,020945.000,4404.1354,N,12118.8557,W,1,09,0.8,1124.1,M,-19.6,M,,0000*52
{"class":"SKY","gdop":2.13,"hdop":0.80,"pdop":1.20,"tdop":1.00,"xdop":0.59,"ydop":0.84,"vdop":1.00}
$GLGGA,020945.000,4404.1354,N,12118.8557,W,1,05,0.8,1124.1,M,-19.6,M,,0000*42
{"class":"SKY","gdop":2.13,"hdop":0.80,"pdop":1.20,"tdop":1.00,"xdop":0.59,"ydop":0.84,"vdop":1.00}
$GNGSA,A,3,15,17,30,28,01,19,18,11,24,,,,1.4,0.8,1.1*2C
$GNGSA,A,3,73,82,71,80,72,,,,,,,,1.4,0.8,1.1*24
{"class":"SKY","gdop":2.13,"hdop":0.80,"pdop":1.40,"tdop":1.00,"xdop":0.59,"ydop":0.84,"vdop":1.10}
$GNRMC,020945.000,A,4404.1354,N,12118.8557,W,0.00,359.11,050219,,,A*6B
{"class":"TPV","mode":3,"time":"2019-02-05T02:09:45.000Z","ept":0.005,"lat":44.068923333,"lon":-121.314261667,"altHAE":1104.5000,"altMSL":1124.1000,"alt":1124.1000,"epx":8.820,"epy":12.604,"epv":23.000,"track":359.1100,"magtrack":13.5285,"magvar":14.4,"speed":0.000,"climb":0.100,"eps":25.21,"epc":43.70,"geoidSep":-19.600,"eph":15.200,"sep":22.800}
$GPGGA,020946.000,4404.1354,N,12118.8557,W,1,10,0.6,1124.1,M,-19.6,M,,0000*57
{"class":"SKY","gdop":2.13,"hdop":0.60,"pdop":1.40,"tdop":1.00,"xdop":0.59,"ydop":0.84,"vdop":1.10}
$GLGGA,020946.000,4404.1354,N,12118.8557,W,1,06,0.6,1124.1,M,-19.6,M,,0000*4C
{"class":"SKY","gdop":2.13,"hdop":0.60,"pdop":1.40,"tdop":1.00,"xdop":0.59,"ydop":0.84,"vdop":1.10}
$GNGSA,A,3,15,17,30,28,01,19,18,11,06,24,,,1.1,0.6,0.9*28
$GNGSA,A,3,73,82,71,80,72,79,,,,,,,1.1,0.6,0.9*28
{"class":"SKY","gdop":2.13,"hdop":0.60,"pdop":1.10,"tdop":1.00,"xdop":0.59,"ydop":0.84,"vdop":0.90}
$GNRMC,020946.000,A,4404.1354,N,12118.8557,W,0.00,359.11,050219,,,A*68
{"class":"TPV","mode":3,"time":"2019-02-05T02:09:46.000Z","ept":0.005,"lat":44.068923333,"lon":-121.314261667,"altHAE":1104.5000,"altMSL":1124.1000,"alt":1124.1000,"epx":8.820,"epy":12.604,"epv":25.300,"track":359.1100,"magtrack":13.5285,"magvar":14.4,"speed":0.000,"climb":0.000,"eps":25.21,"epc":48.30,"geoidSep":-19.600,"eph":11.400,"sep":26.600}
$GPGGA,020947.000,4404.1354,N,12118.8557,W,1,10,0.6,1124.1,M,-19.6,M,,0000*56
{"class":"SKY","gdop":2.13,"hdop":0.60,"pdop":1.10,"tdop":1.00,"xdop":0.59,"ydop":0.84,"vdop":0.90}
$GLGGA,020947.000,4404.1354,N,12118.8557,W,1,06,0.6,1124.1,M,-19.6,M,,0000*4D
{"class":"SKY","gdop":2.13,"hdop":0.60,"pdop":1.10,"tdop":1.00,"xdop":0.59,"ydop":0.84,"vdop":0.90}
$GNGSA,A,3,15,17,30,28,01,19,18,11,06,24,,,1.1,0.6,0.9*28
$GNGSA,A,3,73,82,71,80,79,81,,,,,,,1.1,0.6,0.9*24
{"class":"SKY","gdop":2.13,"hdop":0.60,"pdop":1.10,"tdop":1.00,"xdop":0.59,"ydop":0.84,"vdop":0.90}
$GPGSV,3,1,11,15,29,271,37,17,81,131,33,30,27,137,31,28,52,062,29*7B
$GPGSV,3,2,11,01,23,054,25,19,56,202,25,18,06,032,21,11,15,044,20*79
$GPGSV,3,3,11,06,07,167,19,24,24,310,17,13,37,229,*4B
$GLGSV,3,1,11,73,47,322,33,82,55,053,26,71,11,268,21,80,57,086,20*64
$GLGSV,3,2,11,79,09,112,15,81,10,026,14,84,03,192,17,72,14,317,19*62
$GLGSV,3,3,11,83,54,163,,74,04,304,,65,02,357,*5B
{"class":"SKY","gdop":2.13,"hdop":0.60,"pdop":1.10,"tdop":1.00,"xdop":0.59,"ydop":0.84,"vdop":0.90,"nSat":22,"uSat":16,"satellites":[{"PRN":15,"gnssid":0,"svid":15,"az":271.0,"el":29.0,"ss":37.0,"used":true},{"PRN":17,"gnssid":0,"svid":17,"az":131.0,"el":81.0,"ss":33.0,"used":true},{"PRN":30,"gnssid":0,"svid":30,"az":137.0,"el":27.0,"ss":31.0,"used":true},{"PRN":28,"gnssid":0,"svid":28,"az":62.0,"el":52.0,"ss":29.0,"used":true},{"PRN":1,"gnssid":0,"svid":1,"az":54.0,"el":23.0,"ss":25.0,"used":true},{"PRN":19,"gnssid":0,"svid":19,"az":202.0,"el":56.0,"ss":25.0,"used":true},{"PRN":18,"gnssid":0,"svid":18,"az":32.0,"el":6.0,"ss":21.0,"used":true},{"PRN":11,"gnssid":0,"svid":11,"az":44.0,"el":15.0,"ss":20.0,"used":true},{"PRN":6,"gnssid":0,"svid":6,"az":167.0,"el":7.0,"ss":19.0,"used":true},{"PRN":24,"gnssid":0,"svid":24,"az":310.0,"el":24.0,"ss":17.0,"used":true},{"PRN":13,"gnssid":0,"svid":13,"az":229.0,"el":37.0,"ss":0.0,"used":false},{"PRN":73,"gnssid":6,"svid":9,"az":322.0,"el":47.0,"ss":33.0,"used":true},{"PRN":82,"gnssid":6,"svid":18,"az":53.0,"el":55.0,"ss":26.0,"used":true},{"PRN":71,"gnssid":6,"svid":7,"az":268.0,"el":11.0,"ss":21.0,"used":true},{"PRN":80,"gnssid":6,"svid":16,"az":86.0,"el":57.0,"ss":20.0,"used":true},{"PRN":79,"gnssid":6,"svid":15,"az":112.0,"el":9.0,"ss":15.0,"used":true},{"PRN":81,"gnssid":6,"svid":17,"az":26.0,"el":10.0,"ss":14.0,"used":true},{"PRN":84,"gnssid":6,"svid":20,"az":192.0,"el":3.0,"ss":17.0,"used":false},{"PRN":72,"gnssid":6,"svid":8,"az":317.0,"el":14.0,"ss":19.0,"used":false},{"PRN":83,"gnssid":6,"svid":19,"az":163.0,"el":54.0,"ss":0.0,"used":false},{"PRN":74,"gnssid":6,"svid":10,"az":304.0,"el":4.0,"ss":0.0,"used":false},{"PRN":65,"gnssid":6,"svid":1,"az":357.0,"el":2.0,"ss":0.0,"used":false}]}
$GNRMC,020947.000,A,4404.1354,N,12118.8557,W,0.00,359.11,050219,,,A*69
{"class":"TPV","mode":3,"time":"2019-02-05T02:09:47.000Z","ept":0.005,"lat":44.068923333,"lon":-121.314261667,"altHAE":1104.5000,"altMSL":1124.1000,"alt":1124.1000,"epx":8.820,"epy":12.604,"epv":20.700,"track":359.1100,"magtrack":13.5285,"magvar":14.4,"speed":0.000,"climb":0.000,"eps":25.21,"epc":46.00,"geoidSep":-19.600,"eph":11.400,"sep":20.900}
$GPGGA,020948.000,4404.1354,N,12118.8557,W,1,10,0.6,1124.2,M,-19.6,M,,0000*5A
{"class":"SKY","gdop":2.13,"hdop":0.60,"pdop":1.10,"tdop":1.00,"xdop":0.59,"ydop":0.84,"vdop":0.90}
$GLGGA,020948.000,4404.1354,N,12118.8557,W,1,07,0.6,1124.2,M,-19.6,M,,0000*40
{"class":"SKY","gdop":2.13,"hdop":0.60,"pdop":1.10,"tdop":1.00,"xdop":0.59,"ydop":0.84,"vdop":0.90}
$GNGSA,A,3,15,17,30,28,01,19,18,11,06,24,,,1.0,0.6,0.8*28
$GNGSA,A,3,73,82,71,80,72,79,81,,,,,,1.0,0.6,0.8*21
{"class":"SKY","gdop":2.13,"hdop":0.60,"pdop":1.00,"tdop":1.00,"xdop":0.59,"ydop":0.84,"vdop":0.80}
$GNRMC,020948.000,A,4404.1354,N,12118.8557,W,0.00,359.11,050219,,,A*66
{"class":"TPV","mode":3,"time":"2019-02-05T02:09:48.000Z","ept":0.005,"lat":44.068923333,"lon":-121.314261667,"altHAE":1104.6000,"altMSL":1124.2000,"alt":1124.2000,"epx":8.820,"epy":12.604,"epv":20.700,"track":359.1100,"magtrack":13.5285,"magvar":14.4,"speed":0.000,"climb":0.100,"eps":25.21,"epc":41.40,"geoidSep":-19.600,"eph":11.400,"sep":20.900}
$GPGGA,020949.000,4404.1354,N,12118.8557,W,1,09,0.7,1124.2,M,-19.6,M,,0000*52
{"class":"SKY","gdop":2.13,"hdop":0.70,"pdop":1.00,"tdop":1.00,"xdop":0.59,"ydop":0.84,"vdop":0.80}
$GLGGA,020949.000,4404.1354,N,12118.8557,W,1,05,0.7,1124.2,M,-19.6,M,,0000*42
{"class":"SKY","gdop":2.13,"hdop":0.70,"pdop":1.00,"tdop":1.00,"xdop":0.59,"ydop":0.84,"vdop":0.80}
$GNGSA,A,3,15,17,30,28,01,19,11,06,24,,,,1.2,0.7,1.0*2B
$GNGSA,A,3,73,82,80,72,81,,,,,,,,1.2,0.7,1.0*23
{"class":"SKY","gdop":2.13,"hdop":0.70,"pdop":1.20,"tdop":1.00,"xdop":0.59,"ydop":0.84,"vdop":1.00}
$GNRMC,020949.000,A,4404.1354,N,12118.8557,W,0.00,359.11,050219,,,A*67
{"class":"TPV","mode":3,"time":"2019-02-05T02:09:49.000Z","ept":0.005,"lat":44.068923333,"lon":-121.314261667,"altHAE":1104.6000,"altMSL":1124.2000,"alt":1124.2000,"epx":8.820,"epy":12.604,"epv":18.400,"track":359.1100,"magtrack":13.5285,"magvar":14.4,"speed":0.000,"climb":0.000,"eps":25.21,"epc":39.10,"geoidSep":-19.600,"eph":13.300,"sep":19.000}
$GPGGA,020950.000,4404.1355,N,12118.8557,W,1,10,0.6,1124.2,M,-19.6,M,,0000*52
{"class":"SKY","gdop":2.13,"hdop":0.60,"pdop":1.20,"tdop":1.00,"xdop":0.59,"ydop":0.84,"vdop":1.00}
$GLGGA,020950.000,4404.1355,N,12118.8557,W,1,06,0.6,1124.2,M,-19.6,M,,0000*49
{"class":"SKY","gdop":2.13,"hdop":0.60,"pdop":1.20,"tdop":1.00,"xdop":0.59,"ydop":0.84,"vdop":1.00}
$GNGSA,A,3,15,17,30,28,01,19,18,11,06,24,,,1.1,0.6,0.9*28
$GNGSA,A,3,73,82,71,80,79,81,,,,,,,1.1,0.6,0.9*24
{"class":"SKY","gdop":2.13,"hdop":0.60,"pdop":1.10,"tdop":1.00,"xdop":0.59,"ydop":0.84,"vdop":0.90}
$GNRMC,020950.000,A,4404.1355,N,12118.8557,W,0.00,359.11,050219,,,A*6E
{"class":"TPV","mode":3,"time":"2019-02-05T02:09:50.000Z","ept":0.005,"lat":44.068925000,"lon":-121.314261667,"altHAE":1104.6000,"altMSL":1124.2000,"alt":1124.2000,"epx":8.820,"epy":12.604,"epv":23.000,"track":359.1100,"magtrack":13.5285,"magvar":14.4,"speed":0.000,"climb":0.000,"eps":25.21,"epc":41.40,"geoidSep":-19.600,"eph":11.400,"sep":22.800}
$GPGGA,020951.000,4404.1355,N,12118.8557,W,1,10,0.6,1124.2,M,-19.6,M,,0000*53
{"class":"SKY","gdop":2.13,"hdop":0.60,"pdop":1.10,"tdop":1.00,"xdop":0.59,"ydop":0.84,"vdop":0.90}
$GLGGA,020951.000,4404.1355,N,12118.8557,W,1,07,0.6,1124.2,M,-19.6,M,,0000*49
{"class":"SKY","gdop":2.13,"hdop":0.60,"pdop":1.10,"tdop":1.00,"xdop":0.59,"ydop":0.84,"vdop":0.90}
$GNGSA,A,3,15,17,30,28,01,19,18,11,06,24,,,1.0,0.6,0.8*28
$GNGSA,A,3,73,82,71,80,72,79,81,,,,,,1.0,0.6,0.8*21
{"class":"SKY","gdop":2.13,"hdop":0.60,"pdop":1.00,"tdop":1.00,"xdop":0.59,"ydop":0.84,"vdop":0.80}
$GNRMC,020951.000,A,4404.1355,N,12118.8557,W,0.00,359.11,050219,,,A*6F
{"class":"TPV","mode":3,"time":"2019-02-05T02:09:51.000Z","ept":0.005,"lat":44.068925000,"lon":-121.314261667,"altHAE":1104.6000,"altMSL":1124.2000,"alt":1124.2000,"epx":8.820,"epy":12.604,"epv":20.700,"track":359.1100,"magtrack":13.5285,"magvar":14.4,"speed":0.000,"climb":0.000,"eps":25.21,"epc":43.70,"geoidSep":-19.600,"eph":11.400,"sep":20.900}
$GPGGA,020952.000,4404.1355,N,12118.8557,W,1,10,0.6,1124.3,M,-19.6,M,,0000*51
{"class":"SKY","gdop":2.13,"hdop":0.60,"pdop":1.00,"tdop":1.00,"xdop":0.59,"ydop":0.84,"vdop":0.80}
$GLGGA,020952.000,4404.1355,N,12118.8557,W,1,07,0.6,1124.3,M,-19.6,M,,0000*4B
{"class":"SKY","gdop":2.13,"hdop":0.60,"pdop":1.00,"tdop":1.00,"xdop":0.59,"ydop":0.84,"vdop":0.80}
$GNGSA,A,3,15,17,30,28,01,19,18,11,06,24,,,1.0,0.6,0.8*28
$GNGSA,A,3,73,82,71,80,72,79,81,,,,,,1.0,0.6,0.8*21
{"class":"SKY","gdop":2.13,"hdop":0.60,"pdop":1.00,"tdop":1.00,"xdop":0.59,"ydop":0.84,"vdop":0.80}
$GPGSV,3,1,11,15,29,271,37,17,81,131,33,30,27,137,31,28,52,062,29*7B
$GPGSV,3,2,11,01,23,054,24,19,56,202,24,18,06,032,20,11,15,044,20*78
$GPGSV,3,3,11,06,07,167,18,24,24,310,17,13,37,229,*4A
$GLGSV,3,1,11,73,47,322,33,82,55,053,26,71,11,268,21,80,57,086,20*64
$GLGSV,3,2,11,72,14,317,19,79,09,112,17,81,10,026,14,84,03,192,18*6F
$GLGSV,3,3,11,83,54,163,,74,04,304,,65,02,357,*5B
{"class":"SKY","gdop":2.13,"hdop":0.60,"pdop":1.00,"tdop":1.00,"xdop":0.59,"ydop":0.84,"vdop":0.80,"nSat":22,"uSat":17,"satellites":[{"PRN":15,"gnssid":0,"svid":15,"az":271.0,"el":29.0,"ss":37.0,"used":true},{"PRN":17,"gnssid":0,"svid":17,"az":131.0,"el":81.0,"ss":33.0,"used":true},{"PRN":30,"gnssid":0,"svid":30,"az":137.0,"el":27.0,"ss":31.0,"used":true},{"PRN":28,"gnssid":0,"svid":28,"az":62.0,"el":52.0,"ss":29.0,"used":true},{"PRN":1,"gnssid":0,"svid":1,"az":54.0,"el":23.0,"ss":24.0,"used":true},{"PRN":19,"gnssid":0,"svid":19,"az":202.0,"el":56.0,"ss":24.0,"used":true},{"PRN":18,"gnssid":0,"svid":18,"az":32.0,"el":6.0,"ss":20.0,"used":true},{"PRN":11,"gnssid":0,"svid":11,"az":44.0,"el":15.0,"ss":20.0,"used":true},{"PRN":6,"gnssid":0,"svid":6,"az":167.0,"el":7.0,"ss":18.0,"used":true},{"PRN":24,"gnssid":0,"svid":24,"az":310.0,"el":24.0,"ss":17.0,"used":true},{"PRN":13,"gnssid":0,"svid":13,"az":229.0,"el":37.0,"ss":0.0,"used":false},{"PRN":73,"gnssid":6,"svid":9,"az":322.0,"el":47.0,"ss":33.0,"used":true},{"PRN":82,"gnssid":6,"svid":18,"az":53.0,"el":55.0,"ss":26.0,"used":true},{"PRN":71,"gnssid":6,"svid":7,"az":268.0,"el":11.0,"ss":21.0,"used":true},{"PRN":80,"gnssid":6,"svid":16,"az":86.0,"el":57.0,"ss":20.0,"used":true},{"PRN":72,"gnssid":6,"svid":8,"az":317.0,"el":14.0,"ss":19.0,"used":true},{"PRN":79,"gnssid":6,"svid":15,"az":112.0,"el":9.0,"ss":17.0,"used":true},{"PRN":81,"gnssid":6,"svid":17,"az":26.0,"el":10.0,"ss":14.0,"used":true},{"PRN":84,"gnssid":6,"svid":20,"az":192.0,"el":3.0,"ss":18.0,"used":false},{"PRN":83,"gnssid":6,"svid":19,"az":163.0,"el":54.0,"ss":0.0,"used":false},{"PRN":74,"gnssid":6,"svid":10,"az":304.0,"el":4.0,"ss":0.0,"used":false},{"PRN":65,"gnssid":6,"svid":1,"az":357.0,"el":2.0,"ss":0.0,"used":false}]}
$GNRMC,020952.000,A,4404.1355,N,12118.8557,W,0.00,359.11,050219,,,A*6C
{"class":"TPV","mode":3,"time":"2019-02-05T02:09:52.000Z","ept":0.005,"lat":44.068925000,"lon":-121.314261667,"altHAE":1104.7000,"altMSL":1124.3000,"alt":1124.3000,"epx":8.820,"epy":12.604,"epv":18.400,"track":359.1100,"magtrack":13.5285,"magvar":14.4,"speed":0.000,"climb":0.100,"eps":25.21,"epc":39.10,"geoidSep":-19.600,"eph":11.400,"sep":19.000}
$GPGGA,020953.000,4404.1355,N,12118.8557,W,1,10,0.6,1124.3,M,-19.6,M,,0000*50
{"class":"SKY","gdop":2.13,"hdop":0.60,"pdop":1.00,"tdop":1.00,"xdop":0.59,"ydop":0.84,"vdop":0.80}
$GLGGA,020953.000,4404.1355,N,12118.8557,W,1,07,0.6,1124.3,M,-19.6,M,,0000*4A
{"class":"SKY","gdop":2.13,"hdop":0.60,"pdop":1.00,"tdop":1.00,"xdop":0.59,"ydop":0.84,"vdop":0.80}
$GNGSA,A,3,15,17,30,28,01,19,18,11,06,24,,,1.0,0.6,0.8*28
$GNGSA,A,3,73,82,71,80,72,79,81,,,,,,1.0,0.6,0.8*21
{"class":"SKY","gdop":2.13,"hdop":0.60,"pdop":1.00,"tdop":1.00,"xdop":0.59,"ydop":0.84,"vdop":0.80}
$GNRMC,020953.000,A,4404.1355,N,12118.8557,W,0.00,359.11,050219,,,A*6D
{"class":"TPV","mode":3,"time":"2019-02-05T02:09:53.000Z","ept":0.005,"lat":44.068925000,"lon":-121.314261667,"altHAE":1104.7000,"altMSL":1124.3000,"alt":1124.3000,"epx":8.820,"epy":12.604,"epv":18.400,"track":359.1100,"magtrack":13.5285,"magvar":14.4,"speed":0.000,"climb":0.000,"eps":25.21,"epc":36.80,"geoidSep":-19.600,"eph":11.400,"sep":19.000}
$GPGGA,020954.000,4404.1355,N,12118.8557,W,1,10,0.6,1124.3,M,-19.6,M,,0000*57
{"class":"SKY","gdop":2.13,"hdop":0.60,"pdop":1.00,"tdop":1.00,"xdop":0.59,"ydop":0.84,"vdop":0.80}
$GLGGA,020954.000,4404.1355,N,12118.8557,W,1,06,0.6,1124.3,M,-19.6,M,,0000*4C
{"class":"SKY","gdop":2.13,"hdop":0.60,"pdop":1.00,"tdop":1.00,"xdop":0.59,"ydop":0.84,"vdop":0.80}
$GNGSA,A,3,15,17,30,28,01,19,18,11,06,24,,,1.1,0.6,0.9*28
$GNGSA,A,3,73,82,71,80,72,79,,,,,,,1.1,0.6,0.9*28
{"class":"SKY","gdop":2.13,"hdop":0.60,"pdop":1.10,"tdop":1.00,"xdop":0.59,"ydop":0.84,"vdop":0.90}
$GNRMC,020954.000,A,4404.1355,N,12118.8557,W,0.00,359.11,050219,,,A*6A
{"class":"TPV","mode":3,"time":"2019-02-05T02:09:54.000Z","ept":0.005,"lat":44.068925000,"lon":-121.314261667,"altHAE":1104.7000,"altMSL":1124.3000,"alt":1124.3000,"epx":8.820,"epy":12.604,"epv":18.400,"track":359.1100,"magtrack":13.5285,"magvar":14.4,"speed":0.000,"climb":0.000,"eps":25.21,"epc":36.80,"geoidSep":-19.600,"eph":11.400,"sep":19.000}
$GPGGA,020955.000,4404.1355,N,12118.8557,W,1,10,0.6,1124.3,M,-19.6,M,,0000*56
{"class":"SKY","gdop":2.13,"hdop":0.60,"pdop":1.10,"tdop":1.00,"xdop":0.59,"ydop":0.84,"vdop":0.90}
$GLGGA,020955.000,4404.1355,N,12118.8557,W,1,06,0.6,1124.3,M,-19.6,M,,0000*4D
{"class":"SKY","gdop":2.13,"hdop":0.60,"pdop":1.10,"tdop":1.00,"xdop":0.59,"ydop":0.84,"vdop":0.90}
$GNGSA,A,3,15,17,30,28,01,19,11,18,06,24,,,1.1,0.6,0.9*28
$GNGSA,A,3,73,82,71,80,79,81,,,,,,,1.1,0.6,0.9*24
{"class":"SKY","gdop":2.13,"hdop":0.60,"pdop":1.10,"tdop":1.00,"xdop":0.59,"ydop":0.84,"vdop":0.90}
$GNRMC,020955.000,A,4404.1355,N,12118.8557,W,0.00,359.11,050219,,,A*6B
{"class":"TPV","mode":3,"time":"2019-02-05T02:09:55.000Z","ept":0.005,"lat":44.068925000,"lon":-121.314261667,"altHAE":1104.7000,"altMSL":1124.3000,"alt":1124.3000,"epx":8.820,"epy":12.604,"epv":20.700,"track":359.1100,"magtrack":13.5285,"magvar":14.4,"speed":0.000,"climb":0.000,"eps":25.21,"epc":39.10,"geoidSep":-19.600,"eph":11.400,"sep":20.900}
$GPGGA,020956.000,4404.1355,N,12118.8557,W,1,10,0.6,1124.3,M,-19.6,M,,0000*55
{"class":"SKY","gdop":2.13,"hdop":0.60,"pdop":1.10,"tdop":1.00,"xdop":0.59,"ydop":0.84,"vdop":0.90}
$GLGGA,020956.000,4404.1355,N,12118.8557,W,1,07,0.6,1124.3,M,-19.6,M,,0000*4F
{"class":"SKY","gdop":2.13,"hdop":0.60,"pdop":1.10,"tdop":1.00,"xdop":0.59,"ydop":0.84,"vdop":0.90}
$GNGSA,A,3,15,17,30,28,01,19,11,18,06,24,,,1.0,0.6,0.8*28
$GNGSA,A,3,73,82,71,80,72,79,81,,,,,,1.0,0.6,0.8*21
{"class":"SKY","gdop":2.13,"hdop":0.60,"pdop":1.00,"tdop":1.00,"xdop":0.59,"ydop":0.84,"vdop":0.80}
$GNRMC,020956.000,A,4404.1355,N,12118.8557,W,0.00,359.11,050219,,,A*68
{"class":"TPV","mode":3,"time":"2019-02-05T02:09:56.000Z","ept":0.005,"lat":44.068925000,"lon":-121.314261667,"altHAE":1104.7000,"altMSL":1124.3000,"alt":1124.3000,"epx":8.820,"epy":12.604,"epv":20.700,"track":359.1100,"magtrack":13.5285,"magvar":14.4,"speed":0.000,"climb":0.000,"eps":25.21,"epc":41.40,"geoidSep":-19.600,"eph":11.400,"sep":20.900}
$GPGGA,020957.000,4404.1356,N,12118.8557,W,1,08,0.8,1124.4,M,-19.6,M,,0000*57
{"class":"SKY","gdop":2.13,"hdop":0.80,"pdop":1.00,"tdop":1.00,"xdop":0.59,"ydop":0.84,"vdop":0.80}
$GLGGA,020957.000,4404.1356,N,12118.8557,W,1,06,0.8,1124.4,M,-19.6,M,,0000*45
{"class":"SKY","gdop":2.13,"hdop":0.80,"pdop":1.00,"tdop":1.00,"xdop":0.59,"ydop":0.84,"vdop":0.80}
$GNGSA,A,3,15,17,30,28,01,19,11,24,,,,,1.3,0.8,1.0*23
$GNGSA,A,3,73,82,71,80,79,83,,,,,,,1.3,0.8,1.0*22
{"class":"SKY","gdop":2.13,"hdop":0.80,"pdop":1.30,"tdop":1.00,"xdop":0.59,"ydop":0.84,"vdop":1.00}
$GPGSV,3,1,11,15,29,271,36,17,81,131,33,30,27,137,31,28,52,062,29*7A
$GPGSV,3,2,11,01,23,054,24,19,56,202,24,11,15,044,20,24,24,310,17*70
$GPGSV,3,3,11,06,07,167,18,18,06,032,20,13,37,229,*42
$GLGSV,3,1,11,73,47,322,33,82,55,053,26,71,11,268,21,80,57,086,21*65
$GLGSV,3,2,11,79,09,112,18,83,54,163,13,84,03,192,18,72,14,317,19*65
$GLGSV,3,3,11,81,10,026,,74,04,304,,65,02,357,*59
{"class":"SKY","gdop":2.13,"hdop":0.80,"pdop":1.30,"tdop":1.00,"xdop":0.59,"ydop":0.84,"vdop":1.00,"nSat":22,"uSat":14,"satellites":[{"PRN":15,"gnssid":0,"svid":15,"az":271.0,"el":29.0,"ss":36.0,"used":true},{"PRN":17,"gnssid":0,"svid":17,"az":131.0,"el":81.0,"ss":33.0,"used":true},{"PRN":30,"gnssid":0,"svid":30,"az":137.0,"el":27.0,"ss":31.0,"used":true},{"PRN":28,"gnssid":0,"svid":28,"az":62.0,"el":52.0,"ss":29.0,"used":true},{"PRN":1,"gnssid":0,"svid":1,"az":54.0,"el":23.0,"ss":24.0,"used":true},{"PRN":19,"gnssid":0,"svid":19,"az":202.0,"el":56.0,"ss":24.0,"used":true},{"PRN":11,"gnssid":0,"svid":11,"az":44.0,"el":15.0,"ss":20.0,"used":true},{"PRN":24,"gnssid":0,"svid":24,"az":310.0,"el":24.0,"ss":17.0,"used":true},{"PRN":6,"gnssid":0,"svid":6,"az":167.0,"el":7.0,"ss":18.0,"used":false},{"PRN":18,"gnssid":0,"svid":18,"az":32.0,"el":6.0,"ss":20.0,"used":false},{"PRN":13,"gnssid":0,"svid":13,"az":229.0,"el":37.0,"ss":0.0,"used":false},{"PRN":73,"gnssid":6,"svid":9,"az":322.0,"el":47.0,"ss":33.0,"used":true},{"PRN":82,"gnssid":6,"svid":18,"az":53.0,"el":55.0,"ss":26.0,"used":true},{"PRN":71,"gnssid":6,"svid":7,"az":268.0,"el":11.0,"ss":21.0,"used":true},{"PRN":80,"gnssid":6,"svid":16,"az":86.0,"el":57.0,"ss":21.0,"used":true},{"PRN":79,"gnssid":6,"svid":15,"az":112.0,"el":9.0,"ss":18.0,"used":true},{"PRN":83,"gnssid":6,"svid":19,"az":163.0,"el":54.0,"ss":13.0,"used":true},{"PRN":84,"gnssid":6,"svid":20,"az":192.0,"el":3.0,"ss":18.0,"used":false},{"PRN":72,"gnssid":6,"svid":8,"az":317.0,"el":14.0,"ss":19.0,"used":false},{"PRN":81,"gnssid":6,"svid":17,"az":26.0,"el":10.0,"ss":0.0,"used":false},{"PRN":74,"gnssid":6,"svid":10,"az":304.0,"el":4.0,"ss":0.0,"used":false},{"PRN":65,"gnssid":6,"svid":1,"az":357.0,"el":2.0,"ss":0.0,"used":false}]}
$GNRMC,020957.000,A,4404.1356,N,12118.8557,W,0.00,359.11,050219,,,A*6A
{"class":"TPV","mode":3,"time":"2019-02-05T02:09:57.000Z","ept":0.005,"lat":44.068926667,"lon":-121.314261667,"altHAE":1104.8000,"altMSL":1124.4000,"alt":1124.4000,"epx":8.820,"epy":12.604,"epv":18.400,"track":359.1100,"magtrack":13.5285,"magvar":14.4,"speed":0.000,"climb":0.100,"eps":25.21,"epc":39.10,"geoidSep":-19.600,"eph":15.200,"sep":19.000}
$GPGGA,020958.000,4404.1356,N,12118.8557,W,1,10,0.6,1124.4,M,-19.6,M,,0000*5F
{"class":"SKY","gdop":2.13,"hdop":0.60,"pdop":1.30,"tdop":1.00,"xdop":0.59,"ydop":0.84,"vdop":1.00}
$GLGGA,020958.000,4404.1356,N,12118.8557,W,1,06,0.6,1124.4,M,-19.6,M,,0000*44
{"class":"SKY","gdop":2.13,"hdop":0.60,"pdop":1.30,"tdop":1.00,"xdop":0.59,"ydop":0.84,"vdop":1.00}
$GNGSA,A,3,15,17,30,28,01,19,11,18,06,24,,,1.1,0.6,0.9*28
$GNGSA,A,3,73,82,71,80,72,83,,,,,,,1.1,0.6,0.9*2D
{"class":"SKY","gdop":2.13,"hdop":0.60,"pdop":1.10,"tdop":1.00,"xdop":0.59,"ydop":0.84,"vdop":0.90}
$GNRMC,020958.000,A,4404.1356,N,12118.8557,W,0.00,359.11,050219,,,A*65
{"class":"TPV","mode":3,"time":"2019-02-05T02:09:58.000Z","ept":0.005,"lat":44.068926667,"lon":-121.314261667,"altHAE":1104.8000,"altMSL":1124.4000,"alt":1124.4000,"epx":8.820,"epy":12.604,"epv":23.000,"track":359.1100,"magtrack":13.5285,"magvar":14.4,"speed":0.000,"climb":0.000,"eps":25.21,"epc":41.40,"geoidSep":-19.600,"eph":11.400,"sep":24.700}
$GPGGA,020959.000,4404.1356,N,12118.8557,W,1,09,0.7,1124.4,M,-19.6,M,,0000*57
{"class":"SKY","gdop":2.13,"hdop":0.70,"pdop":1.10,"tdop":1.00,"xdop":0.59,"ydop":0.84,"vdop":0.90}
$GLGGA,020959.000,4404.1356,N,12118.8557,W,1,07,0.7,1124.4,M,-19.6,M,,0000*45
{"class":"SKY","gdop":2.13,"hdop":0.70,"pdop":1.10,"tdop":1.00,"xdop":0.59,"ydop":0.84,"vdop":0.90}
$GNGSA,A,3,15,17,30,28,01,19,11,18,24,,,,1.2,0.7,0.9*2C
$GNGSA,A,3,73,82,71,80,72,79,83,,,,,,1.2,0.7,0.9*21
{"class":"SKY","gdop":2.13,"hdop":0.70,"pdop":1.20,"tdop":1.00,"xdop":0.59,"ydop":0.84,"vdop":0.90}
$GNRMC,020959.000,A,4404.1356,N,12118.8557,W,0.00,359.11,050219,,,A*64
{"class":"TPV","mode":3,"time":"2019-02-05T02:09:59.000Z","ept":0.005,"lat":44.068926667,"lon":-121.314261667,"altHAE":1104.8000,"altMSL":1124.4000,"alt":1124.4000,"epx":8.820,"epy":12.604,"epv":20.700,"track":359.1100,"magtrack":13.5285,"magvar":14.4,"speed":0.000,"climb":0.000,"eps":25.21,"epc":43.70,"geoidSep":-19.600,"eph":13.300,"sep":20.900}
$GPGGA,021000.000,4404.1356,N,12118.8557,W,1,09,0.7,1124.4,M,-19.6,M,,0000*53
{"class":"SKY","gdop":2.13,"hdop":0.70,"pdop":1.20,"tdop":1.00,"xdop":0.59,"ydop":0.84,"vdop":0.90}
$GLGGA,021000.000,4404.1356,N,12118.8557,W,1,06,0.7,1124.4,M,-19.6,M,,0000*40
{"class":"SKY","gdop":2.13,"hdop":0.70,"pdop":1.20,"tdop":1.00,"xdop":0.59,"ydop":0.84,"vdop":0.90}
$GNGSA,A,3,15,17,30,28,01,19,11,06,24,,,,1.1,0.7,0.9*20
$GNGSA,A,3,73,82,71,80,79,83,,,,,,,1.1,0.7,0.9*27
{"class":"SKY","gdop":2.13,"hdop":0.70,"pdop":1.10,"tdop":1.00,"xdop":0.59,"ydop":0.84,"vdop":0.90}
$GNRMC,021000.000,A,4404.1356,N,12118.8557,W,0.00,359.11,050219,,,A*60
{"class":"TPV","mode":3,"time":"2019-02-05T02:10:00.000Z","ept":0.005,"lat":44.068926667,"lon":-121.314261667,"altHAE":1104.8000,"altMSL":1124.4000,"alt":1124.4000,"epx":8.820,"epy":12.604,"epv":20.700,"track":359.1100,"magtrack":13.5285,"magvar":14.4,"speed":0.000,"climb":0.000,"eps":25.21,"epc":41.40,"geoidSep":-19.600,"eph":13.300,"sep":22.800}
$GPGGA,021001.000,4404.1356,N,12118.8557,W,1,10,0.6,1124.4,M,-19.6,M,,0000*5B
{"class":"SKY","gdop":2.13,"hdop":0.60,"pdop":1.10,"tdop":1.00,"xdop":0.59,"ydop":0.84,"vdop":0.90}
$GLGGA,021001.000,4404.1356,N,12118.8557,W,1,07,0.6,1124.4,M,-19.6,M,,0000*41
{"class":"SKY","gdop":2.13,"hdop":0.60,"pdop":1.10,"tdop":1.00,"xdop":0.59,"ydop":0.84,"vdop":0.90}
$GNGSA,A,3,15,17,30,28,01,19,11,18,06,24,,,1.0,0.6,0.8*28
$GNGSA,A,3,73,82,71,80,72,79,83,,,,,,1.0,0.6,0.8*23
{"class":"SKY","gdop":2.13,"hdop":0.60,"pdop":1.00,"tdop":1.00,"xdop":0.59,"ydop":0.84,"vdop":0.80}
$GNRMC,021001.000,A,4404.1356,N,12118.8557,W,0.00,359.11,050219,,,A*61
{"class":"TPV","mode":3,"time":"2019-02-05T02:10:01.000Z","ept":0.005,"lat":44.068926667,"lon":-121.314261667,"altHAE":1104.8000,"altMSL":1124.4000,"alt":1124.4000,"epx":8.820,"epy":12.604,"epv":20.700,"track":359.1100,"magtrack":13.5285,"magvar":14.4,"speed":0.000,"climb":0.000,"eps":25.21,"epc":41.40,"geoidSep":-19.600,"eph":11.400,"sep":20.900}
$GPGGA,021002.000,4404.1356,N,12118.8557,W,1,10,0.7,1124.4,M,-19.6,M,,0000*59
{"class":"SKY","gdop":2.13,"hdop":0.70,"pdop":1.00,"tdop":1.00,"xdop":0.59,"ydop":0.84,"vdop":0.80}
$GLGGA,021002.000,4404.1356,N,12118.8557,W,1,06,0.7,1124.4,M,-19.6,M,,0000*42
{"class":"SKY","gdop":2.13,"hdop":0.70,"pdop":1.00,"tdop":1.00,"xdop":0.59,"ydop":0.84,"vdop":0.80}
$GNGSA,A,3,15,17,30,28,01,19,11,18,06,24,,,1.1,0.7,0.9*29
$GNGSA,A,3,73,82,80,72,79,83,,,,,,,1.1,0.7,0.9*24
{"class":"SKY","gdop":2.13,"hdop":0.70,"pdop":1.10,"tdop":1.00,"xdop":0.59,"ydop":0.84,"vdop":0.90}
$GPGSV,3,1,11,15,29,271,36,17,81,131,33,30,27,137,30,28,52,062,29*7B
$GPGSV,3,2,11,01,23,054,25,19,56,202,23,11,15,044,21,18,06,032,20*7F
$GPGSV,3,3,11,06,07,167,19,24,24,310,17,13,37,229,*4B
$GLGSV,3,1,11,73,47,322,32,82,55,053,27,80,57,086,21,72,14,317,19*61
$GLGSV,3,2,11,79,09,112,18,83,54,163,13,84,03,192,17,71,11,268,21*6E
$GLGSV,3,3,11,81,10,026,,74,04,304,,65,02,357,*59
{"class":"SKY","gdop":2.13,"hdop":0.70,"pdop":1.10,"tdop":1.00,"xdop":0.59,"ydop":0.84,"vdop":0.90,"nSat":22,"uSat":16,"satellites":[{"PRN":15,"gnssid":0,"svid":15,"az":271.0,"el":29.0,"ss":36.0,"used":true},{"PRN":17,"gnssid":0,"svid":17,"az":131.0,"el":81.0,"ss":33.0,"used":true},{"PRN":30,"gnssid":0,"svid":30,"az":137.0,"el":27.0,"ss":30.0,"used":true},{"PRN":28,"gnssid":0,"svid":28,"az":62.0,"el":52.0,"ss":29.0,"used":true},{"PRN":1,"gnssid":0,"svid":1,"az":54.0,"el":23.0,"ss":25.0,"used":true},{"PRN":19,"gnssid":0,"svid":19,"az":202.0,"el":56.0,"ss":23.0,"used":true},{"PRN":11,"gnssid":0,"svid":11,"az":44.0,"el":15.0,"ss":21.0,"used":true},{"PRN":18,"gnssid":0,"svid":18,"az":32.0,"el":6.0,"ss":20.0,"used":true},{"PRN":6,"gnssid":0,"svid":6,"az":167.0,"el":7.0,"ss":19.0,"used":true},{"PRN":24,"gnssid":0,"svid":24,"az":310.0,"el":24.0,"ss":17.0,"used":true},{"PRN":13,"gnssid":0,"svid":13,"az":229.0,"el":37.0,"ss":0.0,"used":false},{"PRN":73,"gnssid":6,"svid":9,"az":322.0,"el":47.0,"ss":32.0,"used":true},{"PRN":82,"gnssid":6,"svid":18,"az":53.0,"el":55.0,"ss":27.0,"used":true},{"PRN":80,"gnssid":6,"svid":16,"az":86.0,"el":57.0,"ss":21.0,"used":true},{"PRN":72,"gnssid":6,"svid":8,"az":317.0,"el":14.0,"ss":19.0,"used":true},{"PRN":79,"gnssid":6,"svid":15,"az":112.0,"el":9.0,"ss":18.0,"used":true},{"PRN":83,"gnssid":6,"svid":19,"az":163.0,"el":54.0,"ss":13.0,"used":true},{"PRN":84,"gnssid":6,"svid":20,"az":192.0,"el":3.0,"ss":17.0,"used":false},{"PRN":71,"gnssid":6,"svid":7,"az":268.0,"el":11.0,"ss":21.0,"used":false},{"PRN":81,"gnssid":6,"svid":17,"az":26.0,"el":10.0,"ss":0.0,"used":false},{"PRN":74,"gnssid":6,"svid":10,"az":304.0,"el":4.0,"ss":0.0,"used":false},{"PRN":65,"gnssid":6,"svid":1,"az":357.0,"el":2.0,"ss":0.0,"used":false}]}
$GNRMC,021002.000,A,4404.1356,N,12118.8557,W,0.00,359.11,050219,,,A*62
{"class":"TPV","mode":3,"time":"2019-02-05T02:10:02.000Z","ept":0.005,"lat":44.068926667,"lon":-121.314261667,"altHAE":1104.8000,"altMSL":1124.4000,"alt":1124.4000,"epx":8.820,"epy":12.604,"epv":18.400,"track":359.1100,"magtrack":13.5285,"magvar":14.4,"speed":0.000,"climb":0.000,"eps":25.21,"epc":39.10,"geoidSep":-19.600,"eph":13.300,"sep":19.000}
$GPGGA,021003.000,4404.1356,N,12118.8557,W,1,10,0.6,1124.4,M,-19.6,M,,0000*59
{"class":"SKY","gdop":2.13,"hdop":0.60,"pdop":1.10,"tdop":1.00,"xdop":0.59,"ydop":0.84,"vdop":0.90}
$GLGGA,021003.000,4404.1356,N,12118.8557,W,1,06,0.6,1124.4,M,-19.6,M,,0000*42
{"class":"SKY","gdop":2.13,"hdop":0.60,"pdop":1.10,"tdop":1.00,"xdop":0.59,"ydop":0.84,"vdop":0.90}
$GNGSA,A,3,15,17,30,28,01,19,11,18,06,24,,,1.1,0.6,0.9*28
$GNGSA,A,3,73,82,71,80,72,79,,,,,,,1.1,0.6,0.9*28
{"class":"SKY","gdop":2.13,"hdop":0.60,"pdop":1.10,"tdop":1.00,"xdop":0.59,"ydop":0.84,"vdop":0.90}
$GNRMC,021003.000,A,4404.1356,N,12118.8557,W,0.00,359.11,050219,,,A*63
{"class":"TPV","mode":3,"time":"2019-02-05T02:10:03.000Z","ept":0.005,"lat":44.068926667,"lon":-121.314261667,"altHAE":1104.8000,"altMSL":1124.4000,"alt":1124.4000,"epx":8.820,"epy":12.604,"epv":20.700,"track":359.1100,"magtrack":13.5285,"magvar":14.4,"speed":0.000,"climb":0.000,"eps":25.21,"epc":39.10,"geoidSep":-19.600,"eph":11.400,"sep":20.900}
$GPGGA,021004.000,4404.1356,N,12118.8557,W,1,10,0.7,1124.4,M,-19.6,M,,0000*5F
{"class":"SKY","gdop":2.13,"hdop":0.70,"pdop":1.10,"tdop":1.00,"xdop":0.59,"ydop":0.84,"vdop":0.90}
$GLGGA,021004.000,4404.1356,N,12118.8557,W,1,05,0.7,1124.4,M,-19.6,M,,0000*47
{"class":"SKY","gdop":2.13,"hdop":0.70,"pdop":1.10,"tdop":1.00,"xdop":0.59,"ydop":0.84,"vdop":0.90}
$GNGSA,A,3,15,17,30,28,01,19,11,06,18,24,,,1.1,0.7,0.9*29
$GNGSA,A,3,73,82,80,71,72,,,,,,,,1.1,0.7,0.9*27
{"class":"SKY","gdop":2.13,"hdop":0.70,"pdop":1.10,"tdop":1.00,"xdop":0.59,"ydop":0.84,"vdop":0.90}
$GNRMC,021004.000,A,4404.1356,N,12118.8557,W,0.00,359.11,050219,,,A*64
{"class":"TPV","mode":3,"time":"2019-02-05T02:10:04.000Z","ept":0.005,"lat":44.068926667,"lon":-121.314261667,"altHAE":1104.8000,"altMSL":1124.4000,"alt":1124.4000,"epx":8.820,"epy":12.604,"epv":20.700,"track":359.1100,"magtrack":13.5285,"magvar":14.4,"speed":0.000,"climb":0.000,"eps":25.21,"epc":41.40,"geoidSep":-19.600,"eph":13.300,"sep":20.900}
$GPGGA,021005.000,4404.1356,N,12118.8557,W,1,10,0.7,1124.5,M,-19.6,M,,0000*5F
{"class":"SKY","gdop":2.13,"hdop":0.70,"pdop":1.10,"tdop":1.00,"xdop":0.59,"ydop":0.84,"vdop":0.90}
$GLGGA,021005.000,4404.1356,N,12118.8557,W,1,05,0.7,1124.5,M,-19.6,M,,0000*47
{"class":"SKY","gdop":2.13,"hdop":0.70,"pdop":1.10,"tdop":1.00,"xdop":0.59,"ydop":0.84,"vdop":0.90}
$GNGSA,A,3,15,17,30,28,01,19,11,06,18,24,,,1.1,0.7,0.9*29
$GNGSA,A,3,73,82,80,72,79,,,,,,,,1.1,0.7,0.9*2F
{"class":"SKY","gdop":2.13,"hdop":0.70,"pdop":1.10,"tdop":1.00,"xdop":0.59,"ydop":0.84,"vdop":0.90}
$GNRMC,021005.000,A,4404.1356,N,12118.8557,W,0.00,359.11,050219,,,A*65
{"class":"TPV","mode":3,"time":"2019-02-05T02:10:05.000Z","ept":0.005,"lat":44.068926667,"lon":-121.314261667,"altHAE":1104.9000,"altMSL":1124.5000,"alt":1124.5000,"epx":8.820,"epy":12.604,"epv":20.700,"track":359.1100,"magtrack":13.5285,"magvar":14.4,"speed":0.000,"climb":0.100,"eps":25.21,"epc":41.40,"geoidSep":-19.600,"eph":13.300,"sep":20.900}
$GPGGA,021006.000,4404.1356,N,12118.8557,W,1,11,0.6,1124.5,M,-19.6,M,,0000*5C
{"class":"SKY","gdop":2.13,"hdop":0.60,"pdop":1.10,"tdop":1.00,"xdop":0.59,"ydop":0.84,"vdop":0.90}
$GLGGA,021006.000,4404.1356,N,12118.8557,W,1,05,0.6,1124.5,M,-19.6,M,,0000*45
{"class":"SKY","gdop":2.13,"hdop":0.60,"pdop":1.10,"tdop":1.00,"xdop":0.59,"ydop":0.84,"vdop":0.90}
$GNGSA,A,3,15,17,30,28,01,19,11,06,18,24,13,,1.1,0.6,0.9*2A
$GNGSA,A,3,73,82,80,71,79,,,,,,,,1.1,0.6,0.9*2D
{"class":"SKY","gdop":2.13,"hdop":0.60,"pdop":1.10,"tdop":1.00,"xdop":0.59,"ydop":0.84,"vdop":0.90}
$GNRMC,021006.000,A,4404.1356,N,12118.8557,W,0.00,359.11,050219,,,A*66
{"class":"TPV","mode":3,"time":"2019-02-05T02:10:06.000Z","ept":0.005,"lat":44.068926667,"lon":-121.314261667,"altHAE":1104.9000,"altMSL":1124.5000,"alt":1124.5000,"epx":8.820,"epy":12.604,"epv":20.700,"track":359.1100,"magtrack":13.5285,"magvar":14.4,"speed":0.000,"climb":0.000,"eps":25.21,"epc":41.40,"geoidSep":-19.600,"eph":11.400,"sep":20.900}
$GPGGA,021007.000,4404.1356,N,12118.8557,W,1,11,0.6,1124.5,M,-19.6,M,,0000*5D
{"class":"SKY","gdop":2.13,"hdop":0.60,"pdop":1.10,"tdop":1.00,"xdop":0.59,"ydop":0.84,"vdop":0.90}
$GLGGA,021007.000,4404.1356,N,12118.8557,W,1,06,0.6,1124.5,M,-19.6,M,,0000*47
{"class":"SKY","gdop":2.13,"hdop":0.60,"pdop":1.10,"tdop":1.00,"xdop":0.59,"ydop":0.84,"vdop":0.90}
$GNGSA,A,3,15,17,28,30,01,19,11,06,18,24,13,,1.1,0.6,0.9*2A
$GNGSA,A,3,73,82,80,71,72,79,,,,,,,1.1,0.6,0.9*28
{"class":"SKY","gdop":2.13,"hdop":0.60,"pdop":1.10,"tdop":1.00,"xdop":0.59,"ydop":0.84,"vdop":0.90}
$GPGSV,3,1,11,15,29,271,36,17,81,131,33,28,52,062,30,30,27,137,30*73
$GPGSV,3,2,11,01,23,054,25,19,56,202,23,11,15,044,20,06,07,167,20*71
$GPGSV,3,3,11,18,06,032,19,24,24,310,17,13,37,229,16*43
$GLGSV,3,1,11,73,47,322,32,82,55,053,26,80,57,086,22,71,11,268,21*67
$GLGSV,3,2,11,72,14,317,19,79,09,112,18,84,03,192,18,83,54,163,*67
$GLGSV,3,3,11,81,10,026,,74,04,304,,65,02,357,*59
{"class":"SKY","gdop":2.13,"hdop":0.60,"pdop":1.10,"tdop":1.00,"xdop":0.59,"ydop":0.84,"vdop":0.90,"nSat":22,"uSat":17,"satellites":[{"PRN":15,"gnssid":0,"svid":15,"az":271.0,"el":29.0,"ss":36.0,"used":true},{"PRN":17,"gnssid":0,"svid":17,"az":131.0,"el":81.0,"ss":33.0,"used":true},{"PRN":28,"gnssid":0,"svid":28,"az":62.0,"el":52.0,"ss":30.0,"used":true},{"PRN":30,"gnssid":0,"svid":30,"az":137.0,"el":27.0,"ss":30.0,"used":true},{"PRN":1,"gnssid":0,"svid":1,"az":54.0,"el":23.0,"ss":25.0,"used":true},{"PRN":19,"gnssid":0,"svid":19,"az":202.0,"el":56.0,"ss":23.0,"used":true},{"PRN":11,"gnssid":0,"svid":11,"az":44.0,"el":15.0,"ss":20.0,"used":true},{"PRN":6,"gnssid":0,"svid":6,"az":167.0,"el":7.0,"ss":20.0,"used":true},{"PRN":18,"gnssid":0,"svid":18,"az":32.0,"el":6.0,"ss":19.0,"used":true},{"PRN":24,"gnssid":0,"svid":24,"az":310.0,"el":24.0,"ss":17.0,"used":true},{"PRN":13,"gnssid":0,"svid":13,"az":229.0,"el":37.0,"ss":16.0,"used":true},{"PRN":73,"gnssid":6,"svid":9,"az":322.0,"el":47.0,"ss":32.0,"used":true},{"PRN":82,"gnssid":6,"svid":18,"az":53.0,"el":55.0,"ss":26.0,"used":true},{"PRN":80,"gnssid":6,"svid":16,"az":86.0,"el":57.0,"ss":22.0,"used":true},{"PRN":71,"gnssid":6,"svid":7,"az":268.0,"el":11.0,"ss":21.0,"used":true},{"PRN":72,"gnssid":6,"svid":8,"az":317.0,"el":14.0,"ss":19.0,"used":true},{"PRN":79,"gnssid":6,"svid":15,"az":112.0,"el":9.0,"ss":18.0,"used":true},{"PRN":84,"gnssid":6,"svid":20,"az":192.0,"el":3.0,"ss":18.0,"used":false},{"PRN":83,"gnssid":6,"svid":19,"az":163.0,"el":54.0,"ss":0.0,"used":false},{"PRN":81,"gnssid":6,"svid":17,"az":26.0,"el":10.0,"ss":0.0,"used":false},{"PRN":74,"gnssid":6,"svid":10,"az":304.0,"el":4.0,"ss":0.0,"used":false},{"PRN":65,"gnssid":6,"svid":1,"az":357.0,"el":2.0,"ss":0.0,"used":false}]}
$GNRMC,021007.000,A,4404.1356,N,12118.8557,W,0.00,359.11,050219,,,A*67
{"class":"TPV","mode":3,"time":"2019-02-05T02:10:07.000Z","ept":0.005,"lat":44.068926667,"lon":-121.314261667,"altHAE":1104.9000,"altMSL":1124.5000,"alt":1124.5000,"epx":8.820,"epy":12.604,"epv":20.700,"track":359.1100,"magtrack":13.5285,"magvar":14.4,"speed":0.000,"climb":0.000,"eps":25.21,"epc":41.40,"geoidSep":-19.600,"eph":11.400,"sep":20.900}
$GPGGA,021008.000,4404.1356,N,12118.8557,W,1,11,0.6,1124.5,M,-19.6,M,,0000*52
{"class":"SKY","gdop":2.13,"hdop":0.60,"pdop":1.10,"tdop":1.00,"xdop":0.59,"ydop":0.84,"vdop":0.90}
$GLGGA,021008.000,4404.1356,N,12118.8557,W,1,06,0.6,1124.5,M,-19.6,M,,0000*48
{"class":"SKY","gdop":2.13,"hdop":0.60,"pdop":1.10,"tdop":1.00,"xdop":0.59,"ydop":0.84,"vdop":0.90}
$GNGSA,A,3,15,17,28,30,01,19,11,06,18,24,13,,1.1,0.6,0.9*2A
$GNGSA,A,3,73,82,80,71,72,79,,,,,,,1.1,0.6,0.9*28
{"class":"SKY","gdop":2.13,"hdop":0.60,"pdop":1.10,"tdop":1.00,"xdop":0.59,"ydop":0.84,"vdop":0.90}
$GNRMC,021008.000,A,4404.1356,N,12118.8557,W,0.00,359.11,050219,,,A*68
{"class":"TPV","mode":3,"time":"2019-02-05T02:10:08.000Z","ept":0.005,"lat":44.068926667,"lon":-121.314261667,"altHAE":1104.9000,"altMSL":1124.5000,"alt":1124.5000,"epx":8.820,"epy":12.604,"epv":20.700,"track":359.1100,"magtrack":13.5285,"magvar":14.4,"speed":0.000,"climb":0.000,"eps":25.21,"epc":41.40,"geoidSep":-19.600,"eph":11.400,"sep":20.900}
$GPGGA,021009.000,4404.1356,N,12118.8557,W,1,11,0.6,1124.5,M,-19.6,M,,0000*53
{"class":"SKY","gdop":2.13,"hdop":0.60,"pdop":1.10,"tdop":1.00,"xdop":0.59,"ydop":0.84,"vdop":0.90}
$GLGGA,021009.000,4404.1356,N,12118.8557,W,1,06,0.6,1124.5,M,-19.6,M,,0000*49
{"class":"SKY","gdop":2.13,"hdop":0.60,"pdop":1.10,"tdop":1.00,"xdop":0.59,"ydop":0.84,"vdop":0.90}
$GNGSA,A,3,15,17,28,30,01,19,11,06,18,24,13,,1.1,0.6,0.9*2A
$GNGSA,A,3,73,82,80,71,72,79,,,,,,,1.1,0.6,0.9*28
{"class":"SKY","gdop":2.13,"hdop":0.60,"pdop":1.10,"tdop":1.00,"xdop":0.59,"ydop":0.84,"vdop":0.90}
$GNRMC,021009.000,A,4404.1356,N,12118.8557,W,0.00,359.11,050219,,,A*69
{"class":"TPV","mode":3,"time":"2019-02-05T02:10:09.000Z","ept":0.005,"lat":44.068926667,"lon":-121.314261667,"altHAE":1104.9000,"altMSL":1124.5000,"alt":1124.5000,"epx":8.820,"epy":12.604,"epv":20.700,"track":359.1100,"magtrack":13.5285,"magvar":14.4,"speed":0.000,"climb":0.000,"eps":25.21,"epc":41.40,"geoidSep":-19.600,"eph":11.400,"sep":20.900}
$GPGGA,021010.000,4404.1356,N,12118.8557,W,1,11,0.6,1124.5,M,-19.6,M,,0000*5B
{"class":"SKY","gdop":2.13,"hdop":0.60,"pdop":1.10,"tdop":1.00,"xdop":0.59,"ydop":0.84,"vdop":0.90}
$GLGGA,021010.000,4404.1356,N,12118.8557,W,1,06,0.6,1124.5,M,-19.6,M,,0000*41
{"class":"SKY","gdop":2.13,"hdop":0.60,"pdop":1.10,"tdop":1.00,"xdop":0.59,"ydop":0.84,"vdop":0.90}
$GNGSA,A,3,15,17,28,30,01,19,06,11,18,24,13,,1.1,0.6,0.9*2A
$GNGSA,A,3,73,82,80,71,72,79,,,,,,,1.1,0.6,0.9*28
{"class":"SKY","gdop":2.13,"hdop":0.60,"pdop":1.10,"tdop":1.00,"xdop":0.59,"ydop":0.84,"vdop":0.90}
$GNRMC,021010.000,A,4404.1356,N,12118.8557,W,0.00,359.11,050219,,,A*61
{"class":"TPV","mode":3,"time":"2019-02-05T02:10:10.000Z","ept":0.005,"lat":44.068926667,"lon":-121.314261667,"altHAE":1104.9000,"altMSL":1124.5000,"alt":1124.5000,"epx":8.820,"epy":12.604,"epv":20.700,"track":359.1100,"magtrack":13.5285,"magvar":14.4,"speed":0.000,"climb":0.000,"eps":25.21,"epc":41.40,"geoidSep":-19.600,"eph":11.400,"sep":20.900}
$GPGGA,021011.000,4404.1356,N,12118.8557,W,1,11,0.6,1124.5,M,-19.6,M,,0000*5A
{"class":"SKY","gdop":2.13,"hdop":0.60,"pdop":1.10,"tdop":1.00,"xdop":0.59,"ydop":0.84,"vdop":0.90}
$GLGGA,021011.000,4404.1356,N,12118.8557,W,1,06,0.6,1124.5,M,-19.6,M,,0000*40
{"class":"SKY","gdop":2.13,"hdop":0.60,"pdop":1.10,"tdop":1.00,"xdop":0.59,"ydop":0.84,"vdop":0.90}
$GNGSA,A,3,15,17,28,30,01,19,06,11,18,24,13,,1.1,0.6,0.9*2A
$GNGSA,A,3,73,82,80,71,72,79,,,,,,,1.1,0.6,0.9*28
{"class":"SKY","gdop":2.13,"hdop":0.60,"pdop":1.10,"tdop":1.00,"xdop":0.59,"ydop":0.84,"vdop":0.90}
$GNRMC,021011.000,A,4404.1356,N,12118.8557,W,0.00,359.11,050219,,,A*60
{"class":"TPV","mode":3,"time":"2019-02-05T02:10:11.000Z","ept":0.005,"lat":44.068926667,"lon":-121.314261667,"altHAE":1104.9000,"altMSL":1124.5000,"alt":1124.5000,"epx":8.820,"epy":12.604,"epv":20.700,"track":359.1100,"magtrack":13.5285,"magvar":14.4,"speed":0.000,"climb":0.000,"eps":25.21,"epc":41.40,"geoidSep":-19.600,"eph":11.400,"sep":20.900}
$GPGGA,021012.000,4404.1356,N,12118.8557,W,1,11,0.6,1124.5,M,-19.6,M,,0000*59
{"class":"SKY","gdop":2.13,"hdop":0.60,"pdop":1.10,"tdop":1.00,"xdop":0.59,"ydop":0.84,"vdop":0.90}
$GLGGA,021012.000,4404.1356,N,12118.8557,W,1,06,0.6,1124.5,M,-19.6,M,,0000*43
{"class":"SKY","gdop":2.13,"hdop":0.60,"pdop":1.10,"tdop":1.00,"xdop":0.59,"ydop":0.84,"vdop":0.90}
$GNGSA,A,3,15,17,28,30,01,19,06,11,18,24,13,,1.1,0.6,0.9*2A
$GNGSA,A,3,73,82,80,71,72,79,,,,,,,1.1,0.6,0.9*28
{"class":"SKY","gdop":2.13,"hdop":0.60,"pdop":1.10,"tdop":1.00,"xdop":0.59,"ydop":0.84,"vdop":0.90}
$GPGSV,3,1,11,15,29,271,36,17,81,131,32,28,52,062,30,30,27,137,29*7A
$GPGSV,3,2,11,01,23,054,25,19,56,202,22,06,07,167,21,11,15,044,20*71
$GPGSV,3,3,11,18,06,032,19,24,24,310,18,13,37,229,17*4D
$GLGSV,3,1,11,73,47,322,32,82,55,053,26,80,57,086,22,71,11,268,21*67
$GLGSV,3,2,11,72,14,317,19,79,09,112,17,84,03,192,18,83,54,163,*68
$GLGSV,3,3,11,81,10,026,,74,04,304,,65,02,357,*59
{"class":"SKY","gdop":2.13,"hdop":0.60,"pdop":1.10,"tdop":1.00,"xdop":0.59,"ydop":0.84,"vdop":0.90,"nSat":22,"uSat":17,"satellites":[{"PRN":15,"gnssid":0,"svid":15,"az":271.0,"el":29.0,"ss":36.0,"used":true},{"PRN":17,"gnssid":0,"svid":17,"az":131.0,"el":81.0,"ss":32.0,"used":true},{"PRN":28,"gnssid":0,"svid":28,"az":62.0,"el":52.0,"ss":30.0,"used":true},{"PRN":30,"gnssid":0,"svid":30,"az":137.0,"el":27.0,"ss":29.0,"used":true},{"PRN":1,"gnssid":0,"svid":1,"az":54.0,"el":23.0,"ss":25.0,"used":true},{"PRN":19,"gnssid":0,"svid":19,"az":202.0,"el":56.0,"ss":22.0,"used":true},{"PRN":6,"gnssid":0,"svid":6,"az":167.0,"el":7.0,"ss":21.0,"used":true},{"PRN":11,"gnssid":0,"svid":11,"az":44.0,"el":15.0,"ss":20.0,"used":true},{"PRN":18,"gnssid":0,"svid":18,"az":32.0,"el":6.0,"ss":19.0,"used":true},{"PRN":24,"gnssid":0,"svid":24,"az":310.0,"el":24.0,"ss":18.0,"used":true},{"PRN":13,"gnssid":0,"svid":13,"az":229.0,"el":37.0,"ss":17.0,"used":true},{"PRN":73,"gnssid":6,"svid":9,"az":322.0,"el":47.0,"ss":32.0,"used":true},{"PRN":82,"gnssid":6,"svid":18,"az":53.0,"el":55.0,"ss":26.0,"used":true},{"PRN":80,"gnssid":6,"svid":16,"az":86.0,"el":57.0,"ss":22.0,"used":true},{"PRN":71,"gnssid":6,"svid":7,"az":268.0,"el":11.0,"ss":21.0,"used":true},{"PRN":72,"gnssid":6,"svid":8,"az":317.0,"el":14.0,"ss":19.0,"used":true},{"PRN":79,"gnssid":6,"svid":15,"az":112.0,"el":9.0,"ss":17.0,"used":true},{"PRN":84,"gnssid":6,"svid":20,"az":192.0,"el":3.0,"ss":18.0,"used":false},{"PRN":83,"gnssid":6,"svid":19,"az":163.0,"el":54.0,"ss":0.0,"used":false},{"PRN":81,"gnssid":6,"svid":17,"az":26.0,"el":10.0,"ss":0.0,"used":false},{"PRN":74,"gnssid":6,"svid":10,"az":304.0,"el":4.0,"ss":0.0,"used":false},{"PRN":65,"gnssid":6,"svid":1,"az":357.0,"el":2.0,"ss":0.0,"used":false}]}
$GNRMC,021012.000,A,4404.1356,N,12118.8557,W,0.00,359.11,050219,,,A*63
{"class":"TPV","mode":3,"time":"2019-02-05T02:10:12.000Z","ept":0.005,"lat":44.068926667,"lon":-121.314261667,"altHAE":1104.9000,"altMSL":1124.5000,"alt":1124.5000,"epx":8.820,"epy":12.604,"epv":20.700,"track":359.1100,"magtrack":13.5285,"magvar":14.4,"speed":0.000,"climb":0.000,"eps":25.21,"epc":41.40,"geoidSep":-19.600,"eph":11.400,"sep":20.900}
$GPGGA,021013.000,4404.1356,N,12118.8557,W,1,11,0.6,1124.5,M,-19.6,M,,0000*58
{"class":"SKY","gdop":2.13,"hdop":0.60,"pdop":1.10,"tdop":1.00,"xdop":0.59,"ydop":0.84,"vdop":0.90}
$GLGGA,021013.000,4404.1356,N,12118.8557,W,1,06,0.6,1124.5,M,-19.6,M,,0000*42
{"class":"SKY","gdop":2.13,"hdop":0.60,"pdop":1.10,"tdop":1.00,"xdop":0.59,"ydop":0.84,"vdop":0.90}
$GNGSA,A,3,15,17,28,30,01,19,06,11,18,13,24,,1.1,0.6,0.9*2A
$GNGSA,A,3,73,82,80,71,72,79,,,,,,,1.1,0.6,0.9*28
{"class":"SKY","gdop":2.13,"hdop":0.60,"pdop":1.10,"tdop":1.00,"xdop":0.59,"ydop":0.84,"vdop":0.90}
$GNRMC,021013.000,A,4404.1356,N,12118.8557,W,0.00,359.11,050219,,,A*62
{"class":"TPV","mode":3,"time":"2019-02-05T02:10:13.000Z","ept":0.005,"lat":44.068926667,"lon":-121.314261667,"altHAE":1104.9000,"altMSL":1124.5000,"alt":1124.5000,"epx":8.820,"epy":12.604,"epv":20.700,"track":359.1100,"magtrack":13.5285,"magvar":14.4,"speed":0.000,"climb":0.000,"eps":25.21,"epc":41.40,"geoidSep":-19.600,"eph":11.400,"sep":20.900}
$GPGGA,021014.000,4404.1356,N,12118.8557,W,1,11,0.6,1124.5,M,-19.6,M,,0000*5F
{"class":"SKY","gdop":2.13,"hdop":0.60,"pdop":1.10,"tdop":1.00,"xdop":0.59,"ydop":0.84,"vdop":0.90}
$GLGGA,021014.000,4404.1356,N,12118.8557,W,1,06,0.6,1124.5,M,-19.6,M,,0000*45
{"class":"SKY","gdop":2.13,"hdop":0.60,"pdop":1.10,"tdop":1.00,"xdop":0.59,"ydop":0.84,"vdop":0.90}
$GNGSA,A,3,15,17,28,30,01,19,06,11,18,13,24,,1.1,0.6,0.9*2A
$GNGSA,A,3,73,82,80,71,72,79,,,,,,,1.1,0.6,0.9*28
{"class":"SKY","gdop":2.13,"hdop":0.60,"pdop":1.10,"tdop":1.00,"xdop":0.59,"ydop":0.84,"vdop":0.90}
$GNRMC,021014.000,A,4404.1356,N,12118.8557,W,0.00,359.11,050219,,,A*65
{"class":"TPV","mode":3,"time":"2019-02-05T02:10:14.000Z","ept":0.005,"lat":44.068926667,"lon":-121.314261667,"altHAE":1104.9000,"altMSL":1124.5000,"alt":1124.5000,"epx":8.820,"epy":12.604,"epv":20.700,"track":359.1100,"magtrack":13.5285,"magvar":14.4,"speed":0.000,"climb":0.000,"eps":25.21,"epc":41.40,"geoidSep":-19.600,"eph":11.400,"sep":20.900}
$GPGGA,021015.000,4404.1356,N,12118.8557,W,1,10,0.7,1124.5,M,-19.6,M,,0000*5E
{"class":"SKY","gdop":2.13,"hdop":0.70,"pdop":1.10,"tdop":1.00,"xdop":0.59,"ydop":0.84,"vdop":0.90}
$GLGGA,021015.000,4404.1356,N,12118.8557,W,1,06,0.7,1124.5,M,-19.6,M,,0000*45
{"class":"SKY","gdop":2.13,"hdop":0.70,"pdop":1.10,"tdop":1.00,"xdop":0.59,"ydop":0.84,"vdop":0.90}
$GNGSA,A,3,15,17,28,30,01,19,11,18,13,24,,,1.2,0.7,0.9*2E
$GNGSA,A,3,73,82,80,71,72,79,,,,,,,1.2,0.7,0.9*2A
{"class":"SKY","gdop":2.13,"hdop":0.70,"pdop":1.20,"tdop":1.00,"xdop":0.59,"ydop":0.84,"vdop":0.90}
$GNRMC,021015.000,A,4404.1356,N,12118.8557,W,0.00,359.11,050219,,,A*64
{"class":"TPV","mode":3,"time":"2019-02-05T02:10:15.000Z","ept":0.005,"lat":44.068926667,"lon":-121.314261667,"altHAE":1104.9000,"altMSL":1124.5000,"alt":1124.5000,"epx":8.820,"epy":12.604,"epv":20.700,"track":359.1100,"magtrack":13.5285,"magvar":14.4,"speed":0.000,"climb":0.000,"eps":25.21,"epc":41.40,"geoidSep":-19.600,"eph":13.300,"sep":20.900}
$GPGGA,021016.000,4404.1356,N,12118.8557,W,1,11,0.6,1124.5,M,-19.6,M,,0000*5D
{"class":"SKY","gdop":2.13,"hdop":0.60,"pdop":1.20,"tdop":1.00,"xdop":0.59,"ydop":0.84,"vdop":0.90}
$GLGGA,021016.000,4404.1356,N,12118.8557,W,1,06,0.6,1124.5,M,-19.6,M,,0000*47
{"class":"SKY","gdop":2.13,"hdop":0.60,"pdop":1.20,"tdop":1.00,"xdop":0.59,"ydop":0.84,"vdop":0.90}
$GNGSA,A,3,15,17,28,30,01,19,06,11,13,18,24,,1.1,0.6,0.9*2A
$GNGSA,A,3,73,82,80,71,72,79,,,,,,,1.1,0.6,0.9*28
{"class":"SKY","gdop":2.13,"hdop":0.60,"pdop":1.10,"tdop":1.00,"xdop":0.59,"ydop":0.84,"vdop":0.90}
$GNRMC,021016.000,A,4404.1356,N,12118.8557,W,0.00,359.11,050219,,,A*67
{"class":"TPV","mode":3,"time":"2019-02-05T02:10:16.000Z","ept":0.005,"lat":44.068926667,"lon":-121.314261667,"altHAE":1104.9000,"altMSL":1124.5000,"alt":1124.5000,"epx":8.820,"epy":12.604,"epv":20.700,"track":359.1100,"magtrack":13.5285,"magvar":14.4,"speed":0.000,"climb":0.000,"eps":25.21,"epc":41.40,"geoidSep":-19.600,"eph":11.400,"sep":22.800}
$GPGGA,021017.000,4404.1356,N,12118.8557,W,1,11,0.6,1124.5,M,-19.6,M,,0000*5C
{"class":"SKY","gdop":2.13,"hdop":0.60,"pdop":1.10,"tdop":1.00,"xdop":0.59,"ydop":0.84,"vdop":0.90}
$GLGGA,021017.000,4404.1356,N,12118.8557,W,1,05,0.6,1124.5,M,-19.6,M,,0000*45
{"class":"SKY","gdop":2.13,"hdop":0.60,"pdop":1.10,"tdop":1.00,"xdop":0.59,"ydop":0.84,"vdop":0.90}
