$GPGSV,2,1,07,02,45,180,33,28,09,112,27,12,48,308,19,24,54,246,21*7B
$GPGSV,2,2,07,17,30,060,22,19,58,050,24,211,77,031,00*7B
{"class":"SKY","gdop":5.63,"hdop":2.68,"pdop":4.68,"tdop":3.13,"xdop":1.88,"ydop":1.91,"vdop":3.83,"nSat":7,"uSat":4,"satellites":[{"PRN":2,"gnssid":0,"svid":2,"az":180.0,"el":45.0,"ss":33.0,"used":true},{"PRN":28,"gnssid":0,"svid":28,"az":112.0,"el":9.0,"ss":27.0,"used":true},{"PRN":12,"gnssid":0,"svid":12,"az":308.0,"el":48.0,"ss":19.0,"used":false},{"PRN":24,"gnssid":0,"svid":24,"az":246.0,"el":54.0,"ss":21.0,"used":true},{"PRN":17,"gnssid":0,"svid":17,"az":60.0,"el":30.0,"ss":22.0,"used":false},{"PRN":19,"gnssid":0,"svid":19,"az":50.0,"el":58.0,"ss":24.0,"used":true},{"PRN":211,"gnssid":3,"svid":11,"az":31.0,"el":77.0,"ss":0.0,"used":false}]}
$GPZDA,033539.00,01,04,2016,00,00*69
$GPGGA,033539.00,4404.1277735,N,12118.8711985,W,1,00,1.73,1099.91,M,-22.155,M,,*67
$GPRMC,033539.00,A,4404.1277735,N,12118.8711985,W,0.2746,308.981,010416,14.4,E*4C
$GPGSA,A,2,2,28,24,19,,,,,,,,,2.0,1.7,1.0*00
$GPGBS,033539.00,28.270,28.598,,,,,*61
{"class":"TPV","mode":2,"time":"2016-04-01T03:35:38.999Z","ept":0.005,"lat":44.068796225,"lon":-121.314519974,"altHAE":1077.7540,"altMSL":1099.9092,"alt":1099.9092,"epx":28.270,"epy":28.598,"track":308.9814,"magtrack":323.3999,"magvar":14.4,"speed":0.141,"eph":32.789,"sep":37.601}
{"class":"SKY","gdop":2.22,"hdop":1.73,"pdop":1.98,"tdop":1.00,"xdop":1.88,"ydop":1.91,"vdop":0.97}
$GPGSV,2,1,07,02,45,180,32,28,09,112,27,12,48,308,20,24,54,246,23*72
$GPGSV,2,2,07,17,30,060,22,19,58,050,23,211,77,031,00*7C
{"class":"SKY","gdop":2.22,"hdop":1.73,"pdop":1.98,"tdop":1.00,"xdop":1.88,"ydop":1.91,"vdop":0.97,"nSat":7,"uSat":3,"satellites":[{"PRN":2,"gnssid":0,"svid":2,"az":180.0,"el":45.0,"ss":32.0,"used":true},{"PRN":28,"gnssid":0,"svid":28,"az":112.0,"el":9.0,"ss":27.0,"used":true},{"PRN":12,"gnssid":0,"svid":12,"az":308.0,"el":48.0,"ss":20.0,"used":false},{"PRN":24,"gnssid":0,"svid":24,"az":246.0,"el":54.0,"ss":23.0,"used":true},{"PRN":17,"gnssid":0,"svid":17,"az":60.0,"el":30.0,"ss":22.0,"used":false},{"PRN":19,"gnssid":0,"svid":19,"az":50.0,"el":58.0,"ss":23.0,"used":false},{"PRN":211,"gnssid":3,"svid":11,"az":31.0,"el":77.0,"ss":0.0,"used":false}]}
$GPZDA,033540.00,01,04,2016,00,00*67
$GPGGA,033540.00,4404.1262744,N,12118.8708789,W,1,00,3.14,1099.91,M,-22.155,M,,*62
$GPRMC,033540.00,A,4404.1262744,N,12118.8708789,W,1.2817,14.633,010416,14.4,E*78
$GPGSA,A,2,2,28,24,,,,,,,,,,3.3,3.1,1.0*0E
$GPGBS,033540.00,28.270,28.598,,,,,*6F
{"class":"TPV","mode":2,"time":"2016-04-01T03:35:39.999Z","ept":0.005,"lat":44.068771241,"lon":-121.314514648,"altHAE":1077.7540,"altMSL":1099.9092,"alt":1099.9092,"epx":28.270,"epy":28.598,"track":14.6327,"magtrack":29.0512,"magvar":14.4,"speed":0.659,"eps":57.20,"eph":59.710,"sep":62.660}
{"class":"SKY","gdop":3.61,"hdop":3.14,"pdop":3.30,"tdop":1.48,"xdop":1.88,"ydop":1.91,"vdop":1.00}
$GPGSV,2,1,07,02,45,180,32,28,09,112,26,12,48,308,19,24,54,246,23*79
$GPGSV,2,2,07,17,30,060,22,19,58,050,23,211,77,031,00*7C
{"class":"SKY","time":"2016-04-01T03:35:40.998Z","gdop":3.61,"hdop":3.14,"pdop":3.30,"tdop":1.48,"xdop":1.88,"ydop":1.91,"vdop":1.00,"nSat":7,"uSat":5,"satellites":[{"PRN":2,"gnssid":0,"svid":2,"az":180.0,"el":45.0,"ss":32.0,"used":true},{"PRN":28,"gnssid":0,"svid":28,"az":112.0,"el":9.0,"ss":26.0,"used":true},{"PRN":12,"gnssid":0,"svid":12,"az":308.0,"el":48.0,"ss":19.0,"used":false},{"PRN":24,"gnssid":0,"svid":24,"az":246.0,"el":54.0,"ss":23.0,"used":true},{"PRN":17,"gnssid":0,"svid":17,"az":60.0,"el":30.0,"ss":22.0,"used":true},{"PRN":19,"gnssid":0,"svid":19,"az":50.0,"el":58.0,"ss":23.0,"used":true},{"PRN":211,"gnssid":3,"svid":11,"az":31.0,"el":77.0,"ss":0.0,"used":false}]}
$GPZDA,033541.00,01,04,2016,00,00*66
$GPGGA,033541.00,4404.1211389,N,12118.8492428,W,1,00,1.53,1133.51,M,-22.155,M,,*66
$GPRMC,033541.00,A,4404.1211389,N,12118.8492428,W,0.0447,334.856,010416,14.4,E*46
$GPGSA,A,2,2,28,24,17,19,,,,,,,,1.8,1.5,1.0*0F
$GPGBS,033541.00,28.270,28.598,,,,,*6E
{"class":"TPV","mode":2,"time":"2016-04-01T03:35:40.999Z","ept":0.005,"lat":44.068685648,"lon":-121.314154046,"altHAE":1111.3505,"altMSL":1133.5052,"alt":1133.5052,"epx":28.270,"epy":28.598,"track":334.8564,"magtrack":349.2748,"magvar":14.4,"speed":0.023,"epd":86.4742,"eps":57.20,"eph":29.070,"sep":34.369}
{"class":"SKY","time":"2016-04-01T03:35:40.998Z","gdop":2.04,"hdop":1.53,"pdop":1.81,"tdop":0.94,"xdop":1.88,"ydop":1.91,"vdop":0.96}
$GPGSV,2,1,07,02,45,180,32,28,09,112,27,12,48,308,19,24,54,246,22*79
$GPGSV,2,2,07,17,30,060,22,19,58,050,22,211,77,031,00*7D
{"class":"SKY","time":"2016-04-01T03:35:40.998Z","gdop":2.04,"hdop":1.53,"pdop":1.81,"tdop":0.94,"xdop":1.88,"ydop":1.91,"vdop":0.96,"nSat":7,"uSat":4,"satellites":[{"PRN":2,"gnssid":0,"svid":2,"az":180.0,"el":45.0,"ss":32.0,"used":true},{"PRN":28,"gnssid":0,"svid":28,"az":112.0,"el":9.0,"ss":27.0,"used":true},{"PRN":12,"gnssid":0,"svid":12,"az":308.0,"el":48.0,"ss":19.0,"used":false},{"PRN":24,"gnssid":0,"svid":24,"az":246.0,"el":54.0,"ss":22.0,"used":true},{"PRN":17,"gnssid":0,"svid":17,"az":60.0,"el":30.0,"ss":22.0,"used":true},{"PRN":19,"gnssid":0,"svid":19,"az":50.0,"el":58.0,"ss":22.0,"used":false},{"PRN":211,"gnssid":3,"svid":11,"az":31.0,"el":77.0,"ss":0.0,"used":false}]}
$GPZDA,033542.00,01,04,2016,00,00*65
$GPGGA,033542.00,4404.1239522,N,12118.8487058,W,1,00,1.66,1132.25,M,-22.155,M,,*6B
$GPRMC,033542.00,A,4404.1239522,N,12118.8487058,W,0.3234,282.288,010416,14.4,E*4B
$GPGSA,A,2,2,28,24,17,,,,,,,,,1.9,1.7,1.0*04
$GPGBS,033542.00,28.270,28.598,,,,,*6D
{"class":"TPV","mode":2,"time":"2016-04-01T03:35:41.999Z","ept":0.005,"lat":44.068732536,"lon":-121.314145097,"altHAE":1110.1002,"altMSL":1132.2549,"alt":1132.2549,"epx":28.270,"epy":28.598,"track":282.2877,"magtrack":296.7062,"magvar":14.4,"speed":0.166,"eps":57.20,"eph":31.504,"sep":36.643}
{"class":"SKY","time":"2016-04-01T03:35:40.998Z","gdop":2.16,"hdop":1.66,"pdop":1.93,"tdop":0.96,"xdop":1.88,"ydop":1.91,"vdop":0.98}
$GPGSV,2,1,07,02,45,180,32,28,09,112,26,12,48,308,18,24,54,246,22*79
$GPGSV,2,2,07,17,30,060,21,19,58,050,21,211,77,031,00*7D
{"class":"SKY","time":"2016-04-01T03:35:40.998Z","gdop":2.16,"hdop":1.66,"pdop":1.93,"tdop":0.96,"xdop":1.88,"ydop":1.91,"vdop":0.98,"nSat":7,"uSat":5,"satellites":[{"PRN":2,"gnssid":0,"svid":2,"az":180.0,"el":45.0,"ss":32.0,"used":true},{"PRN":28,"gnssid":0,"svid":28,"az":112.0,"el":9.0,"ss":26.0,"used":true},{"PRN":12,"gnssid":0,"svid":12,"az":308.0,"el":48.0,"ss":18.0,"used":false},{"PRN":24,"gnssid":0,"svid":24,"az":246.0,"el":54.0,"ss":22.0,"used":true},{"PRN":17,"gnssid":0,"svid":17,"az":60.0,"el":30.0,"ss":21.0,"used":true},{"PRN":19,"gnssid":0,"svid":19,"az":50.0,"el":58.0,"ss":21.0,"used":true},{"PRN":211,"gnssid":3,"svid":11,"az":31.0,"el":77.0,"ss":0.0,"used":false}]}
$GPZDA,033543.00,01,04,2016,00,00*64
$GPGGA,033543.00,4404.1326165,N,12118.8634248,W,1,00,2.44,1089.66,M,-22.155,M,,*6E
$GPRMC,033543.00,A,4404.1326165,N,12118.8634248,W,0.3090,246.116,010416,14.4,E*4B
$GPGSA,A,3,2,28,24,17,19,,,,,,,,4.4,2.4,3.7*00
$GPGBS,033543.00,28.270,28.598,84.515,,,,*7F
{"class":"TPV","mode":3,"time":"2016-04-01T03:35:42.999Z","ept":0.005,"lat":44.068876942,"lon":-121.314390414,"altHAE":1067.5085,"altMSL":1089.6634,"alt":1089.6634,"epx":28.270,"epy":28.598,"epv":84.515,"track":246.1161,"magtrack":260.5345,"magvar":14.4,"speed":0.159,"climb":-0.197,"eps":57.20,"ecefx":-2386057.80,"ecefy":-3922156.18,"ecefz":4414336.08,"ecefvx":-0.07,"ecefvy":0.16,"ecefvz":-0.18,"velN":-0.064,"velE":-0.145,"velD":0.197,"geoidSep":-22.155,"eph":46.379,"sep":83.817}
{"class":"SKY","time":"2016-04-01T03:35:40.998Z","gdop":5.28,"hdop":2.44,"pdop":4.41,"tdop":2.90,"xdop":1.88,"ydop":1.91,"vdop":3.67}
$GPALM,1,1,07,0866,00,4b61,90,0fcb,fffffd51,a10ce9,ff92be58,517b66,ff8c8bd1,1e5,ffffffff*47
{"class":"SUBFRAME","gnssId":0,"tSV":2,"frame":5,"TOW17":444960,"scaled":false,"dataid":7,"ALMANAC":{"ID":7,"Health":0,"e":19297,"toa":144,"deltai":4043,"Omegad":-687,"sqrtA":10554601,"Omega0":5340006,"omega":-7160232,"M0":-7566383,"af0":485,"af1":-1}}
$GPALM,1,1,07,0866,00,4b6c,0f,0fc6,fffffd4a,a10ce3,ff92bf1a,4c8cf8,52abf8,1e4,ffffffff*17
{"class":"SUBFRAME","gnssId":0,"tSV":28,"frame":5,"TOW17":444960,"scaled":false,"dataid":7,"ALMANAC":{"ID":7,"Health":0,"e":19308,"toa":15,"deltai":4038,"Omegad":-694,"sqrtA":10554595,"Omega0":5016824,"omega":-7160038,"M0":5417976,"af0":484,"af1":-1}}
$GPGSV,2,1,07,02,45,180,32,28,09,112,27,12,48,308,17,24,54,246,21*74
$GPGSV,2,2,07,17,30,060,22,19,58,050,21,211,77,031,00*7E
{"class":"SKY","time":"2016-04-01T03:35:40.998Z","gdop":5.28,"hdop":2.44,"pdop":4.41,"tdop":2.90,"xdop":1.88,"ydop":1.91,"vdop":3.67,"nSat":7,"uSat":4,"satellites":[{"PRN":2,"gnssid":0,"svid":2,"az":180.0,"el":45.0,"ss":32.0,"used":true},{"PRN":28,"gnssid":0,"svid":28,"az":112.0,"el":9.0,"ss":27.0,"used":true},{"PRN":12,"gnssid":0,"svid":12,"az":308.0,"el":48.0,"ss":17.0,"used":false},{"PRN":24,"gnssid":0,"svid":24,"az":246.0,"el":54.0,"ss":21.0,"used":true},{"PRN":17,"gnssid":0,"svid":17,"az":60.0,"el":30.0,"ss":22.0,"used":false},{"PRN":19,"gnssid":0,"svid":19,"az":50.0,"el":58.0,"ss":21.0,"used":true},{"PRN":211,"gnssid":3,"svid":11,"az":31.0,"el":77.0,"ss":0.0,"used":false}]}
$GPZDA,033544.00,01,04,2016,00,00*63
$GPGGA,033544.00,4404.1315326,N,12118.8543942,W,1,00,1.73,1118.47,M,-22.155,M,,*63
$GPRMC,033544.00,A,4404.1315326,N,12118.8543942,W,0.1147,324.542,010416,14.4,E*42
$GPGSA,A,2,2,28,24,19,,,,,,,,,2.0,1.7,1.0*00
$GPGBS,033544.00,28.270,28.598,,,,,*6B
{"class":"TPV","mode":2,"time":"2016-04-01T03:35:43.999Z","ept":0.005,"lat":44.068858877,"lon":-121.314239904,"altHAE":1096.3120,"altMSL":1118.4667,"alt":1118.4667,"epx":28.270,"epy":28.598,"track":324.5416,"magtrack":338.9601,"magvar":14.4,"speed":0.059,"eps":57.20,"eph":32.796,"sep":37.606}
{"class":"SKY","time":"2016-04-01T03:35:40.998Z","gdop":2.22,"hdop":1.73,"pdop":1.98,"tdop":1.00,"xdop":1.88,"ydop":1.91,"vdop":0.97}
{"class":"SUBFRAME","gnssId":0,"tSV":28,"frame":5,"TOW17":444960,"scaled":false,"dataid":7,"ALMANAC":{"ID":7,"Health":0,"e":19308,"toa":15,"deltai":4038,"Omegad":-694,"sqrtA":10554595,"Omega0":5016824,"omega":-7160038,"M0":5417976,"af0":484,"af1":-1}}
$GPGSV,2,1,07,02,45,180,32,28,09,112,27,12,48,308,18,24,54,246,20*7A
$GPGSV,2,2,07,17,30,060,22,19,58,050,21,211,77,031,00*7E
{"class":"SKY","time":"2016-04-01T03:35:40.998Z","gdop":2.22,"hdop":1.73,"pdop":1.98,"tdop":1.00,"xdop":1.88,"ydop":1.91,"vdop":0.97,"nSat":7,"uSat":4,"satellites":[{"PRN":2,"gnssid":0,"svid":2,"az":180.0,"el":45.0,"ss":32.0,"used":true},{"PRN":28,"gnssid":0,"svid":28,"az":112.0,"el":9.0,"ss":27.0,"used":true},{"PRN":12,"gnssid":0,"svid":12,"az":308.0,"el":48.0,"ss":18.0,"used":false},{"PRN":24,"gnssid":0,"svid":24,"az":246.0,"el":54.0,"ss":20.0,"used":true},{"PRN":17,"gnssid":0,"svid":17,"az":60.0,"el":30.0,"ss":22.0,"used":false},{"PRN":19,"gnssid":0,"svid":19,"az":50.0,"el":58.0,"ss":21.0,"used":true},{"PRN":211,"gnssid":3,"svid":11,"az":31.0,"el":77.0,"ss":0.0,"used":false}]}
$GPZDA,033545.00,01,04,2016,00,00*62
$GPGGA,033545.00,4404.1196006,N,12118.8405566,W,1,00,1.73,1134.07,M,-22.155,M,,*69
$GPRMC,033545.00,A,4404.1196006,N,12118.8405566,W,0.3183,167.060,010416,14.4,E*48
$GPGSA,A,2,2,28,24,19,,,,,,,,,2.0,1.7,1.0*00
$GPGBS,033545.00,28.270,28.598,,,,,*6A
{"class":"TPV","mode":2,"time":"2016-04-01T03:35:44.999Z","ept":0.005,"lat":44.068660009,"lon":-121.314009277,"altHAE":1111.9110,"altMSL":1134.0655,"alt":1134.0655,"epx":28.270,"epy":28.598,"track":167.0603,"magtrack":181.4787,"magvar":14.4,"speed":0.164,"epd":89.5896,"eps":57.20,"eph":32.797,"sep":37.607}
{"class":"SKY","time":"2016-04-01T03:35:40.998Z","gdop":2.22,"hdop":1.73,"pdop":1.98,"tdop":1.00,"xdop":1.88,"ydop":1.91,"vdop":0.97}
$GPGSV,2,1,07,02,45,180,32,28,09,112,26,12,48,308,19,24,54,246,21*7B
$GPGSV,2,2,07,17,30,060,22,19,58,050,21,211,76,031,00*7F
{"class":"SKY","time":"2016-04-01T03:35:40.998Z","gdop":2.22,"hdop":1.73,"pdop":1.98,"tdop":1.00,"xdop":1.88,"ydop":1.91,"vdop":0.97,"nSat":7,"uSat":4,"satellites":[{"PRN":2,"gnssid":0,"svid":2,"az":180.0,"el":45.0,"ss":32.0,"used":true},{"PRN":28,"gnssid":0,"svid":28,"az":112.0,"el":9.0,"ss":26.0,"used":true},{"PRN":12,"gnssid":0,"svid":12,"az":308.0,"el":48.0,"ss":19.0,"used":false},{"PRN":24,"gnssid":0,"svid":24,"az":246.0,"el":54.0,"ss":21.0,"used":true},{"PRN":17,"gnssid":0,"svid":17,"az":60.0,"el":30.0,"ss":22.0,"used":false},{"PRN":19,"gnssid":0,"svid":19,"az":50.0,"el":58.0,"ss":21.0,"used":true},{"PRN":211,"gnssid":3,"svid":11,"az":31.0,"el":76.0,"ss":0.0,"used":false}]}
$GPZDA,033546.00,01,04,2016,00,00*61
$GPGGA,033546.00,4404.1395804,N,12118.8695119,W,1,00,1.73,1095.46,M,-22.155,M,,*69
$GPRMC,033546.00,A,4404.1395804,N,12118.8695119,W,0.2616,150.296,010416,14.4,E*42
$GPGSA,A,2,2,28,24,19,,,,,,,,,2.0,1.7,1.0*00
$GPGBS,033546.00,28.270,28.598,,,,,*69
{"class":"TPV","mode":2,"time":"2016-04-01T03:35:45.999Z","ept":0.005,"lat":44.068993007,"lon":-121.314491866,"altHAE":1073.3052,"altMSL":1095.4602,"alt":1095.4602,"epx":28.270,"epy":28.598,"track":150.2957,"magtrack":164.7142,"magvar":14.4,"speed":0.135,"epd":56.2401,"eps":57.20,"eph":32.798,"sep":37.608}
{"class":"SKY","time":"2016-04-01T03:35:40.998Z","gdop":2.22,"hdop":1.73,"pdop":1.98,"tdop":1.00,"xdop":1.88,"ydop":1.91,"vdop":0.97}
$GPGSV,2,1,07,02,45,180,32,28,09,112,27,12,48,308,18,24,54,246,20*7A
$GPGSV,2,2,07,17,30,060,21,19,58,050,21,211,76,031,00*7C
{"class":"SKY","time":"2016-04-01T03:35:46.998Z","gdop":2.22,"hdop":1.73,"pdop":1.98,"tdop":1.00,"xdop":1.88,"ydop":1.91,"vdop":0.97,"nSat":7,"uSat":5,"satellites":[{"PRN":2,"gnssid":0,"svid":2,"az":180.0,"el":45.0,"ss":32.0,"used":true},{"PRN":28,"gnssid":0,"svid":28,"az":112.0,"el":9.0,"ss":27.0,"used":true},{"PRN":12,"gnssid":0,"svid":12,"az":308.0,"el":48.0,"ss":18.0,"used":false},{"PRN":24,"gnssid":0,"svid":24,"az":246.0,"el":54.0,"ss":20.0,"used":true},{"PRN":17,"gnssid":0,"svid":17,"az":60.0,"el":30.0,"ss":21.0,"used":true},{"PRN":19,"gnssid":0,"svid":19,"az":50.0,"el":58.0,"ss":21.0,"used":true},{"PRN":211,"gnssid":3,"svid":11,"az":31.0,"el":76.0,"ss":0.0,"used":false}]}
$GPZDA,033547.00,01,04,2016,00,00*60
$GPGGA,033547.00,4404.1496118,N,12118.8885017,W,1,00,1.53,1056.05,M,-22.155,M,,*62
$GPRMC,033547.00,A,4404.1496118,N,12118.8885017,W,0.1376,244.652,010416,14.4,E*49
$GPGSA,A,2,2,28,24,17,19,,,,,,,,1.8,1.5,1.0*0F
$GPGBS,033547.00,28.270,28.598,,,,,*68
{"class":"TPV","mode":2,"time":"2016-04-01T03:35:46.999Z","ept":0.005,"lat":44.069160197,"lon":-121.314808362,"altHAE":1033.8996,"altMSL":1056.0550,"alt":1056.0550,"epx":28.270,"epy":28.598,"track":244.6525,"magtrack":259.0711,"magvar":14.4,"speed":0.071,"epd":84.5932,"eps":57.20,"eph":29.079,"sep":34.375}
{"class":"SKY","time":"2016-04-01T03:35:46.998Z","gdop":2.04,"hdop":1.53,"pdop":1.81,"tdop":0.94,"xdop":1.88,"ydop":1.91,"vdop":0.96}
