$GPZDA,195349.00,18,04,2023,00,00*6B
$GPGGA,195349.00,3854.4411680,N,07702.8549320,W,1,06,1.05,62.47,M,-34.809,M,,*64
$GPRMC,195349.00,A,3854.4411680,N,7702.8549320,W,,,180423,-10.8,W*74
$GPGSA,A,3,,,,,,,,,,,,,2.1,1.1,1.9*39
{"class":"TPV","mode":3,"time":"2023-04-18T19:53:49.000Z","ept":0.005,"lat":38.907352800,"lon":-77.047582200,"altHAE":27.5700,"altMSL":62.4700,"alt":62.4700,"epv":42.550,"magvar":-10.8,"ecefx":1113943.25,"ecefy":-4843365.73,"ecefz":3984336.02,"ecefvx":0.00,"ecefvy":0.00,"ecefvz":0.00,"geoidSep":-34.809,"eph":19.950,"sep":40.470}
{"class":"SKY","gdop":2.42,"hdop":1.05,"pdop":2.13,"tdop":1.13,"vdop":1.85}
$GPZDA,195349.00,18,04,2023,00,00*6B
$GPGGA,195349.00,3854.4411680,N,07702.8549320,W,1,06,1.05,62.47,M,-34.809,M,,*64
$GPRMC,195349.00,A,3854.4411680,N,7702.8549320,W,,,180423,-10.8,W*74
$GPGSA,A,3,,,,,,,,,,,,,2.1,1.1,1.9*39
{"class":"TPV","mode":3,"time":"2023-04-18T19:53:49.000Z","ept":0.005,"lat":38.907352800,"lon":-77.047582200,"altHAE":27.5700,"altMSL":62.4700,"alt":62.4700,"epv":42.550,"magvar":-10.8,"ecefx":1113943.25,"ecefy":-4843365.73,"ecefz":3984336.02,"ecefvx":0.00,"ecefvy":0.00,"ecefvz":0.00,"geoidSep":-34.809,"eph":19.950,"sep":40.470}
{"class":"SKY","gdop":2.42,"hdop":1.05,"pdop":2.13,"tdop":1.13,"vdop":1.85}
$GPZDA,195350.00,18,04,2023,00,00*63
$GPGGA,195350.00,3854.4411680,N,07702.8549320,W,1,06,1.05,62.47,M,-34.809,M,,*6C
$GPRMC,195350.00,A,3854.4411680,N,7702.8549320,W,0.0000,,180423,-10.8,W*62
$GPGSA,A,3,,,,,,,,,,,,,2.1,1.1,1.9*39
{"class":"TPV","mode":3,"time":"2023-04-18T19:53:50.000Z","ept":0.005,"lat":38.907352800,"lon":-77.047582200,"altHAE":27.5700,"altMSL":62.4700,"alt":62.4700,"epv":42.550,"magvar":-10.8,"speed":0.000,"climb":0.000,"epc":85.10,"ecefx":1113943.25,"ecefy":-4843365.73,"ecefz":3984336.02,"ecefvx":0.00,"ecefvy":0.00,"ecefvz":0.00,"geoidSep":-34.809,"eph":19.950,"sep":40.470}
{"class":"SKY","gdop":2.42,"hdop":1.05,"pdop":2.13,"tdop":1.13,"vdop":1.85}
$GPZDA,195350.00,18,04,2023,00,00*63
$GPGGA,195350.00,3854.4411680,N,07702.8549320,W,1,06,1.32,62.47,M,-34.809,M,,*68
$GPRMC,195350.00,A,3854.4411680,N,7702.8549320,W,0.0000,,180423,-10.8,W*62
$GPGSA,A,3,,,,,,,,,,,,,2.3,1.3,1.9*39
{"class":"TPV","mode":3,"time":"2023-04-18T19:53:50.000Z","ept":0.005,"lat":38.907352800,"lon":-77.047582200,"altHAE":27.5700,"altMSL":62.4700,"alt":62.4700,"epv":42.550,"magvar":-10.8,"speed":0.000,"climb":0.000,"epc":85.10,"ecefx":1113943.25,"ecefy":-4843365.73,"ecefz":3984336.02,"ecefvx":0.00,"ecefvy":0.00,"ecefvz":0.00,"geoidSep":-34.809,"eph":25.080,"sep":43.130}
{"class":"SKY","gdop":2.64,"hdop":1.32,"pdop":2.27,"tdop":1.34,"vdop":1.85}
$GPZDA,195351.00,18,04,2023,00,00*62
$GPGGA,195351.00,3854.4411680,N,07702.8549320,W,1,06,1.32,62.47,M,-34.809,M,,*69
$GPRMC,195351.00,A,3854.4411680,N,7702.8549320,W,0.0000,,180423,-10.8,W*63
$GPGSA,A,3,,,,,,,,,,,,,2.3,1.3,1.9*39
{"class":"TPV","mode":3,"time":"2023-04-18T19:53:51.000Z","ept":0.005,"lat":38.907352800,"lon":-77.047582200,"altHAE":27.5700,"altMSL":62.4700,"alt":62.4700,"epv":42.550,"magvar":-10.8,"speed":0.000,"climb":0.000,"epc":85.10,"ecefx":1113943.25,"ecefy":-4843365.73,"ecefz":3984336.02,"ecefvx":0.00,"ecefvy":0.00,"ecefvz":0.00,"geoidSep":-34.809,"eph":25.080,"sep":43.130}
{"class":"SKY","gdop":2.64,"hdop":1.32,"pdop":2.27,"tdop":1.34,"vdop":1.85}
$GPZDA,195351.00,18,04,2023,00,00*62
$GPGGA,195351.00,3854.4411680,N,07702.8549320,W,1,07,1.04,62.47,M,-34.809,M,,*6D
$GPRMC,195351.00,A,3854.4411680,N,7702.8549320,W,0.0000,,180423,-10.8,W*63
$GPGSA,A,3,,,,,,,,,,,,,1.8,1.0,1.5*3E
{"class":"TPV","mode":3,"time":"2023-04-18T19:53:51.000Z","ept":0.005,"lat":38.907352800,"lon":-77.047582200,"altHAE":27.5700,"altMSL":62.4700,"alt":62.4700,"epv":34.960,"magvar":-10.8,"speed":0.000,"climb":0.000,"epc":77.51,"ecefx":1113943.25,"ecefy":-4843365.73,"ecefz":3984336.02,"ecefvx":0.00,"ecefvy":0.00,"ecefvz":0.00,"geoidSep":-34.809,"eph":19.760,"sep":34.960}
{"class":"SKY","gdop":2.11,"hdop":1.04,"pdop":1.84,"tdop":1.03,"vdop":1.52}
$GPZDA,195352.00,18,04,2023,00,00*61
$GPGGA,195352.00,3854.4411680,N,07702.8549320,W,1,07,1.04,62.47,M,-34.809,M,,*6E
$GPRMC,195352.00,A,3854.4411680,N,7702.8549320,W,0.0000,,180423,-10.8,W*60
$GPGSA,A,3,,,,,,,,,,,,,1.8,1.0,1.5*3E
{"class":"TPV","mode":3,"time":"2023-04-18T19:53:52.000Z","ept":0.005,"lat":38.907352800,"lon":-77.047582200,"altHAE":27.5700,"altMSL":62.4700,"alt":62.4700,"epv":34.960,"magvar":-10.8,"speed":0.000,"climb":0.000,"epc":69.92,"ecefx":1113943.25,"ecefy":-4843365.73,"ecefz":3984336.02,"ecefvx":0.00,"ecefvy":0.00,"ecefvz":0.00,"geoidSep":-34.809,"eph":19.760,"sep":34.960}
{"class":"SKY","gdop":2.11,"hdop":1.04,"pdop":1.84,"tdop":1.03,"vdop":1.52}
$GPZDA,195352.00,18,04,2023,00,00*61
$GPGGA,195352.00,3854.4411680,N,07702.8549320,W,1,06,1.32,62.47,M,-34.809,M,,*6A
$GPRMC,195352.00,A,3854.4411680,N,7702.8549320,W,0.0000,,180423,-10.8,W*60
$GPGSA,A,3,,,,,,,,,,,,,2.3,1.3,1.9*39
{"class":"TPV","mode":3,"time":"2023-04-18T19:53:52.000Z","ept":0.005,"lat":38.907352800,"lon":-77.047582200,"altHAE":27.5700,"altMSL":62.4700,"alt":62.4700,"epv":42.550,"magvar":-10.8,"speed":0.000,"climb":0.000,"epc":77.51,"ecefx":1113943.25,"ecefy":-4843365.73,"ecefz":3984336.02,"ecefvx":0.00,"ecefvy":0.00,"ecefvz":0.00,"geoidSep":-34.809,"eph":25.080,"sep":43.320}
{"class":"SKY","gdop":2.64,"hdop":1.32,"pdop":2.28,"tdop":1.34,"vdop":1.85}
$GPZDA,195353.00,18,04,2023,00,00*60
$GPGGA,195353.00,3854.4411680,N,07702.8549320,W,1,06,1.32,62.47,M,-34.809,M,,*6B
$GPRMC,195353.00,A,3854.4411680,N,7702.8549320,W,0.0000,,180423,-10.8,W*61
$GPGSA,A,3,,,,,,,,,,,,,2.3,1.3,1.9*39
{"class":"TPV","mode":3,"time":"2023-04-18T19:53:53.000Z","ept":0.005,"lat":38.907352800,"lon":-77.047582200,"altHAE":27.5700,"altMSL":62.4700,"alt":62.4700,"epv":42.550,"magvar":-10.8,"speed":0.000,"climb":0.000,"epc":85.10,"ecefx":1113943.25,"ecefy":-4843365.73,"ecefz":3984336.02,"ecefvx":0.00,"ecefvy":0.00,"ecefvz":0.00,"geoidSep":-34.809,"eph":25.080,"sep":43.320}
{"class":"SKY","gdop":2.64,"hdop":1.32,"pdop":2.28,"tdop":1.34,"vdop":1.85}
$GPZDA,195353.00,18,04,2023,00,00*60
$GPGGA,195353.00,3854.4411680,N,07702.8549320,W,1,06,1.32,62.47,M,-34.809,M,,*6B
$GPRMC,195353.00,A,3854.4411680,N,7702.8549320,W,0.0000,,180423,-10.8,W*61
$GPGSA,A,3,,,,,,,,,,,,,2.3,1.3,1.9*39
{"class":"TPV","mode":3,"time":"2023-04-18T19:53:53.000Z","ept":0.005,"lat":38.907352800,"lon":-77.047582200,"altHAE":27.5700,"altMSL":62.4700,"alt":62.4700,"epv":42.550,"magvar":-10.8,"speed":0.000,"climb":0.000,"epc":85.10,"ecefx":1113943.25,"ecefy":-4843365.73,"ecefz":3984336.02,"ecefvx":0.00,"ecefvy":0.00,"ecefvz":0.00,"geoidSep":-34.809,"eph":25.080,"sep":43.320}
{"class":"SKY","gdop":2.64,"hdop":1.32,"pdop":2.28,"tdop":1.34,"vdop":1.85}
$GPZDA,195354.00,18,04,2023,00,00*67
$GPGGA,195354.00,3854.4411680,N,07702.8549320,W,1,06,1.32,62.47,M,-34.809,M,,*6C
$GPRMC,195354.00,A,3854.4411680,N,7702.8549320,W,0.0000,,180423,-10.8,W*66
$GPGSA,A,3,,,,,,,,,,,,,2.3,1.3,1.9*39
{"class":"TPV","mode":3,"time":"2023-04-18T19:53:54.000Z","ept":0.005,"lat":38.907352800,"lon":-77.047582200,"altHAE":27.5700,"altMSL":62.4700,"alt":62.4700,"epv":42.550,"magvar":-10.8,"speed":0.000,"climb":0.000,"epc":85.10,"ecefx":1113943.25,"ecefy":-4843365.73,"ecefz":3984336.02,"ecefvx":0.00,"ecefvy":0.00,"ecefvz":0.00,"geoidSep":-34.809,"eph":25.080,"sep":43.320}
{"class":"SKY","gdop":2.64,"hdop":1.32,"pdop":2.28,"tdop":1.34,"vdop":1.85}
$GPZDA,195354.00,18,04,2023,00,00*67
$GPGGA,195354.00,3854.4411680,N,07702.8549320,W,1,06,1.32,62.47,M,-34.809,M,,*6C
$GPRMC,195354.00,A,3854.4411680,N,7702.8549320,W,0.0000,,180423,-10.8,W*66
$GPGSA,A,3,,,,,,,,,,,,,2.3,1.3,1.9*39
{"class":"TPV","mode":3,"time":"2023-04-18T19:53:54.000Z","ept":0.005,"lat":38.907352800,"lon":-77.047582200,"altHAE":27.5700,"altMSL":62.4700,"alt":62.4700,"epv":42.550,"magvar":-10.8,"speed":0.000,"climb":0.000,"epc":85.10,"ecefx":1113943.25,"ecefy":-4843365.73,"ecefz":3984336.02,"ecefvx":0.00,"ecefvy":0.00,"ecefvz":0.00,"geoidSep":-34.809,"eph":25.080,"sep":43.320}
{"class":"SKY","gdop":2.64,"hdop":1.32,"pdop":2.28,"tdop":1.34,"vdop":1.85}
$GPZDA,195355.00,18,04,2023,00,00*66
$GPGGA,195355.00,3854.4411680,N,07702.8549320,W,1,06,1.32,62.47,M,-34.809,M,,*6D
$GPRMC,195355.00,A,3854.4411680,N,7702.8549320,W,0.0000,,180423,-10.8,W*67
$GPGSA,A,3,,,,,,,,,,,,,2.3,1.3,1.9*39
{"class":"TPV","mode":3,"time":"2023-04-18T19:53:55.000Z","ept":0.005,"lat":38.907352800,"lon":-77.047582200,"altHAE":27.5700,"altMSL":62.4700,"alt":62.4700,"epv":42.550,"magvar":-10.8,"speed":0.000,"climb":0.000,"epc":85.10,"ecefx":1113943.25,"ecefy":-4843365.73,"ecefz":3984336.02,"ecefvx":0.00,"ecefvy":0.00,"ecefvz":0.00,"geoidSep":-34.809,"eph":25.080,"sep":43.320}
{"class":"SKY","gdop":2.64,"hdop":1.32,"pdop":2.28,"tdop":1.34,"vdop":1.85}
$GPZDA,195355.00,18,04,2023,00,00*66
$GPGGA,195355.00,3854.4411680,N,07702.8549320,W,1,06,1.32,62.47,M,-34.809,M,,*6D
$GPRMC,195355.00,A,3854.4411680,N,7702.8549320,W,0.0000,,180423,-10.8,W*67
$GPGSA,A,3,,,,,,,,,,,,,2.3,1.3,1.9*39
{"class":"TPV","mode":3,"time":"2023-04-18T19:53:55.000Z","ept":0.005,"lat":38.907352800,"lon":-77.047582200,"altHAE":27.5700,"altMSL":62.4700,"alt":62.4700,"epv":42.550,"magvar":-10.8,"speed":0.000,"climb":0.000,"epc":85.10,"ecefx":1113943.25,"ecefy":-4843365.73,"ecefz":3984336.02,"ecefvx":0.00,"ecefvy":0.00,"ecefvz":0.00,"geoidSep":-34.809,"eph":25.080,"sep":43.320}
{"class":"SKY","gdop":2.64,"hdop":1.32,"pdop":2.28,"tdop":1.34,"vdop":1.85}
$GPZDA,195356.00,18,04,2023,00,00*65
$GPGGA,195356.00,3854.4411680,N,07702.8549320,W,1,06,1.32,62.47,M,-34.809,M,,*6E
$GPRMC,195356.00,A,3854.4411680,N,7702.8549320,W,0.0000,,180423,-10.8,W*64
$GPGSA,A,3,,,,,,,,,,,,,2.3,1.3,1.9*39
{"class":"TPV","mode":3,"time":"2023-04-18T19:53:56.000Z","ept":0.005,"lat":38.907352800,"lon":-77.047582200,"altHAE":27.5700,"altMSL":62.4700,"alt":62.4700,"epv":42.550,"magvar":-10.8,"speed":0.000,"climb":0.000,"epc":85.10,"ecefx":1113943.25,"ecefy":-4843365.73,"ecefz":3984336.02,"ecefvx":0.00,"ecefvy":0.00,"ecefvz":0.00,"geoidSep":-34.809,"eph":25.080,"sep":43.320}
{"class":"SKY","gdop":2.64,"hdop":1.32,"pdop":2.28,"tdop":1.34,"vdop":1.85}
$GPZDA,195356.00,18,04,2023,00,00*65
$GPGGA,195356.00,3854.4411680,N,07702.8549320,W,1,06,1.32,62.47,M,-34.809,M,,*6E
$GPRMC,195356.00,A,3854.4411680,N,7702.8549320,W,0.0000,,180423,-10.8,W*64
$GPGSA,A,3,,,,,,,,,,,,,2.3,1.3,1.9*39
{"class":"TPV","mode":3,"time":"2023-04-18T19:53:56.000Z","ept":0.005,"lat":38.907352800,"lon":-77.047582200,"altHAE":27.5700,"altMSL":62.4700,"alt":62.4700,"epv":42.550,"magvar":-10.8,"speed":0.000,"climb":0.000,"epc":85.10,"ecefx":1113943.25,"ecefy":-4843365.73,"ecefz":3984336.02,"ecefvx":0.00,"ecefvy":0.00,"ecefvz":0.00,"geoidSep":-34.809,"eph":25.080,"sep":43.320}
{"class":"SKY","gdop":2.64,"hdop":1.32,"pdop":2.28,"tdop":1.34,"vdop":1.85}
$GPZDA,195357.00,18,04,2023,00,00*64
$GPGGA,195357.00,3854.4411680,N,07702.8549320,W,1,06,1.32,62.47,M,-34.809,M,,*6F
$GPRMC,195357.00,A,3854.4411680,N,7702.8549320,W,0.0000,,180423,-10.8,W*65
$GPGSA,A,3,,,,,,,,,,,,,2.3,1.3,1.9*39
{"class":"TPV","mode":3,"time":"2023-04-18T19:53:57.000Z","ept":0.005,"lat":38.907352800,"lon":-77.047582200,"altHAE":27.5700,"altMSL":62.4700,"alt":62.4700,"epv":42.550,"magvar":-10.8,"speed":0.000,"climb":0.000,"epc":85.10,"ecefx":1113943.25,"ecefy":-4843365.73,"ecefz":3984336.02,"ecefvx":0.00,"ecefvy":0.00,"ecefvz":0.00,"geoidSep":-34.809,"eph":25.080,"sep":43.320}
{"class":"SKY","gdop":2.64,"hdop":1.32,"pdop":2.28,"tdop":1.34,"vdop":1.85}
$GPZDA,195357.00,18,04,2023,00,00*64
$GPGGA,195357.00,3854.4411680,N,07702.8549320,W,1,06,1.32,62.47,M,-34.809,M,,*6F
$GPRMC,195357.00,A,3854.4411680,N,7702.8549320,W,0.0000,,180423,-10.8,W*65
$GPGSA,A,3,,,,,,,,,,,,,2.3,1.3,1.9*39
{"class":"TPV","mode":3,"time":"2023-04-18T19:53:57.000Z","ept":0.005,"lat":38.907352800,"lon":-77.047582200,"altHAE":27.5700,"altMSL":62.4700,"alt":62.4700,"epv":42.550,"magvar":-10.8,"speed":0.000,"climb":0.000,"epc":85.10,"ecefx":1113943.25,"ecefy":-4843365.73,"ecefz":3984336.02,"ecefvx":0.00,"ecefvy":0.00,"ecefvz":0.00,"geoidSep":-34.809,"eph":25.080,"sep":43.320}
{"class":"SKY","gdop":2.64,"hdop":1.32,"pdop":2.28,"tdop":1.34,"vdop":1.85}
$GPZDA,195358.00,18,04,2023,00,00*6B
$GPGGA,195358.00,3854.4411680,N,07702.8549320,W,1,06,1.32,62.47,M,-34.809,M,,*60
$GPRMC,195358.00,A,3854.4411680,N,7702.8549320,W,0.0000,,180423,-10.8,W*6A
$GPGSA,A,3,,,,,,,,,,,,,2.3,1.3,1.9*39
{"class":"TPV","mode":3,"time":"2023-04-18T19:53:58.000Z","ept":0.005,"lat":38.907352800,"lon":-77.047582200,"altHAE":27.5700,"altMSL":62.4700,"alt":62.4700,"epv":42.550,"magvar":-10.8,"speed":0.000,"climb":0.000,"epc":85.10,"ecefx":1113943.25,"ecefy":-4843365.73,"ecefz":3984336.02,"ecefvx":0.00,"ecefvy":0.00,"ecefvz":0.00,"geoidSep":-34.809,"eph":25.080,"sep":43.320}
{"class":"SKY","gdop":2.64,"hdop":1.32,"pdop":2.28,"tdop":1.34,"vdop":1.85}
$GPZDA,195358.00,18,04,2023,00,00*6B
$GPGGA,195358.00,3854.4411680,N,07702.8549320,W,1,06,1.32,62.47,M,-34.809,M,,*60
$GPRMC,195358.00,A,3854.4411680,N,7702.8549320,W,0.0000,,180423,-10.8,W*6A
$GPGSA,A,3,,,,,,,,,,,,,2.3,1.3,1.9*39
{"class":"TPV","mode":3,"time":"2023-04-18T19:53:58.000Z","ept":0.005,"lat":38.907352800,"lon":-77.047582200,"altHAE":27.5700,"altMSL":62.4700,"alt":62.4700,"epv":42.550,"magvar":-10.8,"speed":0.000,"climb":0.000,"epc":85.10,"ecefx":1113943.25,"ecefy":-4843365.73,"ecefz":3984336.02,"ecefvx":0.00,"ecefvy":0.00,"ecefvz":0.00,"geoidSep":-34.809,"eph":25.080,"sep":43.320}
{"class":"SKY","gdop":2.64,"hdop":1.32,"pdop":2.28,"tdop":1.34,"vdop":1.85}
$GPZDA,195359.00,18,04,2023,00,00*6A
$GPGGA,195359.00,3854.4411680,N,07702.8549320,W,1,06,1.32,62.47,M,-34.809,M,,*61
$GPRMC,195359.00,A,3854.4411680,N,7702.8549320,W,0.0000,,180423,-10.8,W*6B
$GPGSA,A,3,,,,,,,,,,,,,2.3,1.3,1.9*39
{"class":"TPV","mode":3,"time":"2023-04-18T19:53:59.000Z","ept":0.005,"lat":38.907352800,"lon":-77.047582200,"altHAE":27.5700,"altMSL":62.4700,"alt":62.4700,"epv":42.550,"magvar":-10.8,"speed":0.000,"climb":0.000,"epc":85.10,"ecefx":1113943.25,"ecefy":-4843365.73,"ecefz":3984336.02,"ecefvx":0.00,"ecefvy":0.00,"ecefvz":0.00,"geoidSep":-34.809,"eph":25.080,"sep":43.320}
{"class":"SKY","gdop":2.64,"hdop":1.32,"pdop":2.28,"tdop":1.34,"vdop":1.85}
$GPZDA,195359.00,18,04,2023,00,00*6A
$GPGGA,195359.00,3854.4411680,N,07702.8549320,W,1,06,1.32,62.47,M,-34.809,M,,*61
$GPRMC,195359.00,A,3854.4411680,N,7702.8549320,W,0.0000,,180423,-10.8,W*6B
$GPGSA,A,3,,,,,,,,,,,,,2.3,1.3,1.9*39
{"class":"TPV","mode":3,"time":"2023-04-18T19:53:59.000Z","ept":0.005,"lat":38.907352800,"lon":-77.047582200,"altHAE":27.5700,"altMSL":62.4700,"alt":62.4700,"epv":42.550,"magvar":-10.8,"speed":0.000,"climb":0.000,"epc":85.10,"ecefx":1113943.25,"ecefy":-4843365.73,"ecefz":3984336.02,"ecefvx":0.00,"ecefvy":0.00,"ecefvz":0.00,"geoidSep":-34.809,"eph":25.080,"sep":43.320}
{"class":"SKY","gdop":2.64,"hdop":1.32,"pdop":2.28,"tdop":1.34,"vdop":1.85}
$GPZDA,195400.00,18,04,2023,00,00*61
$GPGGA,195400.00,3854.4411680,N,07702.8549320,W,1,06,1.32,62.47,M,-34.809,M,,*6A
$GPRMC,195400.00,A,3854.4411680,N,7702.8549320,W,0.0000,,180423,-10.8,W*60
$GPGSA,A,3,,,,,,,,,,,,,2.3,1.3,1.9*39
{"class":"TPV","mode":3,"time":"2023-04-18T19:54:00.000Z","ept":0.005,"lat":38.907352800,"lon":-77.047582200,"altHAE":27.5700,"altMSL":62.4700,"alt":62.4700,"epv":42.550,"magvar":-10.8,"speed":0.000,"climb":0.000,"epc":85.10,"ecefx":1113943.25,"ecefy":-4843365.73,"ecefz":3984336.02,"ecefvx":0.00,"ecefvy":0.00,"ecefvz":0.00,"geoidSep":-34.809,"eph":25.080,"sep":43.320}
{"class":"SKY","gdop":2.64,"hdop":1.32,"pdop":2.28,"tdop":1.34,"vdop":1.85}
$GPZDA,195400.00,18,04,2023,00,00*61
$GPGGA,195400.00,3854.4411680,N,07702.8549320,W,1,06,1.32,62.47,M,-34.809,M,,*6A
$GPRMC,195400.00,A,3854.4411680,N,7702.8549320,W,0.0000,,180423,-10.8,W*60
$GPGSA,A,3,,,,,,,,,,,,,2.3,1.3,1.9*39
{"class":"TPV","mode":3,"time":"2023-04-18T19:54:00.000Z","ept":0.005,"lat":38.907352800,"lon":-77.047582200,"altHAE":27.5700,"altMSL":62.4700,"alt":62.4700,"epv":42.550,"magvar":-10.8,"speed":0.000,"climb":0.000,"epc":85.10,"ecefx":1113943.25,"ecefy":-4843365.73,"ecefz":3984336.02,"ecefvx":0.00,"ecefvy":0.00,"ecefvz":0.00,"geoidSep":-34.809,"eph":25.080,"sep":43.320}
{"class":"SKY","gdop":2.64,"hdop":1.32,"pdop":2.28,"tdop":1.34,"vdop":1.85}
$GPZDA,195401.00,18,04,2023,00,00*60
$GPGGA,195401.00,3854.4411680,N,07702.8549320,W,1,06,1.32,62.47,M,-34.809,M,,*6B
$GPRMC,195401.00,A,3854.4411680,N,7702.8549320,W,0.0000,,180423,-10.8,W*61
$GPGSA,A,3,,,,,,,,,,,,,2.3,1.3,1.9*39
{"class":"TPV","mode":3,"time":"2023-04-18T19:54:01.000Z","ept":0.005,"lat":38.907352800,"lon":-77.047582200,"altHAE":27.5700,"altMSL":62.4700,"alt":62.4700,"epv":42.550,"magvar":-10.8,"speed":0.000,"climb":0.000,"epc":85.10,"ecefx":1113943.25,"ecefy":-4843365.73,"ecefz":3984336.02,"ecefvx":0.00,"ecefvy":0.00,"ecefvz":0.00,"geoidSep":-34.809,"eph":25.080,"sep":43.320}
{"class":"SKY","gdop":2.64,"hdop":1.32,"pdop":2.28,"tdop":1.34,"vdop":1.85}
$GPZDA,195401.00,18,04,2023,00,00*60
$GPGGA,195401.00,3854.4411680,N,07702.8549320,W,1,06,1.32,62.47,M,-34.809,M,,*6B
$GPRMC,195401.00,A,3854.4411680,N,7702.8549320,W,0.0000,,180423,-10.8,W*61
$GPGSA,A,3,,,,,,,,,,,,,2.3,1.3,1.9*39
{"class":"TPV","mode":3,"time":"2023-04-18T19:54:01.000Z","ept":0.005,"lat":38.907352800,"lon":-77.047582200,"altHAE":27.5700,"altMSL":62.4700,"alt":62.4700,"epv":42.550,"magvar":-10.8,"speed":0.000,"climb":0.000,"epc":85.10,"ecefx":1113943.25,"ecefy":-4843365.73,"ecefz":3984336.02,"ecefvx":0.00,"ecefvy":0.00,"ecefvz":0.00,"geoidSep":-34.809,"eph":25.080,"sep":43.320}
{"class":"SKY","gdop":2.64,"hdop":1.32,"pdop":2.28,"tdop":1.34,"vdop":1.85}
$GPZDA,195402.00,18,04,2023,00,00*63
$GPGGA,195402.00,3854.4411680,N,07702.8549320,W,1,06,1.32,62.47,M,-34.809,M,,*68
$GPRMC,195402.00,A,3854.4411680,N,7702.8549320,W,0.0000,,180423,-10.8,W*62
$GPGSA,A,3,,,,,,,,,,,,,2.3,1.3,1.9*39
{"class":"TPV","mode":3,"time":"2023-04-18T19:54:02.000Z","ept":0.005,"lat":38.907352800,"lon":-77.047582200,"altHAE":27.5700,"altMSL":62.4700,"alt":62.4700,"epv":42.550,"magvar":-10.8,"speed":0.000,"climb":0.000,"epc":85.10,"ecefx":1113943.25,"ecefy":-4843365.73,"ecefz":3984336.02,"ecefvx":0.00,"ecefvy":0.00,"ecefvz":0.00,"geoidSep":-34.809,"eph":25.080,"sep":43.320}
{"class":"SKY","gdop":2.64,"hdop":1.32,"pdop":2.28,"tdop":1.34,"vdop":1.85}
$GPZDA,195402.00,18,04,2023,00,00*63
$GPGGA,195402.00,3854.4411680,N,07702.8549320,W,1,06,1.32,62.47,M,-34.809,M,,*68
$GPRMC,195402.00,A,3854.4411680,N,7702.8549320,W,0.0000,,180423,-10.8,W*62
$GPGSA,A,3,,,,,,,,,,,,,2.3,1.3,1.9*39
{"class":"TPV","mode":3,"time":"2023-04-18T19:54:02.000Z","ept":0.005,"lat":38.907352800,"lon":-77.047582200,"altHAE":27.5700,"altMSL":62.4700,"alt":62.4700,"epv":42.550,"magvar":-10.8,"speed":0.000,"climb":0.000,"epc":85.10,"ecefx":1113943.25,"ecefy":-4843365.73,"ecefz":3984336.02,"ecefvx":0.00,"ecefvy":0.00,"ecefvz":0.00,"geoidSep":-34.809,"eph":25.080,"sep":43.320}
{"class":"SKY","gdop":2.64,"hdop":1.32,"pdop":2.28,"tdop":1.34,"vdop":1.85}
$GPZDA,195403.00,18,04,2023,00,00*62
$GPGGA,195403.00,3854.4411680,N,07702.8549320,W,1,06,1.32,62.47,M,-34.809,M,,*69
$GPRMC,195403.00,A,3854.4411680,N,7702.8549320,W,0.0000,,180423,-10.8,W*63
$GPGSA,A,3,,,,,,,,,,,,,2.3,1.3,1.9*39
{"class":"TPV","mode":3,"time":"2023-04-18T19:54:03.000Z","ept":0.005,"lat":38.907352800,"lon":-77.047582200,"altHAE":27.5700,"altMSL":62.4700,"alt":62.4700,"epv":42.780,"magvar":-10.8,"speed":0.000,"climb":0.000,"epc":85.33,"ecefx":1113943.25,"ecefy":-4843365.73,"ecefz":3984336.02,"ecefvx":0.00,"ecefvy":0.00,"ecefvz":0.00,"geoidSep":-34.809,"eph":25.080,"sep":43.320}
{"class":"SKY","gdop":2.64,"hdop":1.32,"pdop":2.28,"tdop":1.34,"vdop":1.86}
$GPZDA,195403.00,18,04,2023,00,00*62
$GPGGA,195403.00,3854.4411680,N,07702.8549320,W,1,06,1.32,62.47,M,-34.809,M,,*69
$GPRMC,195403.00,A,3854.4411680,N,7702.8549320,W,0.0000,,180423,-10.8,W*63
$GPGSA,A,3,,,,,,,,,,,,,2.3,1.3,1.9*39
{"class":"TPV","mode":3,"time":"2023-04-18T19:54:03.000Z","ept":0.005,"lat":38.907352800,"lon":-77.047582200,"altHAE":27.5700,"altMSL":62.4700,"alt":62.4700,"epv":42.780,"magvar":-10.8,"speed":0.000,"climb":0.000,"epc":85.33,"ecefx":1113943.25,"ecefy":-4843365.73,"ecefz":3984336.02,"ecefvx":0.00,"ecefvy":0.00,"ecefvz":0.00,"geoidSep":-34.809,"eph":25.080,"sep":43.320}
{"class":"SKY","gdop":2.64,"hdop":1.32,"pdop":2.28,"tdop":1.34,"vdop":1.86}
$GPZDA,195404.00,18,04,2023,00,00*65
$GPGGA,195404.00,3854.4411680,N,07702.8549320,W,1,06,1.32,62.47,M,-34.809,M,,*6E
$GPRMC,195404.00,A,3854.4411680,N,7702.8549320,W,0.0000,,180423,-10.8,W*64
$GPGSA,A,3,,,,,,,,,,,,,2.3,1.3,1.9*39
{"class":"TPV","mode":3,"time":"2023-04-18T19:54:04.000Z","ept":0.005,"lat":38.907352800,"lon":-77.047582200,"altHAE":27.5700,"altMSL":62.4700,"alt":62.4700,"epv":42.780,"magvar":-10.8,"speed":0.000,"climb":0.000,"epc":85.56,"ecefx":1113943.25,"ecefy":-4843365.73,"ecefz":3984336.02,"ecefvx":0.00,"ecefvy":0.00,"ecefvz":0.00,"geoidSep":-34.809,"eph":25.080,"sep":43.320}
{"class":"SKY","gdop":2.64,"hdop":1.32,"pdop":2.28,"tdop":1.34,"vdop":1.86}
$GPZDA,195404.00,18,04,2023,00,00*65
$GPGGA,195404.00,3854.4411680,N,07702.8549320,W,1,06,1.32,62.47,M,-34.809,M,,*6E
$GPRMC,195404.00,A,3854.4411680,N,7702.8549320,W,0.0000,,180423,-10.8,W*64
$GPGSA,A,3,,,,,,,,,,,,,2.3,1.3,1.9*39
{"class":"TPV","mode":3,"time":"2023-04-18T19:54:04.000Z","ept":0.005,"lat":38.907352800,"lon":-77.047582200,"altHAE":27.5700,"altMSL":62.4700,"alt":62.4700,"epv":42.780,"magvar":-10.8,"speed":0.000,"climb":0.000,"epc":85.56,"ecefx":1113943.25,"ecefy":-4843365.73,"ecefz":3984336.02,"ecefvx":0.00,"ecefvy":0.00,"ecefvz":0.00,"geoidSep":-34.809,"eph":25.080,"sep":43.320}
{"class":"SKY","gdop":2.64,"hdop":1.32,"pdop":2.28,"tdop":1.34,"vdop":1.86}
$GPZDA,195405.00,18,04,2023,00,00*64
$GPGGA,195405.00,3854.4411680,N,07702.8549320,W,1,06,1.32,62.47,M,-34.809,M,,*6F
$GPRMC,195405.00,A,3854.4411680,N,7702.8549320,W,0.0000,,180423,-10.8,W*65
$GPGSA,A,3,,,,,,,,,,,,,2.3,1.3,1.9*39
{"class":"TPV","mode":3,"time":"2023-04-18T19:54:05.000Z","ept":0.005,"lat":38.907352800,"lon":-77.047582200,"altHAE":27.5700,"altMSL":62.4700,"alt":62.4700,"epv":42.780,"magvar":-10.8,"speed":0.000,"climb":0.000,"epc":85.56,"ecefx":1113943.25,"ecefy":-4843365.73,"ecefz":3984336.02,"ecefvx":0.00,"ecefvy":0.00,"ecefvz":0.00,"geoidSep":-34.809,"eph":25.080,"sep":43.320}
{"class":"SKY","gdop":2.64,"hdop":1.32,"pdop":2.28,"tdop":1.34,"vdop":1.86}
$GPZDA,195405.00,18,04,2023,00,00*64
$GPGGA,195405.00,3854.4411680,N,07702.8549320,W,1,06,1.32,62.47,M,-34.809,M,,*6F
$GPRMC,195405.00,A,3854.4411680,N,7702.8549320,W,0.0000,,180423,-10.8,W*65
$GPGSA,A,3,,,,,,,,,,,,,2.3,1.3,1.9*39
{"class":"TPV","mode":3,"time":"2023-04-18T19:54:05.000Z","ept":0.005,"lat":38.907352800,"lon":-77.047582200,"altHAE":27.5700,"altMSL":62.4700,"alt":62.4700,"epv":42.780,"magvar":-10.8,"speed":0.000,"climb":0.000,"epc":85.56,"ecefx":1113943.25,"ecefy":-4843365.73,"ecefz":3984336.02,"ecefvx":0.00,"ecefvy":0.00,"ecefvz":0.00,"geoidSep":-34.809,"eph":25.080,"sep":43.320}
{"class":"SKY","gdop":2.64,"hdop":1.32,"pdop":2.28,"tdop":1.34,"vdop":1.86}
$GPZDA,195406.00,18,04,2023,00,00*67
$GPGGA,195406.00,3854.4411680,N,07702.8549320,W,1,06,1.32,62.47,M,-34.809,M,,*6C
$GPRMC,195406.00,A,3854.4411680,N,7702.8549320,W,0.0000,,180423,-10.8,W*66
$GPGSA,A,3,,,,,,,,,,,,,2.3,1.3,1.9*39
{"class":"TPV","mode":3,"time":"2023-04-18T19:54:06.000Z","ept":0.005,"lat":38.907352800,"lon":-77.047582200,"altHAE":27.5700,"altMSL":62.4700,"alt":62.4700,"epv":42.780,"magvar":-10.8,"speed":0.000,"climb":0.000,"epc":85.56,"ecefx":1113943.25,"ecefy":-4843365.73,"ecefz":3984336.02,"ecefvx":0.00,"ecefvy":0.00,"ecefvz":0.00,"geoidSep":-34.809,"eph":25.080,"sep":43.320}
{"class":"SKY","gdop":2.64,"hdop":1.32,"pdop":2.28,"tdop":1.34,"vdop":1.86}
$GPZDA,195406.00,18,04,2023,00,00*67
$GPGGA,195406.00,3854.4411680,N,07702.8549320,W,1,06,1.32,62.47,M,-34.809,M,,*6C
$GPRMC,195406.00,A,3854.4411680,N,7702.8549320,W,0.0000,,180423,-10.8,W*66
$GPGSA,A,3,,,,,,,,,,,,,2.3,1.3,1.9*39
{"class":"TPV","mode":3,"time":"2023-04-18T19:54:06.000Z","ept":0.005,"lat":38.907352800,"lon":-77.047582200,"altHAE":27.5700,"altMSL":62.4700,"alt":62.4700,"epv":42.780,"magvar":-10.8,"speed":0.000,"climb":0.000,"epc":85.56,"ecefx":1113943.25,"ecefy":-4843365.73,"ecefz":3984336.02,"ecefvx":0.00,"ecefvy":0.00,"ecefvz":0.00,"geoidSep":-34.809,"eph":25.080,"sep":43.320}
{"class":"SKY","gdop":2.64,"hdop":1.32,"pdop":2.28,"tdop":1.34,"vdop":1.86}
$GPZDA,195407.00,18,04,2023,00,00*66
$GPGGA,195407.00,3854.4411680,N,07702.8549320,W,1,06,1.32,62.47,M,-34.809,M,,*6D
$GPRMC,195407.00,A,3854.4411680,N,7702.8549320,W,0.0000,,180423,-10.8,W*67
$GPGSA,A,3,,,,,,,,,,,,,2.3,1.3,1.9*39
{"class":"TPV","mode":3,"time":"2023-04-18T19:54:07.000Z","ept":0.005,"lat":38.907352800,"lon":-77.047582200,"altHAE":27.5700,"altMSL":62.4700,"alt":62.4700,"epv":42.780,"magvar":-10.8,"speed":0.000,"climb":0.000,"epc":85.56,"ecefx":1113943.25,"ecefy":-4843365.73,"ecefz":3984336.02,"ecefvx":0.00,"ecefvy":0.00,"ecefvz":0.00,"geoidSep":-34.809,"eph":25.080,"sep":43.320}
{"class":"SKY","gdop":2.64,"hdop":1.32,"pdop":2.28,"tdop":1.34,"vdop":1.86}
$GPZDA,195407.00,18,04,2023,00,00*66
$GPGGA,195407.00,3854.4411680,N,07702.8549320,W,1,06,1.32,62.47,M,-34.809,M,,*6D
$GPRMC,195407.00,A,3854.4411680,N,7702.8549320,W,0.0000,,180423,-10.8,W*67
$GPGSA,A,3,,,,,,,,,,,,,2.3,1.3,1.9*39
{"class":"TPV","mode":3,"time":"2023-04-18T19:54:07.000Z","ept":0.005,"lat":38.907352800,"lon":-77.047582200,"altHAE":27.5700,"altMSL":62.4700,"alt":62.4700,"epv":42.780,"magvar":-10.8,"speed":0.000,"climb":0.000,"epc":85.56,"ecefx":1113943.25,"ecefy":-4843365.73,"ecefz":3984336.02,"ecefvx":0.00,"ecefvy":0.00,"ecefvz":0.00,"geoidSep":-34.809,"eph":25.080,"sep":43.320}
{"class":"SKY","gdop":2.64,"hdop":1.32,"pdop":2.28,"tdop":1.34,"vdop":1.86}
$GPZDA,195408.00,18,04,2023,00,00*69
$GPGGA,195408.00,3854.4411680,N,07702.8549320,W,1,06,1.32,62.47,M,-34.809,M,,*62
$GPRMC,195408.00,A,3854.4411680,N,7702.8549320,W,0.0000,,180423,-10.8,W*68
$GPGSA,A,3,,,,,,,,,,,,,2.3,1.3,1.9*39
{"class":"TPV","mode":3,"time":"2023-04-18T19:54:08.000Z","ept":0.005,"lat":38.907352800,"lon":-77.047582200,"altHAE":27.5700,"altMSL":62.4700,"alt":62.4700,"epv":42.780,"magvar":-10.8,"speed":0.000,"climb":0.000,"epc":85.56,"ecefx":1113943.25,"ecefy":-4843365.73,"ecefz":3984336.02,"ecefvx":0.00,"ecefvy":0.00,"ecefvz":0.00,"geoidSep":-34.809,"eph":25.080,"sep":43.320}
{"class":"SKY","gdop":2.64,"hdop":1.32,"pdop":2.28,"tdop":1.34,"vdop":1.86}
$GPZDA,195408.00,18,04,2023,00,00*69
$GPGGA,195408.00,3854.4411680,N,07702.8549320,W,1,06,1.32,62.47,M,-34.809,M,,*62
$GPRMC,195408.00,A,3854.4411680,N,7702.8549320,W,0.0000,,180423,-10.8,W*68
$GPGSA,A,3,,,,,,,,,,,,,2.3,1.3,1.9*39
{"class":"TPV","mode":3,"time":"2023-04-18T19:54:08.000Z","ept":0.005,"lat":38.907352800,"lon":-77.047582200,"altHAE":27.5700,"altMSL":62.4700,"alt":62.4700,"epv":42.780,"magvar":-10.8,"speed":0.000,"climb":0.000,"epc":85.56,"ecefx":1113943.25,"ecefy":-4843365.73,"ecefz":3984336.02,"ecefvx":0.00,"ecefvy":0.00,"ecefvz":0.00,"geoidSep":-34.809,"eph":25.080,"sep":43.320}
{"class":"SKY","gdop":2.64,"hdop":1.32,"pdop":2.28,"tdop":1.34,"vdop":1.86}
$GPZDA,195409.00,18,04,2023,00,00*68
$GPGGA,195409.00,3854.4411680,N,07702.8549320,W,1,06,1.32,62.47,M,-34.809,M,,*63
$GPRMC,195409.00,A,3854.4411680,N,7702.8549320,W,0.0000,,180423,-10.8,W*69
$GPGSA,A,3,,,,,,,,,,,,,2.3,1.3,1.9*39
{"class":"TPV","mode":3,"time":"2023-04-18T19:54:09.000Z","ept":0.005,"lat":38.907352800,"lon":-77.047582200,"altHAE":27.5700,"altMSL":62.4700,"alt":62.4700,"epv":42.780,"magvar":-10.8,"speed":0.000,"climb":0.000,"epc":85.56,"ecefx":1113943.25,"ecefy":-4843365.73,"ecefz":3984336.02,"ecefvx":0.00,"ecefvy":0.00,"ecefvz":0.00,"geoidSep":-34.809,"eph":25.080,"sep":43.320}
{"class":"SKY","gdop":2.64,"hdop":1.32,"pdop":2.28,"tdop":1.34,"vdop":1.86}
$GPZDA,195409.00,18,04,2023,00,00*68
$GPGGA,195409.00,3854.4411680,N,07702.8549320,W,1,06,1.32,62.47,M,-34.809,M,,*63
$GPRMC,195409.00,A,3854.4411680,N,7702.8549320,W,0.0000,,180423,-10.8,W*69
$GPGSA,A,3,,,,,,,,,,,,,2.3,1.3,1.9*39
{"class":"TPV","mode":3,"time":"2023-04-18T19:54:09.000Z","ept":0.005,"lat":38.907352800,"lon":-77.047582200,"altHAE":27.5700,"altMSL":62.4700,"alt":62.4700,"epv":42.780,"magvar":-10.8,"speed":0.000,"climb":0.000,"epc":85.56,"ecefx":1113943.25,"ecefy":-4843365.73,"ecefz":3984336.02,"ecefvx":0.00,"ecefvy":0.00,"ecefvz":0.00,"geoidSep":-34.809,"eph":25.080,"sep":43.320}
{"class":"SKY","gdop":2.64,"hdop":1.32,"pdop":2.28,"tdop":1.34,"vdop":1.86}
$GPZDA,195410.00,18,04,2023,00,00*60
$GPGGA,195410.00,3854.4411680,N,07702.8549320,W,1,06,1.32,62.47,M,-34.809,M,,*6B
$GPRMC,195410.00,A,3854.4411680,N,7702.8549320,W,0.0000,,180423,-10.8,W*61
$GPGSA,A,3,,,,,,,,,,,,,2.3,1.3,1.9*39
{"class":"TPV","mode":3,"time":"2023-04-18T19:54:10.000Z","ept":0.005,"lat":38.907352800,"lon":-77.047582200,"altHAE":27.5700,"altMSL":62.4700,"alt":62.4700,"epv":42.780,"magvar":-10.8,"speed":0.000,"climb":0.000,"epc":85.56,"ecefx":1113943.25,"ecefy":-4843365.73,"ecefz":3984336.02,"ecefvx":0.00,"ecefvy":0.00,"ecefvz":0.00,"geoidSep":-34.809,"eph":25.080,"sep":43.320}
{"class":"SKY","gdop":2.64,"hdop":1.32,"pdop":2.28,"tdop":1.34,"vdop":1.86}
$GPZDA,195410.00,18,04,2023,00,00*60
$GPGGA,195410.00,3854.4411680,N,07702.8549320,W,1,06,1.32,62.47,M,-34.809,M,,*6B
$GPRMC,195410.00,A,3854.4411680,N,7702.8549320,W,0.0000,,180423,-10.8,W*61
$GPGSA,A,3,,,,,,,,,,,,,2.3,1.3,1.9*39
{"class":"TPV","mode":3,"time":"2023-04-18T19:54:10.000Z","ept":0.005,"lat":38.907352800,"lon":-77.047582200,"altHAE":27.5700,"altMSL":62.4700,"alt":62.4700,"epv":42.780,"magvar":-10.8,"speed":0.000,"climb":0.000,"epc":85.56,"ecefx":1113943.25,"ecefy":-4843365.73,"ecefz":3984336.02,"ecefvx":0.00,"ecefvy":0.00,"ecefvz":0.00,"geoidSep":-34.809,"eph":25.080,"sep":43.320}
{"class":"SKY","gdop":2.64,"hdop":1.32,"pdop":2.28,"tdop":1.34,"vdop":1.86}
$GPZDA,195411.00,18,04,2023,00,00*61
$GPGGA,195411.00,3854.4411680,N,07702.8549320,W,1,06,1.32,62.47,M,-34.809,M,,*6A
$GPRMC,195411.00,A,3854.4411680,N,7702.8549320,W,0.0000,,180423,-10.8,W*60
$GPGSA,A,3,,,,,,,,,,,,,2.3,1.3,1.9*39
{"class":"TPV","mode":3,"time":"2023-04-18T19:54:11.000Z","ept":0.005,"lat":38.907352800,"lon":-77.047582200,"altHAE":27.5700,"altMSL":62.4700,"alt":62.4700,"epv":42.780,"magvar":-10.8,"speed":0.000,"climb":0.000,"epc":85.56,"ecefx":1113943.25,"ecefy":-4843365.73,"ecefz":3984336.02,"ecefvx":0.00,"ecefvy":0.00,"ecefvz":0.00,"geoidSep":-34.809,"eph":25.080,"sep":43.320}
{"class":"SKY","gdop":2.64,"hdop":1.32,"pdop":2.28,"tdop":1.34,"vdop":1.86}
$GPZDA,195411.00,18,04,2023,00,00*61
$GPGGA,195411.00,3854.4411680,N,07702.8549320,W,1,06,1.32,62.47,M,-34.809,M,,*6A
$GPRMC,195411.00,A,3854.4411680,N,7702.8549320,W,0.0000,,180423,-10.8,W*60
$GPGSA,A,3,,,,,,,,,,,,,2.3,1.3,1.9*39
{"class":"TPV","mode":3,"time":"2023-04-18T19:54:11.000Z","ept":0.005,"lat":38.907352800,"lon":-77.047582200,"altHAE":27.5700,"altMSL":62.4700,"alt":62.4700,"epv":42.780,"magvar":-10.8,"speed":0.000,"climb":0.000,"epc":85.56,"ecefx":1113943.25,"ecefy":-4843365.73,"ecefz":3984336.02,"ecefvx":0.00,"ecefvy":0.00,"ecefvz":0.00,"geoidSep":-34.809,"eph":25.080,"sep":43.320}
{"class":"SKY","gdop":2.64,"hdop":1.32,"pdop":2.28,"tdop":1.34,"vdop":1.86}
$GPZDA,195412.00,18,04,2023,00,00*62
$GPGGA,195412.00,3854.4411680,N,07702.8549320,W,1,06,1.32,62.47,M,-34.809,M,,*69
$GPRMC,195412.00,A,3854.4411680,N,7702.8549320,W,0.0000,,180423,-10.8,W*63
$GPGSA,A,3,,,,,,,,,,,,,2.3,1.3,1.9*39
{"class":"TPV","mode":3,"time":"2023-04-18T19:54:12.000Z","ept":0.005,"lat":38.907352800,"lon":-77.047582200,"altHAE":27.5700,"altMSL":62.4700,"alt":62.4700,"epv":42.780,"magvar":-10.8,"speed":0.000,"climb":0.000,"epc":85.56,"ecefx":1113943.25,"ecefy":-4843365.73,"ecefz":3984336.02,"ecefvx":0.00,"ecefvy":0.00,"ecefvz":0.00,"geoidSep":-34.809,"eph":25.080,"sep":43.320}
{"class":"SKY","gdop":2.64,"hdop":1.32,"pdop":2.28,"tdop":1.34,"vdop":1.86}
$GPZDA,195412.00,18,04,2023,00,00*62
$GPGGA,195412.00,3854.4411680,N,07702.8549320,W,1,06,1.32,62.47,M,-34.809,M,,*69
$GPRMC,195412.00,A,3854.4411680,N,7702.8549320,W,0.0000,,180423,-10.8,W*63
$GPGSA,A,3,,,,,,,,,,,,,2.3,1.3,1.9*39
{"class":"TPV","mode":3,"time":"2023-04-18T19:54:12.000Z","ept":0.005,"lat":38.907352800,"lon":-77.047582200,"altHAE":27.5700,"altMSL":62.4700,"alt":62.4700,"epv":42.780,"magvar":-10.8,"speed":0.000,"climb":0.000,"epc":85.56,"ecefx":1113943.25,"ecefy":-4843365.73,"ecefz":3984336.02,"ecefvx":0.00,"ecefvy":0.00,"ecefvz":0.00,"geoidSep":-34.809,"eph":25.080,"sep":43.320}
{"class":"SKY","gdop":2.64,"hdop":1.32,"pdop":2.28,"tdop":1.34,"vdop":1.86}
$GPZDA,195413.00,18,04,2023,00,00*63
$GPGGA,195413.00,3854.4411680,N,07702.8549320,W,1,06,1.32,62.47,M,-34.809,M,,*68
$GPRMC,195413.00,A,3854.4411680,N,7702.8549320,W,0.0000,,180423,-10.8,W*62
$GPGSA,A,3,,,,,,,,,,,,,2.3,1.3,1.9*39
{"class":"TPV","mode":3,"time":"2023-04-18T19:54:13.000Z","ept":0.005,"lat":38.907352800,"lon":-77.047582200,"altHAE":27.5700,"altMSL":62.4700,"alt":62.4700,"epv":42.780,"magvar":-10.8,"speed":0.000,"climb":0.000,"epc":85.56,"ecefx":1113943.25,"ecefy":-4843365.73,"ecefz":3984336.02,"ecefvx":0.00,"ecefvy":0.00,"ecefvz":0.00,"geoidSep":-34.809,"eph":25.080,"sep":43.320}
{"class":"SKY","gdop":2.64,"hdop":1.32,"pdop":2.28,"tdop":1.34,"vdop":1.86}
$GPZDA,195413.00,18,04,2023,00,00*63
$GPGGA,195413.00,3854.4411680,N,07702.8549320,W,1,06,1.32,62.47,M,-34.809,M,,*68
$GPRMC,195413.00,A,3854.4411680,N,7702.8549320,W,0.0000,,180423,-10.8,W*62
$GPGSA,A,3,,,,,,,,,,,,,2.3,1.3,1.9*39
{"class":"TPV","mode":3,"time":"2023-04-18T19:54:13.000Z","ept":0.005,"lat":38.907352800,"lon":-77.047582200,"altHAE":27.5700,"altMSL":62.4700,"alt":62.4700,"epv":42.780,"magvar":-10.8,"speed":0.000,"climb":0.000,"epc":85.56,"ecefx":1113943.25,"ecefy":-4843365.73,"ecefz":3984336.02,"ecefvx":0.00,"ecefvy":0.00,"ecefvz":0.00,"geoidSep":-34.809,"eph":25.080,"sep":43.320}
{"class":"SKY","gdop":2.64,"hdop":1.32,"pdop":2.28,"tdop":1.34,"vdop":1.86}
$GPZDA,195414.00,18,04,2023,00,00*64
$GPGGA,195414.00,3854.4411680,N,07702.8549320,W,1,06,1.32,62.47,M,-34.809,M,,*6F
$GPRMC,195414.00,A,3854.4411680,N,7702.8549320,W,0.0000,,180423,-10.8,W*65
$GPGSA,A,3,,,,,,,,,,,,,2.3,1.3,1.9*39
{"class":"TPV","mode":3,"time":"2023-04-18T19:54:14.000Z","ept":0.005,"lat":38.907352800,"lon":-77.047582200,"altHAE":27.5700,"altMSL":62.4700,"alt":62.4700,"epv":42.780,"magvar":-10.8,"speed":0.000,"climb":0.000,"epc":85.56,"ecefx":1113943.25,"ecefy":-4843365.73,"ecefz":3984336.02,"ecefvx":0.00,"ecefvy":0.00,"ecefvz":0.00,"geoidSep":-34.809,"eph":25.080,"sep":43.320}
{"class":"SKY","gdop":2.64,"hdop":1.32,"pdop":2.28,"tdop":1.34,"vdop":1.86}
$GPZDA,195414.00,18,04,2023,00,00*64
$GPGGA,195414.00,3854.4411680,N,07702.8549320,W,1,05,1.39,62.47,M,-34.809,M,,*67
$GPRMC,195414.00,A,3854.4411680,N,7702.8549320,W,0.0000,,180423,-10.8,W*65
$GPGSA,A,3,,,,,,,,,,,,,2.7,1.4,2.4*34
{"class":"TPV","mode":3,"time":"2023-04-18T19:54:14.000Z","ept":0.005,"lat":38.907352800,"lon":-77.047582200,"altHAE":27.5700,"altMSL":62.4700,"alt":62.4700,"epv":54.280,"magvar":-10.8,"speed":0.000,"climb":0.000,"epc":97.06,"ecefx":1113943.25,"ecefy":-4843365.73,"ecefz":3984336.02,"ecefvx":0.00,"ecefvy":0.00,"ecefvz":0.00,"geoidSep":-34.809,"eph":26.410,"sep":52.060}
{"class":"SKY","gdop":3.15,"hdop":1.39,"pdop":2.74,"tdop":1.55,"vdop":2.36}
$GPZDA,195415.00,18,04,2023,00,00*65
$GPGGA,195415.00,3854.4411680,N,07702.8549320,W,1,05,1.39,62.47,M,-34.809,M,,*66
$GPRMC,195415.00,A,3854.4411680,N,7702.8549320,W,0.0000,,180423,-10.8,W*64
$GPGSA,A,3,,,,,,,,,,,,,2.7,1.4,2.4*34
{"class":"TPV","mode":3,"time":"2023-04-18T19:54:15.000Z","ept":0.005,"lat":38.907352800,"lon":-77.047582200,"altHAE":27.5700,"altMSL":62.4700,"alt":62.4700,"epv":54.280,"magvar":-10.8,"speed":0.000,"climb":0.000,"epc":108.56,"ecefx":1113943.25,"ecefy":-4843365.73,"ecefz":3984336.02,"ecefvx":0.00,"ecefvy":0.00,"ecefvz":0.00,"geoidSep":-34.809,"eph":26.410,"sep":52.060}
{"class":"SKY","gdop":3.15,"hdop":1.39,"pdop":2.74,"tdop":1.55,"vdop":2.36}
$GPZDA,195415.00,18,04,2023,00,00*65
$GPGGA,195415.00,3854.4411680,N,07702.8549320,W,1,05,1.39,62.47,M,-34.809,M,,*66
$GPRMC,195415.00,A,3854.4411680,N,7702.8549320,W,0.0000,,180423,-10.8,W*64
$GPGSA,A,3,,,,,,,,,,,,,2.7,1.4,2.4*34
{"class":"TPV","mode":3,"time":"2023-04-18T19:54:15.000Z","ept":0.005,"lat":38.907352800,"lon":-77.047582200,"altHAE":27.5700,"altMSL":62.4700,"alt":62.4700,"epv":54.280,"magvar":-10.8,"speed":0.000,"climb":0.000,"epc":108.56,"ecefx":1113943.25,"ecefy":-4843365.73,"ecefz":3984336.02,"ecefvx":0.00,"ecefvy":0.00,"ecefvz":0.00,"geoidSep":-34.809,"eph":26.410,"sep":52.060}
{"class":"SKY","gdop":3.15,"hdop":1.39,"pdop":2.74,"tdop":1.55,"vdop":2.36}
$GPZDA,195416.00,18,04,2023,00,00*66
$GPGGA,195416.00,3854.4411680,N,07702.8549320,W,1,05,1.39,62.47,M,-34.809,M,,*65
$GPRMC,195416.00,A,3854.4411680,N,7702.8549320,W,0.0000,,180423,-10.8,W*67
$GPGSA,A,3,,,,,,,,,,,,,2.7,1.4,2.4*34
{"class":"TPV","mode":3,"time":"2023-04-18T19:54:16.000Z","ept":0.005,"lat":38.907352800,"lon":-77.047582200,"altHAE":27.5700,"altMSL":62.4700,"alt":62.4700,"epv":54.280,"magvar":-10.8,"speed":0.000,"climb":0.000,"epc":108.56,"ecefx":1113943.25,"ecefy":-4843365.73,"ecefz":3984336.02,"ecefvx":0.00,"ecefvy":0.00,"ecefvz":0.00,"geoidSep":-34.809,"eph":26.410,"sep":52.060}
{"class":"SKY","gdop":3.15,"hdop":1.39,"pdop":2.74,"tdop":1.55,"vdop":2.36}
$GPZDA,195416.00,18,04,2023,00,00*66
$GPGGA,195416.00,3854.4411680,N,07702.8549320,W,1,05,1.39,62.47,M,-34.809,M,,*65
$GPRMC,195416.00,A,3854.4411680,N,7702.8549320,W,0.0000,,180423,-10.8,W*67
$GPGSA,A,3,,,,,,,,,,,,,2.7,1.4,2.4*34
{"class":"TPV","mode":3,"time":"2023-04-18T19:54:16.000Z","ept":0.005,"lat":38.907352800,"lon":-77.047582200,"altHAE":27.5700,"altMSL":62.4700,"alt":62.4700,"epv":54.280,"magvar":-10.8,"speed":0.000,"climb":0.000,"epc":108.56,"ecefx":1113943.25,"ecefy":-4843365.73,"ecefz":3984336.02,"ecefvx":0.00,"ecefvy":0.00,"ecefvz":0.00,"geoidSep":-34.809,"eph":26.410,"sep":52.060}
{"class":"SKY","gdop":3.15,"hdop":1.39,"pdop":2.74,"tdop":1.55,"vdop":2.36}
$GPZDA,195417.00,18,04,2023,00,00*67
$GPGGA,195417.00,3854.4411680,N,07702.8549320,W,1,05,1.39,62.47,M,-34.809,M,,*64
$GPRMC,195417.00,A,3854.4411680,N,7702.8549320,W,0.0000,,180423,-10.8,W*66
$GPGSA,A,3,,,,,,,,,,,,,2.7,1.4,2.4*34
{"class":"TPV","mode":3,"time":"2023-04-18T19:54:17.000Z","ept":0.005,"lat":38.907352800,"lon":-77.047582200,"altHAE":27.5700,"altMSL":62.4700,"alt":62.4700,"epv":54.280,"magvar":-10.8,"speed":0.000,"climb":0.000,"epc":108.56,"ecefx":1113943.25,"ecefy":-4843365.73,"ecefz":3984336.02,"ecefvx":0.00,"ecefvy":0.00,"ecefvz":0.00,"geoidSep":-34.809,"eph":26.410,"sep":52.060}
{"class":"SKY","gdop":3.15,"hdop":1.39,"pdop":2.74,"tdop":1.55,"vdop":2.36}
$GPZDA,195417.00,18,04,2023,00,00*67
$GPGGA,195417.00,3854.4411680,N,07702.8549320,W,1,05,1.39,62.47,M,-34.809,M,,*64
$GPRMC,195417.00,A,3854.4411680,N,7702.8549320,W,0.0000,,180423,-10.8,W*66
$GPGSA,A,3,,,,,,,,,,,,,2.7,1.4,2.4*34
{"class":"TPV","mode":3,"time":"2023-04-18T19:54:17.000Z","ept":0.005,"lat":38.907352800,"lon":-77.047582200,"altHAE":27.5700,"altMSL":62.4700,"alt":62.4700,"epv":54.280,"magvar":-10.8,"speed":0.000,"climb":0.000,"epc":108.56,"ecefx":1113943.25,"ecefy":-4843365.73,"ecefz":3984336.02,"ecefvx":0.00,"ecefvy":0.00,"ecefvz":0.00,"geoidSep":-34.809,"eph":26.410,"sep":52.060}
{"class":"SKY","gdop":3.15,"hdop":1.39,"pdop":2.74,"tdop":1.55,"vdop":2.36}
$GPZDA,195418.00,18,04,2023,00,00*68
$GPGGA,195418.00,3854.4411680,N,07702.8549320,W,1,05,1.39,62.47,M,-34.809,M,,*6B
$GPRMC,195418.00,A,3854.4411680,N,7702.8549320,W,0.0000,,180423,-10.8,W*69
$GPGSA,A,3,,,,,,,,,,,,,2.7,1.4,2.4*34
{"class":"TPV","mode":3,"time":"2023-04-18T19:54:18.000Z","ept":0.005,"lat":38.907352800,"lon":-77.047582200,"altHAE":27.5700,"altMSL":62.4700,"alt":62.4700,"epv":54.280,"magvar":-10.8,"speed":0.000,"climb":0.000,"epc":108.56,"ecefx":1113943.25,"ecefy":-4843365.73,"ecefz":3984336.02,"ecefvx":0.00,"ecefvy":0.00,"ecefvz":0.00,"geoidSep":-34.809,"eph":26.410,"sep":52.060}
{"class":"SKY","gdop":3.15,"hdop":1.39,"pdop":2.74,"tdop":1.55,"vdop":2.36}
$GPZDA,195418.00,18,04,2023,00,00*68
$GPGGA,195418.00,3854.4411680,N,07702.8549320,W,1,05,1.39,62.47,M,-34.809,M,,*6B
$GPRMC,195418.00,A,3854.4411680,N,7702.8549320,W,0.0000,,180423,-10.8,W*69
$GPGSA,A,3,,,,,,,,,,,,,2.7,1.4,2.4*34
{"class":"TPV","mode":3,"time":"2023-04-18T19:54:18.000Z","ept":0.005,"lat":38.907352800,"lon":-77.047582200,"altHAE":27.5700,"altMSL":62.4700,"alt":62.4700,"epv":54.280,"magvar":-10.8,"speed":0.000,"climb":0.000,"epc":108.56,"ecefx":1113943.25,"ecefy":-4843365.73,"ecefz":3984336.02,"ecefvx":0.00,"ecefvy":0.00,"ecefvz":0.00,"geoidSep":-34.809,"eph":26.410,"sep":52.060}
{"class":"SKY","gdop":3.15,"hdop":1.39,"pdop":2.74,"tdop":1.55,"vdop":2.36}
$GPZDA,195419.00,18,04,2023,00,00*69
$GPGGA,195419.00,3854.4411680,N,07702.8549320,W,1,05,1.39,62.47,M,-34.809,M,,*6A
$GPRMC,195419.00,A,3854.4411680,N,7702.8549320,W,0.0000,,180423,-10.8,W*68
$GPGSA,A,3,,,,,,,,,,,,,2.7,1.4,2.4*34
{"class":"TPV","mode":3,"time":"2023-04-18T19:54:19.000Z","ept":0.005,"lat":38.907352800,"lon":-77.047582200,"altHAE":27.5700,"altMSL":62.4700,"alt":62.4700,"epv":54.280,"magvar":-10.8,"speed":0.000,"climb":0.000,"epc":108.56,"ecefx":1113943.25,"ecefy":-4843365.73,"ecefz":3984336.02,"ecefvx":0.00,"ecefvy":0.00,"ecefvz":0.00,"geoidSep":-34.809,"eph":26.410,"sep":52.060}
{"class":"SKY","gdop":3.15,"hdop":1.39,"pdop":2.74,"tdop":1.55,"vdop":2.36}
$GPZDA,195419.00,18,04,2023,00,00*69
$GPGGA,195419.00,3854.4411680,N,07702.8549320,W,1,05,1.39,62.47,M,-34.809,M,,*6A
$GPRMC,195419.00,A,3854.4411680,N,7702.8549320,W,0.0000,,180423,-10.8,W*68
$GPGSA,A,3,,,,,,,,,,,,,2.7,1.4,2.4*34
{"class":"TPV","mode":3,"time":"2023-04-18T19:54:19.000Z","ept":0.005,"lat":38.907352800,"lon":-77.047582200,"altHAE":27.5700,"altMSL":62.4700,"alt":62.4700,"epv":54.280,"magvar":-10.8,"speed":0.000,"climb":0.000,"epc":108.56,"ecefx":1113943.25,"ecefy":-4843365.73,"ecefz":3984336.02,"ecefvx":0.00,"ecefvy":0.00,"ecefvz":0.00,"geoidSep":-34.809,"eph":26.410,"sep":52.060}
{"class":"SKY","gdop":3.15,"hdop":1.39,"pdop":2.74,"tdop":1.55,"vdop":2.36}
$GPZDA,195420.00,18,04,2023,00,00*63
$GPGGA,195420.00,3854.4411680,N,07702.8549320,W,1,05,1.39,62.47,M,-34.809,M,,*60
$GPRMC,195420.00,A,3854.4411680,N,7702.8549320,W,0.0000,,180423,-10.8,W*62
$GPGSA,A,3,,,,,,,,,,,,,2.7,1.4,2.4*34
{"class":"TPV","mode":3,"time":"2023-04-18T19:54:20.000Z","ept":0.005,"lat":38.907352800,"lon":-77.047582200,"altHAE":27.5700,"altMSL":62.4700,"alt":62.4700,"epv":54.280,"magvar":-10.8,"speed":0.000,"climb":0.000,"epc":108.56,"ecefx":1113943.25,"ecefy":-4843365.73,"ecefz":3984336.02,"ecefvx":0.00,"ecefvy":0.00,"ecefvz":0.00,"geoidSep":-34.809,"eph":26.410,"sep":52.060}
{"class":"SKY","gdop":3.15,"hdop":1.39,"pdop":2.74,"tdop":1.55,"vdop":2.36}
$GPZDA,195420.00,18,04,2023,00,00*63
$GPGGA,195420.00,3854.4411680,N,07702.8549320,W,1,05,1.39,62.47,M,-34.809,M,,*60
$GPRMC,195420.00,A,3854.4411680,N,7702.8549320,W,0.0000,,180423,-10.8,W*62
$GPGSA,A,3,,,,,,,,,,,,,2.7,1.4,2.4*34
{"class":"TPV","mode":3,"time":"2023-04-18T19:54:20.000Z","ept":0.005,"lat":38.907352800,"lon":-77.047582200,"altHAE":27.5700,"altMSL":62.4700,"alt":62.4700,"epv":54.280,"magvar":-10.8,"speed":0.000,"climb":0.000,"epc":108.56,"ecefx":1113943.25,"ecefy":-4843365.73,"ecefz":3984336.02,"ecefvx":0.00,"ecefvy":0.00,"ecefvz":0.00,"geoidSep":-34.809,"eph":26.410,"sep":52.060}
{"class":"SKY","gdop":3.15,"hdop":1.39,"pdop":2.74,"tdop":1.55,"vdop":2.36}
$GPZDA,195421.00,18,04,2023,00,00*62
$GPGGA,195421.00,3854.4411680,N,07702.8549320,W,1,05,1.39,62.47,M,-34.809,M,,*61
$GPRMC,195421.00,A,3854.4411680,N,7702.8549320,W,0.0000,,180423,-10.8,W*63
$GPGSA,A,3,,,,,,,,,,,,,2.7,1.4,2.4*34
{"class":"TPV","mode":3,"time":"2023-04-18T19:54:21.000Z","ept":0.005,"lat":38.907352800,"lon":-77.047582200,"altHAE":27.5700,"altMSL":62.4700,"alt":62.4700,"epv":54.280,"magvar":-10.8,"speed":0.000,"climb":0.000,"epc":108.56,"ecefx":1113943.25,"ecefy":-4843365.73,"ecefz":3984336.02,"ecefvx":0.00,"ecefvy":0.00,"ecefvz":0.00,"geoidSep":-34.809,"eph":26.410,"sep":52.060}
{"class":"SKY","gdop":3.15,"hdop":1.39,"pdop":2.74,"tdop":1.55,"vdop":2.36}
$GPZDA,195421.00,18,04,2023,00,00*62
$GPGGA,195421.00,3854.4411680,N,07702.8549320,W,1,05,1.39,62.47,M,-34.809,M,,*61
$GPRMC,195421.00,A,3854.4411680,N,7702.8549320,W,0.0000,,180423,-10.8,W*63
$GPGSA,A,3,,,,,,,,,,,,,2.7,1.4,2.4*34
{"class":"TPV","mode":3,"time":"2023-04-18T19:54:21.000Z","ept":0.005,"lat":38.907352800,"lon":-77.047582200,"altHAE":27.5700,"altMSL":62.4700,"alt":62.4700,"epv":54.510,"magvar":-10.8,"speed":0.000,"climb":0.000,"epc":108.79,"ecefx":1113943.25,"ecefy":-4843365.73,"ecefz":3984336.02,"ecefvx":0.00,"ecefvy":0.00,"ecefvz":0.00,"geoidSep":-34.809,"eph":26.410,"sep":52.060}
{"class":"SKY","gdop":3.15,"hdop":1.39,"pdop":2.74,"tdop":1.55,"vdop":2.37}
$GPZDA,195422.00,18,04,2023,00,00*61
$GPGGA,195422.00,3854.4411680,N,07702.8549320,W,1,05,1.39,62.47,M,-34.809,M,,*62
$GPRMC,195422.00,A,3854.4411680,N,7702.8549320,W,0.0000,,180423,-10.8,W*60
$GPGSA,A,3,,,,,,,,,,,,,2.7,1.4,2.4*34
{"class":"TPV","mode":3,"time":"2023-04-18T19:54:22.000Z","ept":0.005,"lat":38.907352800,"lon":-77.047582200,"altHAE":27.5700,"altMSL":62.4700,"alt":62.4700,"epv":54.510,"magvar":-10.8,"speed":0.000,"climb":0.000,"epc":109.02,"ecefx":1113943.25,"ecefy":-4843365.73,"ecefz":3984336.02,"ecefvx":0.00,"ecefvy":0.00,"ecefvz":0.00,"geoidSep":-34.809,"eph":26.410,"sep":52.060}
{"class":"SKY","gdop":3.15,"hdop":1.39,"pdop":2.74,"tdop":1.55,"vdop":2.37}
$GPZDA,195422.00,18,04,2023,00,00*61
$GPGGA,195422.00,3854.4411680,N,07702.8549320,W,1,05,1.39,62.47,M,-34.809,M,,*62
$GPRMC,195422.00,A,3854.4411680,N,7702.8549320,W,0.0000,,180423,-10.8,W*60
$GPGSA,A,3,,,,,,,,,,,,,2.7,1.4,2.4*34
{"class":"TPV","mode":3,"time":"2023-04-18T19:54:22.000Z","ept":0.005,"lat":38.907352800,"lon":-77.047582200,"altHAE":27.5700,"altMSL":62.4700,"alt":62.4700,"epv":54.510,"magvar":-10.8,"speed":0.000,"climb":0.000,"epc":109.02,"ecefx":1113943.25,"ecefy":-4843365.73,"ecefz":3984336.02,"ecefvx":0.00,"ecefvy":0.00,"ecefvz":0.00,"geoidSep":-34.809,"eph":26.410,"sep":52.060}
{"class":"SKY","gdop":3.15,"hdop":1.39,"pdop":2.74,"tdop":1.55,"vdop":2.37}
$GPZDA,195423.00,18,04,2023,00,00*60
$GPGGA,195423.00,3854.4411680,N,07702.8549320,W,1,05,1.39,62.47,M,-34.809,M,,*63
$GPRMC,195423.00,A,3854.4411680,N,7702.8549320,W,0.0000,,180423,-10.8,W*61
$GPGSA,A,3,,,,,,,,,,,,,2.7,1.4,2.4*34
{"class":"TPV","mode":3,"time":"2023-04-18T19:54:23.000Z","ept":0.005,"lat":38.907352800,"lon":-77.047582200,"altHAE":27.5700,"altMSL":62.4700,"alt":62.4700,"epv":54.510,"magvar":-10.8,"speed":0.000,"climb":0.000,"epc":109.02,"ecefx":1113943.25,"ecefy":-4843365.73,"ecefz":3984336.02,"ecefvx":0.00,"ecefvy":0.00,"ecefvz":0.00,"geoidSep":-34.809,"eph":26.410,"sep":52.060}
{"class":"SKY","gdop":3.15,"hdop":1.39,"pdop":2.74,"tdop":1.55,"vdop":2.37}
$GPZDA,195423.00,18,04,2023,00,00*60
$GPGGA,195423.00,3854.4411680,N,07702.8549320,W,1,05,1.39,62.47,M,-34.809,M,,*63
$GPRMC,195423.00,A,3854.4411680,N,7702.8549320,W,0.0000,,180423,-10.8,W*61
$GPGSA,A,3,,,,,,,,,,,,,2.7,1.4,2.4*34
{"class":"TPV","mode":3,"time":"2023-04-18T19:54:23.000Z","ept":0.005,"lat":38.907352800,"lon":-77.047582200,"altHAE":27.5700,"altMSL":62.4700,"alt":62.4700,"epv":54.510,"magvar":-10.8,"speed":0.000,"climb":0.000,"epc":109.02,"ecefx":1113943.25,"ecefy":-4843365.73,"ecefz":3984336.02,"ecefvx":0.00,"ecefvy":0.00,"ecefvz":0.00,"geoidSep":-34.809,"eph":26.410,"sep":52.060}
{"class":"SKY","gdop":3.15,"hdop":1.39,"pdop":2.74,"tdop":1.55,"vdop":2.37}
$GPZDA,195424.00,18,04,2023,00,00*67
$GPGGA,195424.00,3854.4411680,N,07702.8549320,W,1,05,1.39,62.47,M,-34.809,M,,*64
$GPRMC,195424.00,A,3854.4411680,N,7702.8549320,W,0.0000,,180423,-10.8,W*66
$GPGSA,A,3,,,,,,,,,,,,,2.7,1.4,2.4*34
{"class":"TPV","mode":3,"time":"2023-04-18T19:54:24.000Z","ept":0.005,"lat":38.907352800,"lon":-77.047582200,"altHAE":27.5700,"altMSL":62.4700,"alt":62.4700,"epv":54.510,"magvar":-10.8,"speed":0.000,"climb":0.000,"epc":109.02,"ecefx":1113943.25,"ecefy":-4843365.73,"ecefz":3984336.02,"ecefvx":0.00,"ecefvy":0.00,"ecefvz":0.00,"geoidSep":-34.809,"eph":26.410,"sep":52.060}
{"class":"SKY","gdop":3.15,"hdop":1.39,"pdop":2.74,"tdop":1.55,"vdop":2.37}
$GPZDA,195424.00,18,04,2023,00,00*67
$GPGGA,195424.00,3854.4411680,N,07702.8549320,W,1,05,1.39,62.47,M,-34.809,M,,*64
$GPRMC,195424.00,A,3854.4411680,N,7702.8549320,W,0.0000,,180423,-10.8,W*66
$GPGSA,A,3,,,,,,,,,,,,,2.7,1.4,2.4*34
{"class":"TPV","mode":3,"time":"2023-04-18T19:54:24.000Z","ept":0.005,"lat":38.907352800,"lon":-77.047582200,"altHAE":27.5700,"altMSL":62.4700,"alt":62.4700,"epv":54.510,"magvar":-10.8,"speed":0.000,"climb":0.000,"epc":109.02,"ecefx":1113943.25,"ecefy":-4843365.73,"ecefz":3984336.02,"ecefvx":0.00,"ecefvy":0.00,"ecefvz":0.00,"geoidSep":-34.809,"eph":26.410,"sep":52.060}
{"class":"SKY","gdop":3.15,"hdop":1.39,"pdop":2.74,"tdop":1.55,"vdop":2.37}
$GPZDA,195425.00,18,04,2023,00,00*66
$GPGGA,195425.00,3854.4411680,N,07702.8549320,W,1,05,1.39,62.47,M,-34.809,M,,*65
$GPRMC,195425.00,A,3854.4411680,N,7702.8549320,W,0.0000,,180423,-10.8,W*67
$GPGSA,A,3,,,,,,,,,,,,,2.7,1.4,2.4*34
{"class":"TPV","mode":3,"time":"2023-04-18T19:54:25.000Z","ept":0.005,"lat":38.907352800,"lon":-77.047582200,"altHAE":27.5700,"altMSL":62.4700,"alt":62.4700,"epv":54.510,"magvar":-10.8,"speed":0.000,"climb":0.000,"epc":109.02,"ecefx":1113943.25,"ecefy":-4843365.73,"ecefz":3984336.02,"ecefvx":0.00,"ecefvy":0.00,"ecefvz":0.00,"geoidSep":-34.809,"eph":26.410,"sep":52.060}
{"class":"SKY","gdop":3.15,"hdop":1.39,"pdop":2.74,"tdop":1.55,"vdop":2.37}
$GPZDA,195425.00,18,04,2023,00,00*66
$GPGGA,195425.00,3854.4411680,N,07702.8549320,W,1,05,1.39,62.47,M,-34.809,M,,*65
$GPRMC,195425.00,A,3854.4411680,N,7702.8549320,W,0.0000,,180423,-10.8,W*67
$GPGSA,A,3,,,,,,,,,,,,,2.7,1.4,2.4*34
{"class":"TPV","mode":3,"time":"2023-04-18T19:54:25.000Z","ept":0.005,"lat":38.907352800,"lon":-77.047582200,"altHAE":27.5700,"altMSL":62.4700,"alt":62.4700,"epv":54.510,"magvar":-10.8,"speed":0.000,"climb":0.000,"epc":109.02,"ecefx":1113943.25,"ecefy":-4843365.73,"ecefz":3984336.02,"ecefvx":0.00,"ecefvy":0.00,"ecefvz":0.00,"geoidSep":-34.809,"eph":26.410,"sep":52.060}
{"class":"SKY","gdop":3.15,"hdop":1.39,"pdop":2.74,"tdop":1.55,"vdop":2.37}
$GPZDA,195426.00,18,04,2023,00,00*65
$GPGGA,195426.00,3854.4411680,N,07702.8549320,W,1,05,1.39,62.47,M,-34.809,M,,*66
$GPRMC,195426.00,A,3854.4411680,N,7702.8549320,W,0.0000,,180423,-10.8,W*64
$GPGSA,A,3,,,,,,,,,,,,,2.7,1.4,2.4*34
{"class":"TPV","mode":3,"time":"2023-04-18T19:54:26.000Z","ept":0.005,"lat":38.907352800,"lon":-77.047582200,"altHAE":27.5700,"altMSL":62.4700,"alt":62.4700,"epv":54.510,"magvar":-10.8,"speed":0.000,"climb":0.000,"epc":109.02,"ecefx":1113943.25,"ecefy":-4843365.73,"ecefz":3984336.02,"ecefvx":0.00,"ecefvy":0.00,"ecefvz":0.00,"geoidSep":-34.809,"eph":26.410,"sep":52.060}
{"class":"SKY","gdop":3.15,"hdop":1.39,"pdop":2.74,"tdop":1.55,"vdop":2.37}
$GPZDA,195426.00,18,04,2023,00,00*65
$GPGGA,195426.00,3854.4411680,N,07702.8549320,W,1,05,1.39,62.47,M,-34.809,M,,*66
$GPRMC,195426.00,A,3854.4411680,N,7702.8549320,W,0.0000,,180423,-10.8,W*64
$GPGSA,A,3,,,,,,,,,,,,,2.7,1.4,2.4*34
{"class":"TPV","mode":3,"time":"2023-04-18T19:54:26.000Z","ept":0.005,"lat":38.907352800,"lon":-77.047582200,"altHAE":27.5700,"altMSL":62.4700,"alt":62.4700,"epv":54.510,"magvar":-10.8,"speed":0.000,"climb":0.000,"epc":109.02,"ecefx":1113943.25,"ecefy":-4843365.73,"ecefz":3984336.02,"ecefvx":0.00,"ecefvy":0.00,"ecefvz":0.00,"geoidSep":-34.809,"eph":26.410,"sep":52.060}
{"class":"SKY","gdop":3.15,"hdop":1.39,"pdop":2.74,"tdop":1.55,"vdop":2.37}
$GPZDA,195427.00,18,04,2023,00,00*64
$GPGGA,195427.00,3854.4411680,N,07702.8549320,W,1,05,1.39,62.47,M,-34.809,M,,*67
$GPRMC,195427.00,A,3854.4411680,N,7702.8549320,W,0.0000,,180423,-10.8,W*65
$GPGSA,A,3,,,,,,,,,,,,,2.7,1.4,2.4*34
{"class":"TPV","mode":3,"time":"2023-04-18T19:54:27.000Z","ept":0.005,"lat":38.907352800,"lon":-77.047582200,"altHAE":27.5700,"altMSL":62.4700,"alt":62.4700,"epv":54.510,"magvar":-10.8,"speed":0.000,"climb":0.000,"epc":109.02,"ecefx":1113943.25,"ecefy":-4843365.73,"ecefz":3984336.02,"ecefvx":0.00,"ecefvy":0.00,"ecefvz":0.00,"geoidSep":-34.809,"eph":26.410,"sep":52.060}
{"class":"SKY","gdop":3.15,"hdop":1.39,"pdop":2.74,"tdop":1.55,"vdop":2.37}
$GPZDA,195427.00,18,04,2023,00,00*64
$GPGGA,195427.00,3854.4411680,N,07702.8549320,W,1,06,1.05,62.47,M,-34.809,M,,*6B
$GPRMC,195427.00,A,3854.4411680,N,7702.8549320,W,0.0000,,180423,-10.8,W*65
$GPGSA,A,3,,,,,,,,,,,,,2.1,1.1,1.8*38
{"class":"TPV","mode":3,"time":"2023-04-18T19:54:27.000Z","ept":0.005,"lat":38.907352800,"lon":-77.047582200,"altHAE":27.5700,"altMSL":62.4700,"alt":62.4700,"epv":42.320,"magvar":-10.8,"speed":0.000,"climb":0.000,"epc":96.83,"ecefx":1113943.25,"ecefy":-4843365.73,"ecefz":3984336.02,"ecefvx":0.00,"ecefvy":0.00,"ecefvz":0.00,"geoidSep":-34.809,"eph":19.950,"sep":40.470}
{"class":"SKY","gdop":2.41,"hdop":1.05,"pdop":2.13,"tdop":1.13,"vdop":1.84}
$GPZDA,195428.00,18,04,2023,00,00*6B
$GPGGA,195428.00,3854.4411680,N,07702.8549320,W,1,06,1.05,62.47,M,-34.809,M,,*64
$GPRMC,195428.00,A,3854.4411680,N,7702.8549320,W,0.0000,,180423,-10.8,W*6A
$GPGSA,A,3,,,,,,,,,,,,,2.1,1.1,1.8*38
{"class":"TPV","mode":3,"time":"2023-04-18T19:54:28.000Z","ept":0.005,"lat":38.907352800,"lon":-77.047582200,"altHAE":27.5700,"altMSL":62.4700,"alt":62.4700,"epv":42.320,"magvar":-10.8,"speed":0.000,"climb":0.000,"epc":84.64,"ecefx":1113943.25,"ecefy":-4843365.73,"ecefz":3984336.02,"ecefvx":0.00,"ecefvy":0.00,"ecefvz":0.00,"geoidSep":-34.809,"eph":19.950,"sep":40.470}
{"class":"SKY","gdop":2.41,"hdop":1.05,"pdop":2.13,"tdop":1.13,"vdop":1.84}
$GPZDA,195428.00,18,04,2023,00,00*6B
$GPGGA,195428.00,3854.4411680,N,07702.8549320,W,1,05,1.39,62.47,M,-34.809,M,,*68
$GPRMC,195428.00,A,3854.4411680,N,7702.8549320,W,0.0000,,180423,-10.8,W*6A
$GPGSA,A,3,,,,,,,,,,,,,2.7,1.4,2.4*34
{"class":"TPV","mode":3,"time":"2023-04-18T19:54:28.000Z","ept":0.005,"lat":38.907352800,"lon":-77.047582200,"altHAE":27.5700,"altMSL":62.4700,"alt":62.4700,"epv":54.510,"magvar":-10.8,"speed":0.000,"climb":0.000,"epc":96.83,"ecefx":1113943.25,"ecefy":-4843365.73,"ecefz":3984336.02,"ecefvx":0.00,"ecefvy":0.00,"ecefvz":0.00,"geoidSep":-34.809,"eph":26.410,"sep":52.060}
{"class":"SKY","gdop":3.15,"hdop":1.39,"pdop":2.74,"tdop":1.55,"vdop":2.37}
$GPZDA,195429.00,18,04,2023,00,00*6A
$GPGGA,195429.00,3854.4411680,N,07702.8549320,W,1,05,1.39,62.47,M,-34.809,M,,*69
$GPRMC,195429.00,A,3854.4411680,N,7702.8549320,W,0.0000,,180423,-10.8,W*6B
$GPGSA,A,3,,,,,,,,,,,,,2.7,1.4,2.4*34
{"class":"TPV","mode":3,"time":"2023-04-18T19:54:29.000Z","ept":0.005,"lat":38.907352800,"lon":-77.047582200,"altHAE":27.5700,"altMSL":62.4700,"alt":62.4700,"epv":54.510,"magvar":-10.8,"speed":0.000,"climb":0.000,"epc":109.02,"ecefx":1113943.25,"ecefy":-4843365.73,"ecefz":3984336.02,"ecefvx":0.00,"ecefvy":0.00,"ecefvz":0.00,"geoidSep":-34.809,"eph":26.410,"sep":52.060}
{"class":"SKY","gdop":3.15,"hdop":1.39,"pdop":2.74,"tdop":1.55,"vdop":2.37}
$GPZDA,195429.00,18,04,2023,00,00*6A
$GPGGA,195429.00,3854.4411680,N,07702.8549320,W,1,04,1.39,62.47,M,-34.809,M,,*68
$GPRMC,195429.00,A,3854.4411680,N,7702.8549320,W,0.0000,,180423,-10.8,W*6B
$GPGSA,A,3,,,,,,,,,,,,,3.4,1.4,3.1*32
{"class":"TPV","mode":3,"time":"2023-04-18T19:54:29.000Z","ept":0.005,"lat":38.907352800,"lon":-77.047582200,"altHAE":27.5700,"altMSL":62.4700,"alt":62.4700,"epv":71.760,"magvar":-10.8,"speed":0.000,"climb":0.000,"epc":126.27,"ecefx":1113943.25,"ecefy":-4843365.73,"ecefz":3984336.02,"ecefvx":0.00,"ecefvy":0.00,"ecefvz":0.00,"geoidSep":-34.809,"eph":26.410,"sep":64.980}
{"class":"SKY","gdop":3.87,"hdop":1.39,"pdop":3.42,"tdop":1.81,"vdop":3.12}
$GPZDA,195430.00,18,04,2023,00,00*62
$GPGGA,195430.00,3854.4411680,N,07702.8549320,W,1,04,1.39,62.47,M,-34.809,M,,*60
$GPRMC,195430.00,A,3854.4411680,N,7702.8549320,W,0.0000,,180423,-10.8,W*63
$GPGSA,A,3,,,,,,,,,,,,,3.4,1.4,3.1*32
{"class":"TPV","mode":3,"time":"2023-04-18T19:54:30.000Z","ept":0.005,"lat":38.907352800,"lon":-77.047582200,"altHAE":27.5700,"altMSL":62.4700,"alt":62.4700,"epv":71.760,"magvar":-10.8,"speed":0.000,"climb":0.000,"epc":143.52,"ecefx":1113943.25,"ecefy":-4843365.73,"ecefz":3984336.02,"ecefvx":0.00,"ecefvy":0.00,"ecefvz":0.00,"geoidSep":-34.809,"eph":26.410,"sep":64.980}
{"class":"SKY","gdop":3.87,"hdop":1.39,"pdop":3.42,"tdop":1.81,"vdop":3.12}
$GPZDA,195430.00,18,04,2023,00,00*62
$GPGGA,195430.00,3854.4411680,N,07702.8549320,W,1,04,1.39,62.47,M,-34.809,M,,*60
$GPRMC,195430.00,A,3854.4411680,N,7702.8549320,W,0.0000,,180423,-10.8,W*63
$GPGSA,A,3,,,,,,,,,,,,,3.4,1.4,3.1*32
{"class":"TPV","mode":3,"time":"2023-04-18T19:54:30.000Z","ept":0.005,"lat":38.907352800,"lon":-77.047582200,"altHAE":27.5700,"altMSL":62.4700,"alt":62.4700,"epv":71.760,"magvar":-10.8,"speed":0.000,"climb":0.000,"epc":143.52,"ecefx":1113943.25,"ecefy":-4843365.73,"ecefz":3984336.02,"ecefvx":0.00,"ecefvy":0.00,"ecefvz":0.00,"geoidSep":-34.809,"eph":26.410,"sep":64.980}
{"class":"SKY","gdop":3.87,"hdop":1.39,"pdop":3.42,"tdop":1.81,"vdop":3.12}
$GPZDA,195431.00,18,04,2023,00,00*63
$GPGGA,195431.00,3854.4411680,N,07702.8549320,W,1,04,1.39,62.47,M,-34.809,M,,*61
$GPRMC,195431.00,A,3854.4411680,N,7702.8549320,W,0.0000,,180423,-10.8,W*62
$GPGSA,A,3,,,,,,,,,,,,,3.4,1.4,3.1*32
{"class":"TPV","mode":3,"time":"2023-04-18T19:54:31.000Z","ept":0.005,"lat":38.907352800,"lon":-77.047582200,"altHAE":27.5700,"altMSL":62.4700,"alt":62.4700,"epv":71.760,"magvar":-10.8,"speed":0.000,"climb":0.000,"epc":143.52,"ecefx":1113943.25,"ecefy":-4843365.73,"ecefz":3984336.02,"ecefvx":0.00,"ecefvy":0.00,"ecefvz":0.00,"geoidSep":-34.809,"eph":26.410,"sep":64.980}
{"class":"SKY","gdop":3.87,"hdop":1.39,"pdop":3.42,"tdop":1.81,"vdop":3.12}
$GPZDA,195431.00,18,04,2023,00,00*63
$GPGGA,195431.00,3854.4411680,N,07702.8549320,W,1,05,1.37,62.47,M,-34.809,M,,*6E
$GPRMC,195431.00,A,3854.4411680,N,7702.8549320,W,0.0000,,180423,-10.8,W*62
$GPGSA,A,3,,,,,,,,,,,,,3.1,1.4,2.8*3F
{"class":"TPV","mode":3,"time":"2023-04-18T19:54:31.000Z","ept":0.005,"lat":38.907352800,"lon":-77.047582200,"altHAE":27.5700,"altMSL":62.4700,"alt":62.4700,"epv":64.630,"magvar":-10.8,"speed":0.000,"climb":0.000,"epc":136.39,"ecefx":1113943.25,"ecefy":-4843365.73,"ecefz":3984336.02,"ecefvx":0.00,"ecefvy":0.00,"ecefvz":0.00,"geoidSep":-34.809,"eph":26.030,"sep":59.470}
{"class":"SKY","gdop":3.51,"hdop":1.37,"pdop":3.13,"tdop":1.59,"vdop":2.81}
$GPZDA,195432.00,18,04,2023,00,00*60
$GPGGA,195432.00,3854.4411680,N,07702.8549320,W,1,05,1.37,62.47,M,-34.809,M,,*6D
$GPRMC,195432.00,A,3854.4411680,N,7702.8549320,W,0.0000,,180423,-10.8,W*61
$GPGSA,A,3,,,,,,,,,,,,,3.1,1.4,2.8*3F
{"class":"TPV","mode":3,"time":"2023-04-18T19:54:32.000Z","ept":0.005,"lat":38.907352800,"lon":-77.047582200,"altHAE":27.5700,"altMSL":62.4700,"alt":62.4700,"epv":64.630,"magvar":-10.8,"speed":0.000,"climb":0.000,"epc":129.26,"ecefx":1113943.25,"ecefy":-4843365.73,"ecefz":3984336.02,"ecefvx":0.00,"ecefvy":0.00,"ecefvz":0.00,"geoidSep":-34.809,"eph":26.030,"sep":59.470}
{"class":"SKY","gdop":3.51,"hdop":1.37,"pdop":3.13,"tdop":1.59,"vdop":2.81}
$GPZDA,195432.00,18,04,2023,00,00*60
$GPGGA,195432.00,3854.4411680,N,07702.8549320,W,1,05,1.37,62.47,M,-34.809,M,,*6D
$GPRMC,195432.00,A,3854.4411680,N,7702.8549320,W,0.0000,,180423,-10.8,W*61
$GPGSA,A,3,,,,,,,,,,,,,3.1,1.4,2.8*3F
