{"class":"TPV","mode":3,"time":"2023-04-18T19:53:49.000Z","ept":0.005,"lat":38.907352800,"lon":-77.047582200,"altHAE":27.5700,"altMSL":62.4700,"alt":62.4700,"epv":42.550,"magvar":-10.8,"ecefx":1113943.25,"ecefy":-4843365.73,"ecefz":3984336.02,"ecefvx":0.00,"ecefvy":0.00,"ecefvz":0.00,"geoidSep":-34.809,"eph":19.950,"sep":40.470}
{"class":"SKY","gdop":2.42,"hdop":1.05,"pdop":2.13,"tdop":1.13,"vdop":1.85}
{"class":"TPV","mode":3,"time":"2023-04-18T19:53:49.000Z","ept":0.005,"lat":38.907352800,"lon":-77.047582200,"altHAE":27.5700,"altMSL":62.4700,"alt":62.4700,"epv":42.550,"magvar":-10.8,"ecefx":1113943.25,"ecefy":-4843365.73,"ecefz":3984336.02,"ecefvx":0.00,"ecefvy":0.00,"ecefvz":0.00,"geoidSep":-34.809,"eph":19.950,"sep":40.470}
{"class":"SKY","gdop":2.42,"hdop":1.05,"pdop":2.13,"tdop":1.13,"vdop":1.85}
{"class":"TPV","mode":3,"time":"2023-04-18T19:53:50.000Z","ept":0.005,"lat":38.907352800,"lon":-77.047582200,"altHAE":27.5700,"altMSL":62.4700,"alt":62.4700,"epv":42.550,"magvar":-10.8,"speed":0.000,"climb":0.000,"epc":85.10,"ecefx":1113943.25,"ecefy":-4843365.73,"ecefz":3984336.02,"ecefvx":0.00,"ecefvy":0.00,"ecefvz":0.00,"geoidSep":-34.809,"eph":19.950,"sep":40.470}
{"class":"SKY","gdop":2.42,"hdop":1.05,"pdop":2.13,"tdop":1.13,"vdop":1.85}
{"class":"TPV","mode":3,"time":"2023-04-18T19:53:50.000Z","ept":0.005,"lat":38.907352800,"lon":-77.047582200,"altHAE":27.5700,"altMSL":62.4700,"alt":62.4700,"epv":42.550,"magvar":-10.8,"speed":0.000,"climb":0.000,"epc":85.10,"ecefx":1113943.25,"ecefy":-4843365.73,"ecefz":3984336.02,"ecefvx":0.00,"ecefvy":0.00,"ecefvz":0.00,"geoidSep":-34.809,"eph":25.080,"sep":43.130}
{"class":"SKY","gdop":2.64,"hdop":1.32,"pdop":2.27,"tdop":1.34,"vdop":1.85}
{"class":"TPV","mode":3,"time":"2023-04-18T19:53:51.000Z","ept":0.005,"lat":38.907352800,"lon":-77.047582200,"altHAE":27.5700,"altMSL":62.4700,"alt":62.4700,"epv":42.550,"magvar":-10.8,"speed":0.000,"climb":0.000,"epc":85.10,"ecefx":1113943.25,"ecefy":-4843365.73,"ecefz":3984336.02,"ecefvx":0.00,"ecefvy":0.00,"ecefvz":0.00,"geoidSep":-34.809,"eph":25.080,"sep":43.130}
{"class":"SKY","gdop":2.64,"hdop":1.32,"pdop":2.27,"tdop":1.34,"vdop":1.85}
{"class":"TPV","mode":3,"time":"2023-04-18T19:53:51.000Z","ept":0.005,"lat":38.907352800,"lon":-77.047582200,"altHAE":27.5700,"altMSL":62.4700,"alt":62.4700,"epv":34.960,"magvar":-10.8,"speed":0.000,"climb":0.000,"epc":77.51,"ecefx":1113943.25,"ecefy":-4843365.73,"ecefz":3984336.02,"ecefvx":0.00,"ecefvy":0.00,"ecefvz":0.00,"geoidSep":-34.809,"eph":19.760,"sep":34.960}
{"class":"SKY","gdop":2.11,"hdop":1.04,"pdop":1.84,"tdop":1.03,"vdop":1.52}
{"class":"TPV","mode":3,"time":"2023-04-18T19:53:52.000Z","ept":0.005,"lat":38.907352800,"lon":-77.047582200,"altHAE":27.5700,"altMSL":62.4700,"alt":62.4700,"epv":34.960,"magvar":-10.8,"speed":0.000,"climb":0.000,"epc":69.92,"ecefx":1113943.25,"ecefy":-4843365.73,"ecefz":3984336.02,"ecefvx":0.00,"ecefvy":0.00,"ecefvz":0.00,"geoidSep":-34.809,"eph":19.760,"sep":34.960}
{"class":"SKY","gdop":2.11,"hdop":1.04,"pdop":1.84,"tdop":1.03,"vdop":1.52}
{"class":"TPV","mode":3,"time":"2023-04-18T19:53:52.000Z","ept":0.005,"lat":38.907352800,"lon":-77.047582200,"altHAE":27.5700,"altMSL":62.4700,"alt":62.4700,"epv":42.550,"magvar":-10.8,"speed":0.000,"climb":0.000,"epc":77.51,"ecefx":1113943.25,"ecefy":-4843365.73,"ecefz":3984336.02,"ecefvx":0.00,"ecefvy":0.00,"ecefvz":0.00,"geoidSep":-34.809,"eph":25.080,"sep":43.320}
{"class":"SKY","gdop":2.64,"hdop":1.32,"pdop":2.28,"tdop":1.34,"vdop":1.85}
{"class":"TPV","mode":3,"time":"2023-04-18T19:53:53.000Z","ept":0.005,"lat":38.907352800,"lon":-77.047582200,"altHAE":27.5700,"altMSL":62.4700,"alt":62.4700,"epv":42.550,"magvar":-10.8,"speed":0.000,"climb":0.000,"epc":85.10,"ecefx":1113943.25,"ecefy":-4843365.73,"ecefz":3984336.02,"ecefvx":0.00,"ecefvy":0.00,"ecefvz":0.00,"geoidSep":-34.809,"eph":25.080,"sep":43.320}
{"class":"SKY","gdop":2.64,"hdop":1.32,"pdop":2.28,"tdop":1.34,"vdop":1.85}
{"class":"TPV","mode":3,"time":"2023-04-18T19:53:53.000Z","ept":0.005,"lat":38.907352800,"lon":-77.047582200,"altHAE":27.5700,"altMSL":62.4700,"alt":62.4700,"epv":42.550,"magvar":-10.8,"speed":0.000,"climb":0.000,"epc":85.10,"ecefx":1113943.25,"ecefy":-4843365.73,"ecefz":3984336.02,"ecefvx":0.00,"ecefvy":0.00,"ecefvz":0.00,"geoidSep":-34.809,"eph":25.080,"sep":43.320}
{"class":"SKY","gdop":2.64,"hdop":1.32,"pdop":2.28,"tdop":1.34,"vdop":1.85}
{"class":"TPV","mode":3,"time":"2023-04-18T19:53:54.000Z","ept":0.005,"lat":38.907352800,"lon":-77.047582200,"altHAE":27.5700,"altMSL":62.4700,"alt":62.4700,"epv":42.550,"magvar":-10.8,"speed":0.000,"climb":0.000,"epc":85.10,"ecefx":1113943.25,"ecefy":-4843365.73,"ecefz":3984336.02,"ecefvx":0.00,"ecefvy":0.00,"ecefvz":0.00,"geoidSep":-34.809,"eph":25.080,"sep":43.320}
{"class":"SKY","gdop":2.64,"hdop":1.32,"pdop":2.28,"tdop":1.34,"vdop":1.85}
{"class":"TPV","mode":3,"time":"2023-04-18T19:53:54.000Z","ept":0.005,"lat":38.907352800,"lon":-77.047582200,"altHAE":27.5700,"altMSL":62.4700,"alt":62.4700,"epv":42.550,"magvar":-10.8,"speed":0.000,"climb":0.000,"epc":85.10,"ecefx":1113943.25,"ecefy":-4843365.73,"ecefz":3984336.02,"ecefvx":0.00,"ecefvy":0.00,"ecefvz":0.00,"geoidSep":-34.809,"eph":25.080,"sep":43.320}
{"class":"SKY","gdop":2.64,"hdop":1.32,"pdop":2.28,"tdop":1.34,"vdop":1.85}
{"class":"TPV","mode":3,"time":"2023-04-18T19:53:55.000Z","ept":0.005,"lat":38.907352800,"lon":-77.047582200,"altHAE":27.5700,"altMSL":62.4700,"alt":62.4700,"epv":42.550,"magvar":-10.8,"speed":0.000,"climb":0.000,"epc":85.10,"ecefx":1113943.25,"ecefy":-4843365.73,"ecefz":3984336.02,"ecefvx":0.00,"ecefvy":0.00,"ecefvz":0.00,"geoidSep":-34.809,"eph":25.080,"sep":43.320}
{"class":"SKY","gdop":2.64,"hdop":1.32,"pdop":2.28,"tdop":1.34,"vdop":1.85}
{"class":"TPV","mode":3,"time":"2023-04-18T19:53:55.000Z","ept":0.005,"lat":38.907352800,"lon":-77.047582200,"altHAE":27.5700,"altMSL":62.4700,"alt":62.4700,"epv":42.550,"magvar":-10.8,"speed":0.000,"climb":0.000,"epc":85.10,"ecefx":1113943.25,"ecefy":-4843365.73,"ecefz":3984336.02,"ecefvx":0.00,"ecefvy":0.00,"ecefvz":0.00,"geoidSep":-34.809,"eph":25.080,"sep":43.320}
{"class":"SKY","gdop":2.64,"hdop":1.32,"pdop":2.28,"tdop":1.34,"vdop":1.85}
{"class":"TPV","mode":3,"time":"2023-04-18T19:53:56.000Z","ept":0.005,"lat":38.907352800,"lon":-77.047582200,"altHAE":27.5700,"altMSL":62.4700,"alt":62.4700,"epv":42.550,"magvar":-10.8,"speed":0.000,"climb":0.000,"epc":85.10,"ecefx":1113943.25,"ecefy":-4843365.73,"ecefz":3984336.02,"ecefvx":0.00,"ecefvy":0.00,"ecefvz":0.00,"geoidSep":-34.809,"eph":25.080,"sep":43.320}
{"class":"SKY","gdop":2.64,"hdop":1.32,"pdop":2.28,"tdop":1.34,"vdop":1.85}
{"class":"TPV","mode":3,"time":"2023-04-18T19:53:56.000Z","ept":0.005,"lat":38.907352800,"lon":-77.047582200,"altHAE":27.5700,"altMSL":62.4700,"alt":62.4700,"epv":42.550,"magvar":-10.8,"speed":0.000,"climb":0.000,"epc":85.10,"ecefx":1113943.25,"ecefy":-4843365.73,"ecefz":3984336.02,"ecefvx":0.00,"ecefvy":0.00,"ecefvz":0.00,"geoidSep":-34.809,"eph":25.080,"sep":43.320}
{"class":"SKY","gdop":2.64,"hdop":1.32,"pdop":2.28,"tdop":1.34,"vdop":1.85}
{"class":"TPV","mode":3,"time":"2023-04-18T19:53:57.000Z","ept":0.005,"lat":38.907352800,"lon":-77.047582200,"altHAE":27.5700,"altMSL":62.4700,"alt":62.4700,"epv":42.550,"magvar":-10.8,"speed":0.000,"climb":0.000,"epc":85.10,"ecefx":1113943.25,"ecefy":-4843365.73,"ecefz":3984336.02,"ecefvx":0.00,"ecefvy":0.00,"ecefvz":0.00,"geoidSep":-34.809,"eph":25.080,"sep":43.320}
{"class":"SKY","gdop":2.64,"hdop":1.32,"pdop":2.28,"tdop":1.34,"vdop":1.85}
{"class":"TPV","mode":3,"time":"2023-04-18T19:53:57.000Z","ept":0.005,"lat":38.907352800,"lon":-77.047582200,"altHAE":27.5700,"altMSL":62.4700,"alt":62.4700,"epv":42.550,"magvar":-10.8,"speed":0.000,"climb":0.000,"epc":85.10,"ecefx":1113943.25,"ecefy":-4843365.73,"ecefz":3984336.02,"ecefvx":0.00,"ecefvy":0.00,"ecefvz":0.00,"geoidSep":-34.809,"eph":25.080,"sep":43.320}
{"class":"SKY","gdop":2.64,"hdop":1.32,"pdop":2.28,"tdop":1.34,"vdop":1.85}
{"class":"TPV","mode":3,"time":"2023-04-18T19:53:58.000Z","ept":0.005,"lat":38.907352800,"lon":-77.047582200,"altHAE":27.5700,"altMSL":62.4700,"alt":62.4700,"epv":42.550,"magvar":-10.8,"speed":0.000,"climb":0.000,"epc":85.10,"ecefx":1113943.25,"ecefy":-4843365.73,"ecefz":3984336.02,"ecefvx":0.00,"ecefvy":0.00,"ecefvz":0.00,"geoidSep":-34.809,"eph":25.080,"sep":43.320}
{"class":"SKY","gdop":2.64,"hdop":1.32,"pdop":2.28,"tdop":1.34,"vdop":1.85}
{"class":"TPV","mode":3,"time":"2023-04-18T19:53:58.000Z","ept":0.005,"lat":38.907352800,"lon":-77.047582200,"altHAE":27.5700,"altMSL":62.4700,"alt":62.4700,"epv":42.550,"magvar":-10.8,"speed":0.000,"climb":0.000,"epc":85.10,"ecefx":1113943.25,"ecefy":-4843365.73,"ecefz":3984336.02,"ecefvx":0.00,"ecefvy":0.00,"ecefvz":0.00,"geoidSep":-34.809,"eph":25.080,"sep":43.320}
{"class":"SKY","gdop":2.64,"hdop":1.32,"pdop":2.28,"tdop":1.34,"vdop":1.85}
{"class":"TPV","mode":3,"time":"2023-04-18T19:53:59.000Z","ept":0.005,"lat":38.907352800,"lon":-77.047582200,"altHAE":27.5700,"altMSL":62.4700,"alt":62.4700,"epv":42.550,"magvar":-10.8,"speed":0.000,"climb":0.000,"epc":85.10,"ecefx":1113943.25,"ecefy":-4843365.73,"ecefz":3984336.02,"ecefvx":0.00,"ecefvy":0.00,"ecefvz":0.00,"geoidSep":-34.809,"eph":25.080,"sep":43.320}
{"class":"SKY","gdop":2.64,"hdop":1.32,"pdop":2.28,"tdop":1.34,"vdop":1.85}
{"class":"TPV","mode":3,"time":"2023-04-18T19:53:59.000Z","ept":0.005,"lat":38.907352800,"lon":-77.047582200,"altHAE":27.5700,"altMSL":62.4700,"alt":62.4700,"epv":42.550,"magvar":-10.8,"speed":0.000,"climb":0.000,"epc":85.10,"ecefx":1113943.25,"ecefy":-4843365.73,"ecefz":3984336.02,"ecefvx":0.00,"ecefvy":0.00,"ecefvz":0.00,"geoidSep":-34.809,"eph":25.080,"sep":43.320}
{"class":"SKY","gdop":2.64,"hdop":1.32,"pdop":2.28,"tdop":1.34,"vdop":1.85}
{"class":"TPV","mode":3,"time":"2023-04-18T19:54:00.000Z","ept":0.005,"lat":38.907352800,"lon":-77.047582200,"altHAE":27.5700,"altMSL":62.4700,"alt":62.4700,"epv":42.550,"magvar":-10.8,"speed":0.000,"climb":0.000,"epc":85.10,"ecefx":1113943.25,"ecefy":-4843365.73,"ecefz":3984336.02,"ecefvx":0.00,"ecefvy":0.00,"ecefvz":0.00,"geoidSep":-34.809,"eph":25.080,"sep":43.320}
{"class":"SKY","gdop":2.64,"hdop":1.32,"pdop":2.28,"tdop":1.34,"vdop":1.85}
{"class":"TPV","mode":3,"time":"2023-04-18T19:54:00.000Z","ept":0.005,"lat":38.907352800,"lon":-77.047582200,"altHAE":27.5700,"altMSL":62.4700,"alt":62.4700,"epv":42.550,"magvar":-10.8,"speed":0.000,"climb":0.000,"epc":85.10,"ecefx":1113943.25,"ecefy":-4843365.73,"ecefz":3984336.02,"ecefvx":0.00,"ecefvy":0.00,"ecefvz":0.00,"geoidSep":-34.809,"eph":25.080,"sep":43.320}
{"class":"SKY","gdop":2.64,"hdop":1.32,"pdop":2.28,"tdop":1.34,"vdop":1.85}
{"class":"TPV","mode":3,"time":"2023-04-18T19:54:01.000Z","ept":0.005,"lat":38.907352800,"lon":-77.047582200,"altHAE":27.5700,"altMSL":62.4700,"alt":62.4700,"epv":42.550,"magvar":-10.8,"speed":0.000,"climb":0.000,"epc":85.10,"ecefx":1113943.25,"ecefy":-4843365.73,"ecefz":3984336.02,"ecefvx":0.00,"ecefvy":0.00,"ecefvz":0.00,"geoidSep":-34.809,"eph":25.080,"sep":43.320}
{"class":"SKY","gdop":2.64,"hdop":1.32,"pdop":2.28,"tdop":1.34,"vdop":1.85}
{"class":"TPV","mode":3,"time":"2023-04-18T19:54:01.000Z","ept":0.005,"lat":38.907352800,"lon":-77.047582200,"altHAE":27.5700,"altMSL":62.4700,"alt":62.4700,"epv":42.550,"magvar":-10.8,"speed":0.000,"climb":0.000,"epc":85.10,"ecefx":1113943.25,"ecefy":-4843365.73,"ecefz":3984336.02,"ecefvx":0.00,"ecefvy":0.00,"ecefvz":0.00,"geoidSep":-34.809,"eph":25.080,"sep":43.320}
{"class":"SKY","gdop":2.64,"hdop":1.32,"pdop":2.28,"tdop":1.34,"vdop":1.85}
{"class":"TPV","mode":3,"time":"2023-04-18T19:54:02.000Z","ept":0.005,"lat":38.907352800,"lon":-77.047582200,"altHAE":27.5700,"altMSL":62.4700,"alt":62.4700,"epv":42.550,"magvar":-10.8,"speed":0.000,"climb":0.000,"epc":85.10,"ecefx":1113943.25,"ecefy":-4843365.73,"ecefz":3984336.02,"ecefvx":0.00,"ecefvy":0.00,"ecefvz":0.00,"geoidSep":-34.809,"eph":25.080,"sep":43.320}
{"class":"SKY","gdop":2.64,"hdop":1.32,"pdop":2.28,"tdop":1.34,"vdop":1.85}
{"class":"TPV","mode":3,"time":"2023-04-18T19:54:02.000Z","ept":0.005,"lat":38.907352800,"lon":-77.047582200,"altHAE":27.5700,"altMSL":62.4700,"alt":62.4700,"epv":42.550,"magvar":-10.8,"speed":0.000,"climb":0.000,"epc":85.10,"ecefx":1113943.25,"ecefy":-4843365.73,"ecefz":3984336.02,"ecefvx":0.00,"ecefvy":0.00,"ecefvz":0.00,"geoidSep":-34.809,"eph":25.080,"sep":43.320}
{"class":"SKY","gdop":2.64,"hdop":1.32,"pdop":2.28,"tdop":1.34,"vdop":1.85}
{"class":"TPV","mode":3,"time":"2023-04-18T19:54:03.000Z","ept":0.005,"lat":38.907352800,"lon":-77.047582200,"altHAE":27.5700,"altMSL":62.4700,"alt":62.4700,"epv":42.780,"magvar":-10.8,"speed":0.000,"climb":0.000,"epc":85.33,"ecefx":1113943.25,"ecefy":-4843365.73,"ecefz":3984336.02,"ecefvx":0.00,"ecefvy":0.00,"ecefvz":0.00,"geoidSep":-34.809,"eph":25.080,"sep":43.320}
{"class":"SKY","gdop":2.64,"hdop":1.32,"pdop":2.28,"tdop":1.34,"vdop":1.86}
{"class":"TPV","mode":3,"time":"2023-04-18T19:54:03.000Z","ept":0.005,"lat":38.907352800,"lon":-77.047582200,"altHAE":27.5700,"altMSL":62.4700,"alt":62.4700,"epv":42.780,"magvar":-10.8,"speed":0.000,"climb":0.000,"epc":85.33,"ecefx":1113943.25,"ecefy":-4843365.73,"ecefz":3984336.02,"ecefvx":0.00,"ecefvy":0.00,"ecefvz":0.00,"geoidSep":-34.809,"eph":25.080,"sep":43.320}
{"class":"SKY","gdop":2.64,"hdop":1.32,"pdop":2.28,"tdop":1.34,"vdop":1.86}
{"class":"TPV","mode":3,"time":"2023-04-18T19:54:04.000Z","ept":0.005,"lat":38.907352800,"lon":-77.047582200,"altHAE":27.5700,"altMSL":62.4700,"alt":62.4700,"epv":42.780,"magvar":-10.8,"speed":0.000,"climb":0.000,"epc":85.56,"ecefx":1113943.25,"ecefy":-4843365.73,"ecefz":3984336.02,"ecefvx":0.00,"ecefvy":0.00,"ecefvz":0.00,"geoidSep":-34.809,"eph":25.080,"sep":43.320}
{"class":"SKY","gdop":2.64,"hdop":1.32,"pdop":2.28,"tdop":1.34,"vdop":1.86}
{"class":"TPV","mode":3,"time":"2023-04-18T19:54:04.000Z","ept":0.005,"lat":38.907352800,"lon":-77.047582200,"altHAE":27.5700,"altMSL":62.4700,"alt":62.4700,"epv":42.780,"magvar":-10.8,"speed":0.000,"climb":0.000,"epc":85.56,"ecefx":1113943.25,"ecefy":-4843365.73,"ecefz":3984336.02,"ecefvx":0.00,"ecefvy":0.00,"ecefvz":0.00,"geoidSep":-34.809,"eph":25.080,"sep":43.320}
{"class":"SKY","gdop":2.64,"hdop":1.32,"pdop":2.28,"tdop":1.34,"vdop":1.86}
{"class":"TPV","mode":3,"time":"2023-04-18T19:54:05.000Z","ept":0.005,"lat":38.907352800,"lon":-77.047582200,"altHAE":27.5700,"altMSL":62.4700,"alt":62.4700,"epv":42.780,"magvar":-10.8,"speed":0.000,"climb":0.000,"epc":85.56,"ecefx":1113943.25,"ecefy":-4843365.73,"ecefz":3984336.02,"ecefvx":0.00,"ecefvy":0.00,"ecefvz":0.00,"geoidSep":-34.809,"eph":25.080,"sep":43.320}
{"class":"SKY","gdop":2.64,"hdop":1.32,"pdop":2.28,"tdop":1.34,"vdop":1.86}
{"class":"TPV","mode":3,"time":"2023-04-18T19:54:05.000Z","ept":0.005,"lat":38.907352800,"lon":-77.047582200,"altHAE":27.5700,"altMSL":62.4700,"alt":62.4700,"epv":42.780,"magvar":-10.8,"speed":0.000,"climb":0.000,"epc":85.56,"ecefx":1113943.25,"ecefy":-4843365.73,"ecefz":3984336.02,"ecefvx":0.00,"ecefvy":0.00,"ecefvz":0.00,"geoidSep":-34.809,"eph":25.080,"sep":43.320}
{"class":"SKY","gdop":2.64,"hdop":1.32,"pdop":2.28,"tdop":1.34,"vdop":1.86}
{"class":"TPV","mode":3,"time":"2023-04-18T19:54:06.000Z","ept":0.005,"lat":38.907352800,"lon":-77.047582200,"altHAE":27.5700,"altMSL":62.4700,"alt":62.4700,"epv":42.780,"magvar":-10.8,"speed":0.000,"climb":0.000,"epc":85.56,"ecefx":1113943.25,"ecefy":-4843365.73,"ecefz":3984336.02,"ecefvx":0.00,"ecefvy":0.00,"ecefvz":0.00,"geoidSep":-34.809,"eph":25.080,"sep":43.320}
{"class":"SKY","gdop":2.64,"hdop":1.32,"pdop":2.28,"tdop":1.34,"vdop":1.86}
{"class":"TPV","mode":3,"time":"2023-04-18T19:54:06.000Z","ept":0.005,"lat":38.907352800,"lon":-77.047582200,"altHAE":27.5700,"altMSL":62.4700,"alt":62.4700,"epv":42.780,"magvar":-10.8,"speed":0.000,"climb":0.000,"epc":85.56,"ecefx":1113943.25,"ecefy":-4843365.73,"ecefz":3984336.02,"ecefvx":0.00,"ecefvy":0.00,"ecefvz":0.00,"geoidSep":-34.809,"eph":25.080,"sep":43.320}
{"class":"SKY","gdop":2.64,"hdop":1.32,"pdop":2.28,"tdop":1.34,"vdop":1.86}
{"class":"TPV","mode":3,"time":"2023-04-18T19:54:07.000Z","ept":0.005,"lat":38.907352800,"lon":-77.047582200,"altHAE":27.5700,"altMSL":62.4700,"alt":62.4700,"epv":42.780,"magvar":-10.8,"speed":0.000,"climb":0.000,"epc":85.56,"ecefx":1113943.25,"ecefy":-4843365.73,"ecefz":3984336.02,"ecefvx":0.00,"ecefvy":0.00,"ecefvz":0.00,"geoidSep":-34.809,"eph":25.080,"sep":43.320}
{"class":"SKY","gdop":2.64,"hdop":1.32,"pdop":2.28,"tdop":1.34,"vdop":1.86}
{"class":"TPV","mode":3,"time":"2023-04-18T19:54:07.000Z","ept":0.005,"lat":38.907352800,"lon":-77.047582200,"altHAE":27.5700,"altMSL":62.4700,"alt":62.4700,"epv":42.780,"magvar":-10.8,"speed":0.000,"climb":0.000,"epc":85.56,"ecefx":1113943.25,"ecefy":-4843365.73,"ecefz":3984336.02,"ecefvx":0.00,"ecefvy":0.00,"ecefvz":0.00,"geoidSep":-34.809,"eph":25.080,"sep":43.320}
{"class":"SKY","gdop":2.64,"hdop":1.32,"pdop":2.28,"tdop":1.34,"vdop":1.86}
{"class":"TPV","mode":3,"time":"2023-04-18T19:54:08.000Z","ept":0.005,"lat":38.907352800,"lon":-77.047582200,"altHAE":27.5700,"altMSL":62.4700,"alt":62.4700,"epv":42.780,"magvar":-10.8,"speed":0.000,"climb":0.000,"epc":85.56,"ecefx":1113943.25,"ecefy":-4843365.73,"ecefz":3984336.02,"ecefvx":0.00,"ecefvy":0.00,"ecefvz":0.00,"geoidSep":-34.809,"eph":25.080,"sep":43.320}
{"class":"SKY","gdop":2.64,"hdop":1.32,"pdop":2.28,"tdop":1.34,"vdop":1.86}
{"class":"TPV","mode":3,"time":"2023-04-18T19:54:08.000Z","ept":0.005,"lat":38.907352800,"lon":-77.047582200,"altHAE":27.5700,"altMSL":62.4700,"alt":62.4700,"epv":42.780,"magvar":-10.8,"speed":0.000,"climb":0.000,"epc":85.56,"ecefx":1113943.25,"ecefy":-4843365.73,"ecefz":3984336.02,"ecefvx":0.00,"ecefvy":0.00,"ecefvz":0.00,"geoidSep":-34.809,"eph":25.080,"sep":43.320}
{"class":"SKY","gdop":2.64,"hdop":1.32,"pdop":2.28,"tdop":1.34,"vdop":1.86}
{"class":"TPV","mode":3,"time":"2023-04-18T19:54:09.000Z","ept":0.005,"lat":38.907352800,"lon":-77.047582200,"altHAE":27.5700,"altMSL":62.4700,"alt":62.4700,"epv":42.780,"magvar":-10.8,"speed":0.000,"climb":0.000,"epc":85.56,"ecefx":1113943.25,"ecefy":-4843365.73,"ecefz":3984336.02,"ecefvx":0.00,"ecefvy":0.00,"ecefvz":0.00,"geoidSep":-34.809,"eph":25.080,"sep":43.320}
{"class":"SKY","gdop":2.64,"hdop":1.32,"pdop":2.28,"tdop":1.34,"vdop":1.86}
{"class":"TPV","mode":3,"time":"2023-04-18T19:54:09.000Z","ept":0.005,"lat":38.907352800,"lon":-77.047582200,"altHAE":27.5700,"altMSL":62.4700,"alt":62.4700,"epv":42.780,"magvar":-10.8,"speed":0.000,"climb":0.000,"epc":85.56,"ecefx":1113943.25,"ecefy":-4843365.73,"ecefz":3984336.02,"ecefvx":0.00,"ecefvy":0.00,"ecefvz":0.00,"geoidSep":-34.809,"eph":25.080,"sep":43.320}
{"class":"SKY","gdop":2.64,"hdop":1.32,"pdop":2.28,"tdop":1.34,"vdop":1.86}
{"class":"TPV","mode":3,"time":"2023-04-18T19:54:10.000Z","ept":0.005,"lat":38.907352800,"lon":-77.047582200,"altHAE":27.5700,"altMSL":62.4700,"alt":62.4700,"epv":42.780,"magvar":-10.8,"speed":0.000,"climb":0.000,"epc":85.56,"ecefx":1113943.25,"ecefy":-4843365.73,"ecefz":3984336.02,"ecefvx":0.00,"ecefvy":0.00,"ecefvz":0.00,"geoidSep":-34.809,"eph":25.080,"sep":43.320}
{"class":"SKY","gdop":2.64,"hdop":1.32,"pdop":2.28,"tdop":1.34,"vdop":1.86}
{"class":"TPV","mode":3,"time":"2023-04-18T19:54:10.000Z","ept":0.005,"lat":38.907352800,"lon":-77.047582200,"altHAE":27.5700,"altMSL":62.4700,"alt":62.4700,"epv":42.780,"magvar":-10.8,"speed":0.000,"climb":0.000,"epc":85.56,"ecefx":1113943.25,"ecefy":-4843365.73,"ecefz":3984336.02,"ecefvx":0.00,"ecefvy":0.00,"ecefvz":0.00,"geoidSep":-34.809,"eph":25.080,"sep":43.320}
{"class":"SKY","gdop":2.64,"hdop":1.32,"pdop":2.28,"tdop":1.34,"vdop":1.86}
{"class":"TPV","mode":3,"time":"2023-04-18T19:54:11.000Z","ept":0.005,"lat":38.907352800,"lon":-77.047582200,"altHAE":27.5700,"altMSL":62.4700,"alt":62.4700,"epv":42.780,"magvar":-10.8,"speed":0.000,"climb":0.000,"epc":85.56,"ecefx":1113943.25,"ecefy":-4843365.73,"ecefz":3984336.02,"ecefvx":0.00,"ecefvy":0.00,"ecefvz":0.00,"geoidSep":-34.809,"eph":25.080,"sep":43.320}
{"class":"SKY","gdop":2.64,"hdop":1.32,"pdop":2.28,"tdop":1.34,"vdop":1.86}
{"class":"TPV","mode":3,"time":"2023-04-18T19:54:11.000Z","ept":0.005,"lat":38.907352800,"lon":-77.047582200,"altHAE":27.5700,"altMSL":62.4700,"alt":62.4700,"epv":42.780,"magvar":-10.8,"speed":0.000,"climb":0.000,"epc":85.56,"ecefx":1113943.25,"ecefy":-4843365.73,"ecefz":3984336.02,"ecefvx":0.00,"ecefvy":0.00,"ecefvz":0.00,"geoidSep":-34.809,"eph":25.080,"sep":43.320}
{"class":"SKY","gdop":2.64,"hdop":1.32,"pdop":2.28,"tdop":1.34,"vdop":1.86}
{"class":"TPV","mode":3,"time":"2023-04-18T19:54:12.000Z","ept":0.005,"lat":38.907352800,"lon":-77.047582200,"altHAE":27.5700,"altMSL":62.4700,"alt":62.4700,"epv":42.780,"magvar":-10.8,"speed":0.000,"climb":0.000,"epc":85.56,"ecefx":1113943.25,"ecefy":-4843365.73,"ecefz":3984336.02,"ecefvx":0.00,"ecefvy":0.00,"ecefvz":0.00,"geoidSep":-34.809,"eph":25.080,"sep":43.320}
{"class":"SKY","gdop":2.64,"hdop":1.32,"pdop":2.28,"tdop":1.34,"vdop":1.86}
{"class":"TPV","mode":3,"time":"2023-04-18T19:54:12.000Z","ept":0.005,"lat":38.907352800,"lon":-77.047582200,"altHAE":27.5700,"altMSL":62.4700,"alt":62.4700,"epv":42.780,"magvar":-10.8,"speed":0.000,"climb":0.000,"epc":85.56,"ecefx":1113943.25,"ecefy":-4843365.73,"ecefz":3984336.02,"ecefvx":0.00,"ecefvy":0.00,"ecefvz":0.00,"geoidSep":-34.809,"eph":25.080,"sep":43.320}
{"class":"SKY","gdop":2.64,"hdop":1.32,"pdop":2.28,"tdop":1.34,"vdop":1.86}
{"class":"TPV","mode":3,"time":"2023-04-18T19:54:13.000Z","ept":0.005,"lat":38.907352800,"lon":-77.047582200,"altHAE":27.5700,"altMSL":62.4700,"alt":62.4700,"epv":42.780,"magvar":-10.8,"speed":0.000,"climb":0.000,"epc":85.56,"ecefx":1113943.25,"ecefy":-4843365.73,"ecefz":3984336.02,"ecefvx":0.00,"ecefvy":0.00,"ecefvz":0.00,"geoidSep":-34.809,"eph":25.080,"sep":43.320}
{"class":"SKY","gdop":2.64,"hdop":1.32,"pdop":2.28,"tdop":1.34,"vdop":1.86}
{"class":"TPV","mode":3,"time":"2023-04-18T19:54:13.000Z","ept":0.005,"lat":38.907352800,"lon":-77.047582200,"altHAE":27.5700,"altMSL":62.4700,"alt":62.4700,"epv":42.780,"magvar":-10.8,"speed":0.000,"climb":0.000,"epc":85.56,"ecefx":1113943.25,"ecefy":-4843365.73,"ecefz":3984336.02,"ecefvx":0.00,"ecefvy":0.00,"ecefvz":0.00,"geoidSep":-34.809,"eph":25.080,"sep":43.320}
{"class":"SKY","gdop":2.64,"hdop":1.32,"pdop":2.28,"tdop":1.34,"vdop":1.86}
{"class":"TPV","mode":3,"time":"2023-04-18T19:54:14.000Z","ept":0.005,"lat":38.907352800,"lon":-77.047582200,"altHAE":27.5700,"altMSL":62.4700,"alt":62.4700,"epv":42.780,"magvar":-10.8,"speed":0.000,"climb":0.000,"epc":85.56,"ecefx":1113943.25,"ecefy":-4843365.73,"ecefz":3984336.02,"ecefvx":0.00,"ecefvy":0.00,"ecefvz":0.00,"geoidSep":-34.809,"eph":25.080,"sep":43.320}
{"class":"SKY","gdop":2.64,"hdop":1.32,"pdop":2.28,"tdop":1.34,"vdop":1.86}
{"class":"TPV","mode":3,"time":"2023-04-18T19:54:14.000Z","ept":0.005,"lat":38.907352800,"lon":-77.047582200,"altHAE":27.5700,"altMSL":62.4700,"alt":62.4700,"epv":54.280,"magvar":-10.8,"speed":0.000,"climb":0.000,"epc":97.06,"ecefx":1113943.25,"ecefy":-4843365.73,"ecefz":3984336.02,"ecefvx":0.00,"ecefvy":0.00,"ecefvz":0.00,"geoidSep":-34.809,"eph":26.410,"sep":52.060}
{"class":"SKY","gdop":3.15,"hdop":1.39,"pdop":2.74,"tdop":1.55,"vdop":2.36}
{"class":"TPV","mode":3,"time":"2023-04-18T19:54:15.000Z","ept":0.005,"lat":38.907352800,"lon":-77.047582200,"altHAE":27.5700,"altMSL":62.4700,"alt":62.4700,"epv":54.280,"magvar":-10.8,"speed":0.000,"climb":0.000,"epc":108.56,"ecefx":1113943.25,"ecefy":-4843365.73,"ecefz":3984336.02,"ecefvx":0.00,"ecefvy":0.00,"ecefvz":0.00,"geoidSep":-34.809,"eph":26.410,"sep":52.060}
{"class":"SKY","gdop":3.15,"hdop":1.39,"pdop":2.74,"tdop":1.55,"vdop":2.36}
{"class":"TPV","mode":3,"time":"2023-04-18T19:54:15.000Z","ept":0.005,"lat":38.907352800,"lon":-77.047582200,"altHAE":27.5700,"altMSL":62.4700,"alt":62.4700,"epv":54.280,"magvar":-10.8,"speed":0.000,"climb":0.000,"epc":108.56,"ecefx":1113943.25,"ecefy":-4843365.73,"ecefz":3984336.02,"ecefvx":0.00,"ecefvy":0.00,"ecefvz":0.00,"geoidSep":-34.809,"eph":26.410,"sep":52.060}
{"class":"SKY","gdop":3.15,"hdop":1.39,"pdop":2.74,"tdop":1.55,"vdop":2.36}
{"class":"TPV","mode":3,"time":"2023-04-18T19:54:16.000Z","ept":0.005,"lat":38.907352800,"lon":-77.047582200,"altHAE":27.5700,"altMSL":62.4700,"alt":62.4700,"epv":54.280,"magvar":-10.8,"speed":0.000,"climb":0.000,"epc":108.56,"ecefx":1113943.25,"ecefy":-4843365.73,"ecefz":3984336.02,"ecefvx":0.00,"ecefvy":0.00,"ecefvz":0.00,"geoidSep":-34.809,"eph":26.410,"sep":52.060}
{"class":"SKY","gdop":3.15,"hdop":1.39,"pdop":2.74,"tdop":1.55,"vdop":2.36}
{"class":"TPV","mode":3,"time":"2023-04-18T19:54:16.000Z","ept":0.005,"lat":38.907352800,"lon":-77.047582200,"altHAE":27.5700,"altMSL":62.4700,"alt":62.4700,"epv":54.280,"magvar":-10.8,"speed":0.000,"climb":0.000,"epc":108.56,"ecefx":1113943.25,"ecefy":-4843365.73,"ecefz":3984336.02,"ecefvx":0.00,"ecefvy":0.00,"ecefvz":0.00,"geoidSep":-34.809,"eph":26.410,"sep":52.060}
{"class":"SKY","gdop":3.15,"hdop":1.39,"pdop":2.74,"tdop":1.55,"vdop":2.36}
{"class":"TPV","mode":3,"time":"2023-04-18T19:54:17.000Z","ept":0.005,"lat":38.907352800,"lon":-77.047582200,"altHAE":27.5700,"altMSL":62.4700,"alt":62.4700,"epv":54.280,"magvar":-10.8,"speed":0.000,"climb":0.000,"epc":108.56,"ecefx":1113943.25,"ecefy":-4843365.73,"ecefz":3984336.02,"ecefvx":0.00,"ecefvy":0.00,"ecefvz":0.00,"geoidSep":-34.809,"eph":26.410,"sep":52.060}
{"class":"SKY","gdop":3.15,"hdop":1.39,"pdop":2.74,"tdop":1.55,"vdop":2.36}
{"class":"TPV","mode":3,"time":"2023-04-18T19:54:17.000Z","ept":0.005,"lat":38.907352800,"lon":-77.047582200,"altHAE":27.5700,"altMSL":62.4700,"alt":62.4700,"epv":54.280,"magvar":-10.8,"speed":0.000,"climb":0.000,"epc":108.56,"ecefx":1113943.25,"ecefy":-4843365.73,"ecefz":3984336.02,"ecefvx":0.00,"ecefvy":0.00,"ecefvz":0.00,"geoidSep":-34.809,"eph":26.410,"sep":52.060}
{"class":"SKY","gdop":3.15,"hdop":1.39,"pdop":2.74,"tdop":1.55,"vdop":2.36}
{"class":"TPV","mode":3,"time":"2023-04-18T19:54:18.000Z","ept":0.005,"lat":38.907352800,"lon":-77.047582200,"altHAE":27.5700,"altMSL":62.4700,"alt":62.4700,"epv":54.280,"magvar":-10.8,"speed":0.000,"climb":0.000,"epc":108.56,"ecefx":1113943.25,"ecefy":-4843365.73,"ecefz":3984336.02,"ecefvx":0.00,"ecefvy":0.00,"ecefvz":0.00,"geoidSep":-34.809,"eph":26.410,"sep":52.060}
{"class":"SKY","gdop":3.15,"hdop":1.39,"pdop":2.74,"tdop":1.55,"vdop":2.36}
{"class":"TPV","mode":3,"time":"2023-04-18T19:54:18.000Z","ept":0.005,"lat":38.907352800,"lon":-77.047582200,"altHAE":27.5700,"altMSL":62.4700,"alt":62.4700,"epv":54.280,"magvar":-10.8,"speed":0.000,"climb":0.000,"epc":108.56,"ecefx":1113943.25,"ecefy":-4843365.73,"ecefz":3984336.02,"ecefvx":0.00,"ecefvy":0.00,"ecefvz":0.00,"geoidSep":-34.809,"eph":26.410,"sep":52.060}
{"class":"SKY","gdop":3.15,"hdop":1.39,"pdop":2.74,"tdop":1.55,"vdop":2.36}
{"class":"TPV","mode":3,"time":"2023-04-18T19:54:19.000Z","ept":0.005,"lat":38.907352800,"lon":-77.047582200,"altHAE":27.5700,"altMSL":62.4700,"alt":62.4700,"epv":54.280,"magvar":-10.8,"speed":0.000,"climb":0.000,"epc":108.56,"ecefx":1113943.25,"ecefy":-4843365.73,"ecefz":3984336.02,"ecefvx":0.00,"ecefvy":0.00,"ecefvz":0.00,"geoidSep":-34.809,"eph":26.410,"sep":52.060}
{"class":"SKY","gdop":3.15,"hdop":1.39,"pdop":2.74,"tdop":1.55,"vdop":2.36}
{"class":"TPV","mode":3,"time":"2023-04-18T19:54:19.000Z","ept":0.005,"lat":38.907352800,"lon":-77.047582200,"altHAE":27.5700,"altMSL":62.4700,"alt":62.4700,"epv":54.280,"magvar":-10.8,"speed":0.000,"climb":0.000,"epc":108.56,"ecefx":1113943.25,"ecefy":-4843365.73,"ecefz":3984336.02,"ecefvx":0.00,"ecefvy":0.00,"ecefvz":0.00,"geoidSep":-34.809,"eph":26.410,"sep":52.060}
{"class":"SKY","gdop":3.15,"hdop":1.39,"pdop":2.74,"tdop":1.55,"vdop":2.36}
{"class":"TPV","mode":3,"time":"2023-04-18T19:54:20.000Z","ept":0.005,"lat":38.907352800,"lon":-77.047582200,"altHAE":27.5700,"altMSL":62.4700,"alt":62.4700,"epv":54.280,"magvar":-10.8,"speed":0.000,"climb":0.000,"epc":108.56,"ecefx":1113943.25,"ecefy":-4843365.73,"ecefz":3984336.02,"ecefvx":0.00,"ecefvy":0.00,"ecefvz":0.00,"geoidSep":-34.809,"eph":26.410,"sep":52.060}
{"class":"SKY","gdop":3.15,"hdop":1.39,"pdop":2.74,"tdop":1.55,"vdop":2.36}
{"class":"TPV","mode":3,"time":"2023-04-18T19:54:20.000Z","ept":0.005,"lat":38.907352800,"lon":-77.047582200,"altHAE":27.5700,"altMSL":62.4700,"alt":62.4700,"epv":54.280,"magvar":-10.8,"speed":0.000,"climb":0.000,"epc":108.56,"ecefx":1113943.25,"ecefy":-4843365.73,"ecefz":3984336.02,"ecefvx":0.00,"ecefvy":0.00,"ecefvz":0.00,"geoidSep":-34.809,"eph":26.410,"sep":52.060}
{"class":"SKY","gdop":3.15,"hdop":1.39,"pdop":2.74,"tdop":1.55,"vdop":2.36}
{"class":"TPV","mode":3,"time":"2023-04-18T19:54:21.000Z","ept":0.005,"lat":38.907352800,"lon":-77.047582200,"altHAE":27.5700,"altMSL":62.4700,"alt":62.4700,"epv":54.280,"magvar":-10.8,"speed":0.000,"climb":0.000,"epc":108.56,"ecefx":1113943.25,"ecefy":-4843365.73,"ecefz":3984336.02,"ecefvx":0.00,"ecefvy":0.00,"ecefvz":0.00,"geoidSep":-34.809,"eph":26.410,"sep":52.060}
{"class":"SKY","gdop":3.15,"hdop":1.39,"pdop":2.74,"tdop":1.55,"vdop":2.36}
{"class":"TPV","mode":3,"time":"2023-04-18T19:54:21.000Z","ept":0.005,"lat":38.907352800,"lon":-77.047582200,"altHAE":27.5700,"altMSL":62.4700,"alt":62.4700,"epv":54.510,"magvar":-10.8,"speed":0.000,"climb":0.000,"epc":108.79,"ecefx":1113943.25,"ecefy":-4843365.73,"ecefz":3984336.02,"ecefvx":0.00,"ecefvy":0.00,"ecefvz":0.00,"geoidSep":-34.809,"eph":26.410,"sep":52.060}
{"class":"SKY","gdop":3.15,"hdop":1.39,"pdop":2.74,"tdop":1.55,"vdop":2.37}
{"class":"TPV","mode":3,"time":"2023-04-18T19:54:22.000Z","ept":0.005,"lat":38.907352800,"lon":-77.047582200,"altHAE":27.5700,"altMSL":62.4700,"alt":62.4700,"epv":54.510,"magvar":-10.8,"speed":0.000,"climb":0.000,"epc":109.02,"ecefx":1113943.25,"ecefy":-4843365.73,"ecefz":3984336.02,"ecefvx":0.00,"ecefvy":0.00,"ecefvz":0.00,"geoidSep":-34.809,"eph":26.410,"sep":52.060}
{"class":"SKY","gdop":3.15,"hdop":1.39,"pdop":2.74,"tdop":1.55,"vdop":2.37}
{"class":"TPV","mode":3,"time":"2023-04-18T19:54:22.000Z","ept":0.005,"lat":38.907352800,"lon":-77.047582200,"altHAE":27.5700,"altMSL":62.4700,"alt":62.4700,"epv":54.510,"magvar":-10.8,"speed":0.000,"climb":0.000,"epc":109.02,"ecefx":1113943.25,"ecefy":-4843365.73,"ecefz":3984336.02,"ecefvx":0.00,"ecefvy":0.00,"ecefvz":0.00,"geoidSep":-34.809,"eph":26.410,"sep":52.060}
{"class":"SKY","gdop":3.15,"hdop":1.39,"pdop":2.74,"tdop":1.55,"vdop":2.37}
{"class":"TPV","mode":3,"time":"2023-04-18T19:54:23.000Z","ept":0.005,"lat":38.907352800,"lon":-77.047582200,"altHAE":27.5700,"altMSL":62.4700,"alt":62.4700,"epv":54.510,"magvar":-10.8,"speed":0.000,"climb":0.000,"epc":109.02,"ecefx":1113943.25,"ecefy":-4843365.73,"ecefz":3984336.02,"ecefvx":0.00,"ecefvy":0.00,"ecefvz":0.00,"geoidSep":-34.809,"eph":26.410,"sep":52.060}
{"class":"SKY","gdop":3.15,"hdop":1.39,"pdop":2.74,"tdop":1.55,"vdop":2.37}
{"class":"TPV","mode":3,"time":"2023-04-18T19:54:23.000Z","ept":0.005,"lat":38.907352800,"lon":-77.047582200,"altHAE":27.5700,"altMSL":62.4700,"alt":62.4700,"epv":54.510,"magvar":-10.8,"speed":0.000,"climb":0.000,"epc":109.02,"ecefx":1113943.25,"ecefy":-4843365.73,"ecefz":3984336.02,"ecefvx":0.00,"ecefvy":0.00,"ecefvz":0.00,"geoidSep":-34.809,"eph":26.410,"sep":52.060}
{"class":"SKY","gdop":3.15,"hdop":1.39,"pdop":2.74,"tdop":1.55,"vdop":2.37}
{"class":"TPV","mode":3,"time":"2023-04-18T19:54:24.000Z","ept":0.005,"lat":38.907352800,"lon":-77.047582200,"altHAE":27.5700,"altMSL":62.4700,"alt":62.4700,"epv":54.510,"magvar":-10.8,"speed":0.000,"climb":0.000,"epc":109.02,"ecefx":1113943.25,"ecefy":-4843365.73,"ecefz":3984336.02,"ecefvx":0.00,"ecefvy":0.00,"ecefvz":0.00,"geoidSep":-34.809,"eph":26.410,"sep":52.060}
{"class":"SKY","gdop":3.15,"hdop":1.39,"pdop":2.74,"tdop":1.55,"vdop":2.37}
{"class":"TPV","mode":3,"time":"2023-04-18T19:54:24.000Z","ept":0.005,"lat":38.907352800,"lon":-77.047582200,"altHAE":27.5700,"altMSL":62.4700,"alt":62.4700,"epv":54.510,"magvar":-10.8,"speed":0.000,"climb":0.000,"epc":109.02,"ecefx":1113943.25,"ecefy":-4843365.73,"ecefz":3984336.02,"ecefvx":0.00,"ecefvy":0.00,"ecefvz":0.00,"geoidSep":-34.809,"eph":26.410,"sep":52.060}
{"class":"SKY","gdop":3.15,"hdop":1.39,"pdop":2.74,"tdop":1.55,"vdop":2.37}
{"class":"TPV","mode":3,"time":"2023-04-18T19:54:25.000Z","ept":0.005,"lat":38.907352800,"lon":-77.047582200,"altHAE":27.5700,"altMSL":62.4700,"alt":62.4700,"epv":54.510,"magvar":-10.8,"speed":0.000,"climb":0.000,"epc":109.02,"ecefx":1113943.25,"ecefy":-4843365.73,"ecefz":3984336.02,"ecefvx":0.00,"ecefvy":0.00,"ecefvz":0.00,"geoidSep":-34.809,"eph":26.410,"sep":52.060}
{"class":"SKY","gdop":3.15,"hdop":1.39,"pdop":2.74,"tdop":1.55,"vdop":2.37}
{"class":"TPV","mode":3,"time":"2023-04-18T19:54:25.000Z","ept":0.005,"lat":38.907352800,"lon":-77.047582200,"altHAE":27.5700,"altMSL":62.4700,"alt":62.4700,"epv":54.510,"magvar":-10.8,"speed":0.000,"climb":0.000,"epc":109.02,"ecefx":1113943.25,"ecefy":-4843365.73,"ecefz":3984336.02,"ecefvx":0.00,"ecefvy":0.00,"ecefvz":0.00,"geoidSep":-34.809,"eph":26.410,"sep":52.060}
{"class":"SKY","gdop":3.15,"hdop":1.39,"pdop":2.74,"tdop":1.55,"vdop":2.37}
{"class":"TPV","mode":3,"time":"2023-04-18T19:54:26.000Z","ept":0.005,"lat":38.907352800,"lon":-77.047582200,"altHAE":27.5700,"altMSL":62.4700,"alt":62.4700,"epv":54.510,"magvar":-10.8,"speed":0.000,"climb":0.000,"epc":109.02,"ecefx":1113943.25,"ecefy":-4843365.73,"ecefz":3984336.02,"ecefvx":0.00,"ecefvy":0.00,"ecefvz":0.00,"geoidSep":-34.809,"eph":26.410,"sep":52.060}
{"class":"SKY","gdop":3.15,"hdop":1.39,"pdop":2.74,"tdop":1.55,"vdop":2.37}
{"class":"TPV","mode":3,"time":"2023-04-18T19:54:26.000Z","ept":0.005,"lat":38.907352800,"lon":-77.047582200,"altHAE":27.5700,"altMSL":62.4700,"alt":62.4700,"epv":54.510,"magvar":-10.8,"speed":0.000,"climb":0.000,"epc":109.02,"ecefx":1113943.25,"ecefy":-4843365.73,"ecefz":3984336.02,"ecefvx":0.00,"ecefvy":0.00,"ecefvz":0.00,"geoidSep":-34.809,"eph":26.410,"sep":52.060}
{"class":"SKY","gdop":3.15,"hdop":1.39,"pdop":2.74,"tdop":1.55,"vdop":2.37}
{"class":"TPV","mode":3,"time":"2023-04-18T19:54:27.000Z","ept":0.005,"lat":38.907352800,"lon":-77.047582200,"altHAE":27.5700,"altMSL":62.4700,"alt":62.4700,"epv":54.510,"magvar":-10.8,"speed":0.000,"climb":0.000,"epc":109.02,"ecefx":1113943.25,"ecefy":-4843365.73,"ecefz":3984336.02,"ecefvx":0.00,"ecefvy":0.00,"ecefvz":0.00,"geoidSep":-34.809,"eph":26.410,"sep":52.060}
{"class":"SKY","gdop":3.15,"hdop":1.39,"pdop":2.74,"tdop":1.55,"vdop":2.37}
{"class":"TPV","mode":3,"time":"2023-04-18T19:54:27.000Z","ept":0.005,"lat":38.907352800,"lon":-77.047582200,"altHAE":27.5700,"altMSL":62.4700,"alt":62.4700,"epv":42.320,"magvar":-10.8,"speed":0.000,"climb":0.000,"epc":96.83,"ecefx":1113943.25,"ecefy":-4843365.73,"ecefz":3984336.02,"ecefvx":0.00,"ecefvy":0.00,"ecefvz":0.00,"geoidSep":-34.809,"eph":19.950,"sep":40.470}
{"class":"SKY","gdop":2.41,"hdop":1.05,"pdop":2.13,"tdop":1.13,"vdop":1.84}
{"class":"TPV","mode":3,"time":"2023-04-18T19:54:28.000Z","ept":0.005,"lat":38.907352800,"lon":-77.047582200,"altHAE":27.5700,"altMSL":62.4700,"alt":62.4700,"epv":42.320,"magvar":-10.8,"speed":0.000,"climb":0.000,"epc":84.64,"ecefx":1113943.25,"ecefy":-4843365.73,"ecefz":3984336.02,"ecefvx":0.00,"ecefvy":0.00,"ecefvz":0.00,"geoidSep":-34.809,"eph":19.950,"sep":40.470}
{"class":"SKY","gdop":2.41,"hdop":1.05,"pdop":2.13,"tdop":1.13,"vdop":1.84}
{"class":"TPV","mode":3,"time":"2023-04-18T19:54:28.000Z","ept":0.005,"lat":38.907352800,"lon":-77.047582200,"altHAE":27.5700,"altMSL":62.4700,"alt":62.4700,"epv":54.510,"magvar":-10.8,"speed":0.000,"climb":0.000,"epc":96.83,"ecefx":1113943.25,"ecefy":-4843365.73,"ecefz":3984336.02,"ecefvx":0.00,"ecefvy":0.00,"ecefvz":0.00,"geoidSep":-34.809,"eph":26.410,"sep":52.060}
{"class":"SKY","gdop":3.15,"hdop":1.39,"pdop":2.74,"tdop":1.55,"vdop":2.37}
{"class":"TPV","mode":3,"time":"2023-04-18T19:54:29.000Z","ept":0.005,"lat":38.907352800,"lon":-77.047582200,"altHAE":27.5700,"altMSL":62.4700,"alt":62.4700,"epv":54.510,"magvar":-10.8,"speed":0.000,"climb":0.000,"epc":109.02,"ecefx":1113943.25,"ecefy":-4843365.73,"ecefz":3984336.02,"ecefvx":0.00,"ecefvy":0.00,"ecefvz":0.00,"geoidSep":-34.809,"eph":26.410,"sep":52.060}
{"class":"SKY","gdop":3.15,"hdop":1.39,"pdop":2.74,"tdop":1.55,"vdop":2.37}
{"class":"TPV","mode":3,"time":"2023-04-18T19:54:29.000Z","ept":0.005,"lat":38.907352800,"lon":-77.047582200,"altHAE":27.5700,"altMSL":62.4700,"alt":62.4700,"epv":71.760,"magvar":-10.8,"speed":0.000,"climb":0.000,"epc":126.27,"ecefx":1113943.25,"ecefy":-4843365.73,"ecefz":3984336.02,"ecefvx":0.00,"ecefvy":0.00,"ecefvz":0.00,"geoidSep":-34.809,"eph":26.410,"sep":64.980}
{"class":"SKY","gdop":3.87,"hdop":1.39,"pdop":3.42,"tdop":1.81,"vdop":3.12}
{"class":"TPV","mode":3,"time":"2023-04-18T19:54:30.000Z","ept":0.005,"lat":38.907352800,"lon":-77.047582200,"altHAE":27.5700,"altMSL":62.4700,"alt":62.4700,"epv":71.760,"magvar":-10.8,"speed":0.000,"climb":0.000,"epc":143.52,"ecefx":1113943.25,"ecefy":-4843365.73,"ecefz":3984336.02,"ecefvx":0.00,"ecefvy":0.00,"ecefvz":0.00,"geoidSep":-34.809,"eph":26.410,"sep":64.980}
{"class":"SKY","gdop":3.87,"hdop":1.39,"pdop":3.42,"tdop":1.81,"vdop":3.12}
{"class":"TPV","mode":3,"time":"2023-04-18T19:54:30.000Z","ept":0.005,"lat":38.907352800,"lon":-77.047582200,"altHAE":27.5700,"altMSL":62.4700,"alt":62.4700,"epv":71.760,"magvar":-10.8,"speed":0.000,"climb":0.000,"epc":143.52,"ecefx":1113943.25,"ecefy":-4843365.73,"ecefz":3984336.02,"ecefvx":0.00,"ecefvy":0.00,"ecefvz":0.00,"geoidSep":-34.809,"eph":26.410,"sep":64.980}
{"class":"SKY","gdop":3.87,"hdop":1.39,"pdop":3.42,"tdop":1.81,"vdop":3.12}
{"class":"TPV","mode":3,"time":"2023-04-18T19:54:31.000Z","ept":0.005,"lat":38.907352800,"lon":-77.047582200,"altHAE":27.5700,"altMSL":62.4700,"alt":62.4700,"epv":71.760,"magvar":-10.8,"speed":0.000,"climb":0.000,"epc":143.52,"ecefx":1113943.25,"ecefy":-4843365.73,"ecefz":3984336.02,"ecefvx":0.00,"ecefvy":0.00,"ecefvz":0.00,"geoidSep":-34.809,"eph":26.410,"sep":64.980}
{"class":"SKY","gdop":3.87,"hdop":1.39,"pdop":3.42,"tdop":1.81,"vdop":3.12}
{"class":"TPV","mode":3,"time":"2023-04-18T19:54:31.000Z","ept":0.005,"lat":38.907352800,"lon":-77.047582200,"altHAE":27.5700,"altMSL":62.4700,"alt":62.4700,"epv":64.630,"magvar":-10.8,"speed":0.000,"climb":0.000,"epc":136.39,"ecefx":1113943.25,"ecefy":-4843365.73,"ecefz":3984336.02,"ecefvx":0.00,"ecefvy":0.00,"ecefvz":0.00,"geoidSep":-34.809,"eph":26.030,"sep":59.470}
{"class":"SKY","gdop":3.51,"hdop":1.37,"pdop":3.13,"tdop":1.59,"vdop":2.81}
{"class":"TPV","mode":3,"time":"2023-04-18T19:54:32.000Z","ept":0.005,"lat":38.907352800,"lon":-77.047582200,"altHAE":27.5700,"altMSL":62.4700,"alt":62.4700,"epv":64.630,"magvar":-10.8,"speed":0.000,"climb":0.000,"epc":129.26,"ecefx":1113943.25,"ecefy":-4843365.73,"ecefz":3984336.02,"ecefvx":0.00,"ecefvy":0.00,"ecefvz":0.00,"geoidSep":-34.809,"eph":26.030,"sep":59.470}
{"class":"SKY","gdop":3.51,"hdop":1.37,"pdop":3.13,"tdop":1.59,"vdop":2.81}
{"class":"TPV","mode":3,"time":"2023-04-18T19:54:32.000Z","ept":0.005,"lat":38.907352800,"lon":-77.047582200,"altHAE":27.5700,"altMSL":62.4700,"alt":62.4700,"epv":64.630,"magvar":-10.8,"speed":0.000,"climb":0.000,"epc":129.26,"ecefx":1113943.25,"ecefy":-4843365.73,"ecefz":3984336.02,"ecefvx":0.00,"ecefvy":0.00,"ecefvz":0.00,"geoidSep":-34.809,"eph":26.030,"sep":59.470}
{"class":"SKY","gdop":3.51,"hdop":1.37,"pdop":3.13,"tdop":1.59,"vdop":2.81}
{"class":"TPV","mode":3,"time":"2023-04-18T19:54:33.000Z","ept":0.005,"lat":38.907352800,"lon":-77.047582200,"altHAE":27.5700,"altMSL":62.4700,"alt":62.4700,"epv":64.630,"magvar":-10.8,"speed":0.000,"climb":0.000,"epc":129.26,"ecefx":1113943.25,"ecefy":-4843365.73,"ecefz":3984336.02,"ecefvx":0.00,"ecefvy":0.00,"ecefvz":0.00,"geoidSep":-34.809,"eph":26.030,"sep":59.470}
{"class":"SKY","gdop":3.51,"hdop":1.37,"pdop":3.13,"tdop":1.59,"vdop":2.81}
{"class":"TPV","mode":3,"time":"2023-04-18T19:54:33.000Z","ept":0.005,"lat":38.907352800,"lon":-77.047582200,"altHAE":27.5700,"altMSL":62.4700,"alt":62.4700,"epv":64.630,"magvar":-10.8,"speed":0.000,"climb":0.000,"epc":129.26,"ecefx":1113943.25,"ecefy":-4843365.73,"ecefz":3984336.02,"ecefvx":0.00,"ecefvy":0.00,"ecefvz":0.00,"geoidSep":-34.809,"eph":26.030,"sep":59.470}
{"class":"SKY","gdop":3.51,"hdop":1.37,"pdop":3.13,"tdop":1.59,"vdop":2.81}
{"class":"TPV","mode":3,"time":"2023-04-18T19:54:34.000Z","ept":0.005,"lat":38.907352800,"lon":-77.047582200,"altHAE":27.5700,"altMSL":62.4700,"alt":62.4700,"epv":64.630,"magvar":-10.8,"speed":0.000,"climb":0.000,"epc":129.26,"ecefx":1113943.25,"ecefy":-4843365.73,"ecefz":3984336.02,"ecefvx":0.00,"ecefvy":0.00,"ecefvz":0.00,"geoidSep":-34.809,"eph":26.030,"sep":59.470}
{"class":"SKY","gdop":3.51,"hdop":1.37,"pdop":3.13,"tdop":1.59,"vdop":2.81}
{"class":"TPV","mode":3,"time":"2023-04-18T19:54:34.000Z","ept":0.005,"lat":38.907352800,"lon":-77.047582200,"altHAE":27.5700,"altMSL":62.4700,"alt":62.4700,"epv":64.630,"magvar":-10.8,"speed":0.000,"climb":0.000,"epc":129.26,"ecefx":1113943.25,"ecefy":-4843365.73,"ecefz":3984336.02,"ecefvx":0.00,"ecefvy":0.00,"ecefvz":0.00,"geoidSep":-34.809,"eph":26.030,"sep":59.470}
{"class":"SKY","gdop":3.51,"hdop":1.37,"pdop":3.13,"tdop":1.59,"vdop":2.81}
{"class":"TPV","mode":3,"time":"2023-04-18T19:54:35.000Z","ept":0.005,"lat":38.907352800,"lon":-77.047582200,"altHAE":27.5700,"altMSL":62.4700,"alt":62.4700,"epv":64.630,"magvar":-10.8,"speed":0.000,"climb":0.000,"epc":129.26,"ecefx":1113943.25,"ecefy":-4843365.73,"ecefz":3984336.02,"ecefvx":0.00,"ecefvy":0.00,"ecefvz":0.00,"geoidSep":-34.809,"eph":26.030,"sep":59.470}
{"class":"SKY","gdop":3.51,"hdop":1.37,"pdop":3.13,"tdop":1.59,"vdop":2.81}
{"class":"TPV","mode":3,"time":"2023-04-18T19:54:35.000Z","ept":0.005,"lat":38.907352800,"lon":-77.047582200,"altHAE":27.5700,"altMSL":62.4700,"alt":62.4700,"epv":41.630,"magvar":-10.8,"speed":0.000,"climb":0.000,"epc":106.26,"ecefx":1113943.25,"ecefy":-4843365.73,"ecefz":3984336.02,"ecefvx":0.00,"ecefvy":0.00,"ecefvz":0.00,"geoidSep":-34.809,"eph":24.700,"sep":42.370}
{"class":"SKY","gdop":2.54,"hdop":1.30,"pdop":2.23,"tdop":1.22,"vdop":1.81}
{"class":"TPV","mode":3,"time":"2023-04-18T19:54:36.000Z","ept":0.005,"lat":38.907352800,"lon":-77.047582200,"altHAE":27.5700,"altMSL":62.4700,"alt":62.4700,"epv":41.630,"magvar":-10.8,"speed":0.000,"climb":0.000,"epc":83.26,"ecefx":1113943.25,"ecefy":-4843365.73,"ecefz":3984336.02,"ecefvx":0.00,"ecefvy":0.00,"ecefvz":0.00,"geoidSep":-34.809,"eph":24.700,"sep":42.370}
{"class":"SKY","gdop":2.54,"hdop":1.30,"pdop":2.23,"tdop":1.22,"vdop":1.81}
{"class":"TPV","mode":3,"time":"2023-04-18T19:54:36.000Z","ept":0.005,"lat":38.907352800,"lon":-77.047582200,"altHAE":27.5700,"altMSL":62.4700,"alt":62.4700,"epv":64.630,"magvar":-10.8,"speed":0.000,"climb":0.000,"epc":106.26,"ecefx":1113943.25,"ecefy":-4843365.73,"ecefz":3984336.02,"ecefvx":0.00,"ecefvy":0.00,"ecefvz":0.00,"geoidSep":-34.809,"eph":26.030,"sep":59.470}
{"class":"SKY","gdop":3.51,"hdop":1.37,"pdop":3.13,"tdop":1.58,"vdop":2.81}
{"class":"TPV","mode":3,"time":"2023-04-18T19:54:37.000Z","ept":0.005,"lat":38.907352800,"lon":-77.047582200,"altHAE":27.5700,"altMSL":62.4700,"alt":62.4700,"epv":64.630,"magvar":-10.8,"speed":0.000,"climb":0.000,"epc":129.26,"ecefx":1113943.25,"ecefy":-4843365.73,"ecefz":3984336.02,"ecefvx":0.00,"ecefvy":0.00,"ecefvz":0.00,"geoidSep":-34.809,"eph":26.030,"sep":59.470}
{"class":"SKY","gdop":3.51,"hdop":1.37,"pdop":3.13,"tdop":1.58,"vdop":2.81}
{"class":"TPV","mode":3,"time":"2023-04-18T19:54:37.000Z","ept":0.005,"lat":38.907352800,"lon":-77.047582200,"altHAE":27.5700,"altMSL":62.4700,"alt":62.4700,"epv":64.630,"magvar":-10.8,"speed":0.000,"climb":0.000,"epc":129.26,"ecefx":1113943.25,"ecefy":-4843365.73,"ecefz":3984336.02,"ecefvx":0.00,"ecefvy":0.00,"ecefvz":0.00,"geoidSep":-34.809,"eph":26.030,"sep":59.280}
{"class":"SKY","gdop":3.51,"hdop":1.37,"pdop":3.12,"tdop":1.58,"vdop":2.81}
{"class":"TPV","mode":3,"time":"2023-04-18T19:54:38.000Z","ept":0.005,"lat":38.907352800,"lon":-77.047582200,"altHAE":27.5700,"altMSL":62.4700,"alt":62.4700,"epv":64.630,"magvar":-10.8,"speed":0.000,"climb":0.000,"epc":129.26,"ecefx":1113943.25,"ecefy":-4843365.73,"ecefz":3984336.02,"ecefvx":0.00,"ecefvy":0.00,"ecefvz":0.00,"geoidSep":-34.809,"eph":26.030,"sep":59.280}
{"class":"SKY","gdop":3.51,"hdop":1.37,"pdop":3.12,"tdop":1.58,"vdop":2.81}
{"class":"TPV","mode":3,"time":"2023-04-18T19:54:38.000Z","ept":0.005,"lat":38.907352800,"lon":-77.047582200,"altHAE":27.5700,"altMSL":62.4700,"alt":62.4700,"epv":64.630,"magvar":-10.8,"speed":0.000,"climb":0.000,"epc":129.26,"ecefx":1113943.25,"ecefy":-4843365.73,"ecefz":3984336.02,"ecefvx":0.00,"ecefvy":0.00,"ecefvz":0.00,"geoidSep":-34.809,"eph":26.030,"sep":59.280}
{"class":"SKY","gdop":3.50,"hdop":1.37,"pdop":3.12,"tdop":1.58,"vdop":2.81}
{"class":"TPV","mode":3,"time":"2023-04-18T19:54:39.000Z","ept":0.005,"lat":38.907352800,"lon":-77.047582200,"altHAE":27.5700,"altMSL":62.4700,"alt":62.4700,"epv":64.630,"magvar":-10.8,"speed":0.000,"climb":0.000,"epc":129.26,"ecefx":1113943.25,"ecefy":-4843365.73,"ecefz":3984336.02,"ecefvx":0.00,"ecefvy":0.00,"ecefvz":0.00,"geoidSep":-34.809,"eph":26.030,"sep":59.280}
{"class":"SKY","gdop":3.50,"hdop":1.37,"pdop":3.12,"tdop":1.58,"vdop":2.81}
{"class":"TPV","mode":3,"time":"2023-04-18T19:54:39.000Z","ept":0.005,"lat":38.907352800,"lon":-77.047582200,"altHAE":27.5700,"altMSL":62.4700,"alt":62.4700,"epv":64.630,"magvar":-10.8,"speed":0.000,"climb":0.000,"epc":129.26,"ecefx":1113943.25,"ecefy":-4843365.73,"ecefz":3984336.02,"ecefvx":0.00,"ecefvy":0.00,"ecefvz":0.00,"geoidSep":-34.809,"eph":26.030,"sep":59.280}
{"class":"SKY","gdop":3.50,"hdop":1.37,"pdop":3.12,"tdop":1.58,"vdop":2.81}
{"class":"TPV","mode":3,"time":"2023-04-18T19:54:40.000Z","ept":0.005,"lat":38.907352800,"lon":-77.047582200,"altHAE":27.5700,"altMSL":62.4700,"alt":62.4700,"epv":64.630,"magvar":-10.8,"speed":0.000,"climb":0.000,"epc":129.26,"ecefx":1113943.25,"ecefy":-4843365.73,"ecefz":3984336.02,"ecefvx":0.00,"ecefvy":0.00,"ecefvz":0.00,"geoidSep":-34.809,"eph":26.030,"sep":59.280}
{"class":"SKY","gdop":3.50,"hdop":1.37,"pdop":3.12,"tdop":1.58,"vdop":2.81}
{"class":"TPV","mode":3,"time":"2023-04-18T19:54:40.000Z","ept":0.005,"lat":38.907352800,"lon":-77.047582200,"altHAE":27.5700,"altMSL":62.4700,"alt":62.4700,"epv":64.400,"magvar":-10.8,"speed":0.000,"climb":0.000,"epc":129.03,"ecefx":1113943.25,"ecefy":-4843365.73,"ecefz":3984336.02,"ecefvx":0.00,"ecefvy":0.00,"ecefvz":0.00,"geoidSep":-34.809,"eph":26.030,"sep":59.280}
{"class":"SKY","gdop":3.50,"hdop":1.37,"pdop":3.12,"tdop":1.58,"vdop":2.80}
{"class":"TPV","mode":3,"time":"2023-04-18T19:54:41.000Z","ept":0.005,"lat":38.907352800,"lon":-77.047582200,"altHAE":27.5700,"altMSL":62.4700,"alt":62.4700,"epv":64.400,"magvar":-10.8,"speed":0.000,"climb":0.000,"epc":128.80,"ecefx":1113943.25,"ecefy":-4843365.73,"ecefz":3984336.02,"ecefvx":0.00,"ecefvy":0.00,"ecefvz":0.00,"geoidSep":-34.809,"eph":26.030,"sep":59.280}
{"class":"SKY","gdop":3.50,"hdop":1.37,"pdop":3.12,"tdop":1.58,"vdop":2.80}
{"class":"TPV","mode":3,"time":"2023-04-18T19:54:41.000Z","ept":0.005,"lat":38.907352800,"lon":-77.047582200,"altHAE":27.5700,"altMSL":62.4700,"alt":62.4700,"epv":64.400,"magvar":-10.8,"speed":0.000,"climb":0.000,"epc":128.80,"ecefx":1113943.25,"ecefy":-4843365.73,"ecefz":3984336.02,"ecefvx":0.00,"ecefvy":0.00,"ecefvz":0.00,"geoidSep":-34.809,"eph":26.030,"sep":59.280}
{"class":"SKY","gdop":3.50,"hdop":1.37,"pdop":3.12,"tdop":1.58,"vdop":2.80}
{"class":"TPV","mode":3,"time":"2023-04-18T19:54:42.000Z","ept":0.005,"lat":38.907352800,"lon":-77.047582200,"altHAE":27.5700,"altMSL":62.4700,"alt":62.4700,"epv":64.400,"magvar":-10.8,"speed":0.000,"climb":0.000,"epc":128.80,"ecefx":1113943.25,"ecefy":-4843365.73,"ecefz":3984336.02,"ecefvx":0.00,"ecefvy":0.00,"ecefvz":0.00,"geoidSep":-34.809,"eph":26.030,"sep":59.280}
{"class":"SKY","gdop":3.50,"hdop":1.37,"pdop":3.12,"tdop":1.58,"vdop":2.80}
{"class":"TPV","mode":3,"time":"2023-04-18T19:54:42.000Z","ept":0.005,"lat":38.907352800,"lon":-77.047582200,"altHAE":27.5700,"altMSL":62.4700,"alt":62.4700,"epv":64.400,"magvar":-10.8,"speed":0.000,"climb":0.000,"epc":128.80,"ecefx":1113943.25,"ecefy":-4843365.73,"ecefz":3984336.02,"ecefvx":0.00,"ecefvy":0.00,"ecefvz":0.00,"geoidSep":-34.809,"eph":26.030,"sep":59.280}
{"class":"SKY","gdop":3.50,"hdop":1.37,"pdop":3.12,"tdop":1.58,"vdop":2.80}
{"class":"TPV","mode":3,"time":"2023-04-18T19:54:43.000Z","ept":0.005,"lat":38.907352800,"lon":-77.047582200,"altHAE":27.5700,"altMSL":62.4700,"alt":62.4700,"epv":64.400,"magvar":-10.8,"speed":0.000,"climb":0.000,"epc":128.80,"ecefx":1113943.25,"ecefy":-4843365.73,"ecefz":3984336.02,"ecefvx":0.00,"ecefvy":0.00,"ecefvz":0.00,"geoidSep":-34.809,"eph":26.030,"sep":59.280}
{"class":"SKY","gdop":3.50,"hdop":1.37,"pdop":3.12,"tdop":1.58,"vdop":2.80}
{"class":"TPV","mode":3,"time":"2023-04-18T19:54:43.000Z","ept":0.005,"lat":38.907352800,"lon":-77.047582200,"altHAE":27.5700,"altMSL":62.4700,"alt":62.4700,"epv":64.400,"magvar":-10.8,"speed":0.000,"climb":0.000,"epc":128.80,"ecefx":1113943.25,"ecefy":-4843365.73,"ecefz":3984336.02,"ecefvx":0.00,"ecefvy":0.00,"ecefvz":0.00,"geoidSep":-34.809,"eph":26.030,"sep":59.280}
{"class":"SKY","gdop":3.50,"hdop":1.37,"pdop":3.12,"tdop":1.58,"vdop":2.80}
{"class":"TPV","mode":3,"time":"2023-04-18T19:54:44.000Z","ept":0.005,"lat":38.907352800,"lon":-77.047582200,"altHAE":27.5700,"altMSL":62.4700,"alt":62.4700,"epv":64.400,"magvar":-10.8,"speed":0.000,"climb":0.000,"epc":128.80,"ecefx":1113943.25,"ecefy":-4843365.73,"ecefz":3984336.02,"ecefvx":0.00,"ecefvy":0.00,"ecefvz":0.00,"geoidSep":-34.809,"eph":26.030,"sep":59.280}
{"class":"SKY","gdop":3.50,"hdop":1.37,"pdop":3.12,"tdop":1.58,"vdop":2.80}
{"class":"TPV","mode":3,"time":"2023-04-18T19:54:44.000Z","ept":0.005,"lat":38.907352800,"lon":-77.047582200,"altHAE":27.5700,"altMSL":62.4700,"alt":62.4700,"epv":64.400,"magvar":-10.8,"speed":0.000,"climb":0.000,"epc":128.80,"ecefx":1113943.25,"ecefy":-4843365.73,"ecefz":3984336.02,"ecefvx":0.00,"ecefvy":0.00,"ecefvz":0.00,"geoidSep":-34.809,"eph":26.030,"sep":59.280}
{"class":"SKY","gdop":3.50,"hdop":1.37,"pdop":3.12,"tdop":1.58,"vdop":2.80}
{"class":"TPV","mode":3,"time":"2023-04-18T19:54:45.000Z","ept":0.005,"lat":38.907352800,"lon":-77.047582200,"altHAE":27.5700,"altMSL":62.4700,"alt":62.4700,"epv":64.400,"magvar":-10.8,"speed":0.000,"climb":0.000,"epc":128.80,"ecefx":1113943.25,"ecefy":-4843365.73,"ecefz":3984336.02,"ecefvx":0.00,"ecefvy":0.00,"ecefvz":0.00,"geoidSep":-34.809,"eph":26.030,"sep":59.280}
{"class":"SKY","gdop":3.50,"hdop":1.37,"pdop":3.12,"tdop":1.58,"vdop":2.80}
{"class":"TPV","mode":3,"time":"2023-04-18T19:54:45.000Z","ept":0.005,"lat":38.907352800,"lon":-77.047582200,"altHAE":27.5700,"altMSL":62.4700,"alt":62.4700,"epv":64.400,"magvar":-10.8,"speed":0.000,"climb":0.000,"epc":128.80,"ecefx":1113943.25,"ecefy":-4843365.73,"ecefz":3984336.02,"ecefvx":0.00,"ecefvy":0.00,"ecefvz":0.00,"geoidSep":-34.809,"eph":26.030,"sep":59.280}
{"class":"SKY","gdop":3.50,"hdop":1.37,"pdop":3.12,"tdop":1.58,"vdop":2.80}
{"class":"TPV","mode":3,"time":"2023-04-18T19:54:46.000Z","ept":0.005,"lat":38.907352800,"lon":-77.047582200,"altHAE":27.5700,"altMSL":62.4700,"alt":62.4700,"epv":64.400,"magvar":-10.8,"speed":0.000,"climb":0.000,"epc":128.80,"ecefx":1113943.25,"ecefy":-4843365.73,"ecefz":3984336.02,"ecefvx":0.00,"ecefvy":0.00,"ecefvz":0.00,"geoidSep":-34.809,"eph":26.030,"sep":59.280}
{"class":"SKY","gdop":3.50,"hdop":1.37,"pdop":3.12,"tdop":1.58,"vdop":2.80}
{"class":"TPV","mode":3,"time":"2023-04-18T19:54:46.000Z","ept":0.005,"lat":38.907352800,"lon":-77.047582200,"altHAE":27.5700,"altMSL":62.4700,"alt":62.4700,"epv":71.760,"magvar":-10.8,"speed":0.000,"climb":0.000,"epc":136.16,"ecefx":1113943.25,"ecefy":-4843365.73,"ecefz":3984336.02,"ecefvx":0.00,"ecefvy":0.00,"ecefvz":0.00,"geoidSep":-34.809,"eph":26.410,"sep":64.980}
{"class":"SKY","gdop":3.87,"hdop":1.39,"pdop":3.42,"tdop":1.81,"vdop":3.12}
{"class":"TPV","mode":3,"time":"2023-04-18T19:54:47.000Z","ept":0.005,"lat":38.907352800,"lon":-77.047582200,"altHAE":27.5700,"altMSL":62.4700,"alt":62.4700,"epv":71.760,"magvar":-10.8,"speed":0.000,"climb":0.000,"epc":143.52,"ecefx":1113943.25,"ecefy":-4843365.73,"ecefz":3984336.02,"ecefvx":0.00,"ecefvy":0.00,"ecefvz":0.00,"geoidSep":-34.809,"eph":26.410,"sep":64.980}
{"class":"SKY","gdop":3.87,"hdop":1.39,"pdop":3.42,"tdop":1.81,"vdop":3.12}
{"class":"TPV","mode":3,"time":"2023-04-18T19:54:47.000Z","ept":0.005,"lat":38.907352800,"lon":-77.047582200,"altHAE":27.5700,"altMSL":62.4700,"alt":62.4700,"epv":71.760,"magvar":-10.8,"speed":0.000,"climb":0.000,"epc":143.52,"ecefx":1113943.25,"ecefy":-4843365.73,"ecefz":3984336.02,"ecefvx":0.00,"ecefvy":0.00,"ecefvz":0.00,"geoidSep":-34.809,"eph":26.410,"sep":64.980}
{"class":"SKY","gdop":3.87,"hdop":1.39,"pdop":3.42,"tdop":1.80,"vdop":3.12}
{"class":"TPV","mode":3,"time":"2023-04-18T19:54:48.000Z","ept":0.005,"lat":38.907352800,"lon":-77.047582200,"altHAE":27.5700,"altMSL":62.4700,"alt":62.4700,"epv":71.760,"magvar":-10.8,"speed":0.000,"climb":0.000,"epc":143.52,"ecefx":1113943.25,"ecefy":-4843365.73,"ecefz":3984336.02,"ecefvx":0.00,"ecefvy":0.00,"ecefvz":0.00,"geoidSep":-34.809,"eph":26.410,"sep":64.980}
{"class":"SKY","gdop":3.87,"hdop":1.39,"pdop":3.42,"tdop":1.80,"vdop":3.12}
{"class":"TPV","mode":3,"time":"2023-04-18T19:54:48.000Z","ept":0.005,"lat":38.907352800,"lon":-77.047582200,"altHAE":27.5700,"altMSL":62.4700,"alt":62.4700,"epv":71.760,"magvar":-10.8,"speed":0.000,"climb":0.000,"epc":143.52,"ecefx":1113943.25,"ecefy":-4843365.73,"ecefz":3984336.02,"ecefvx":0.00,"ecefvy":0.00,"ecefvz":0.00,"geoidSep":-34.809,"eph":26.410,"sep":64.980}
{"class":"SKY","gdop":3.87,"hdop":1.39,"pdop":3.42,"tdop":1.80,"vdop":3.12}
{"class":"TPV","mode":3,"time":"2023-04-18T19:54:49.000Z","ept":0.005,"lat":38.907352800,"lon":-77.047582200,"altHAE":27.5700,"altMSL":62.4700,"alt":62.4700,"epv":71.760,"magvar":-10.8,"speed":0.000,"climb":0.000,"epc":143.52,"ecefx":1113943.25,"ecefy":-4843365.73,"ecefz":3984336.02,"ecefvx":0.00,"ecefvy":0.00,"ecefvz":0.00,"geoidSep":-34.809,"eph":26.410,"sep":64.980}
{"class":"SKY","gdop":3.87,"hdop":1.39,"pdop":3.42,"tdop":1.80,"vdop":3.12}
{"class":"TPV","mode":3,"time":"2023-04-18T19:54:49.000Z","ept":0.005,"lat":38.907352800,"lon":-77.047582200,"altHAE":27.5700,"altMSL":62.4700,"alt":62.4700,"epv":71.760,"magvar":-10.8,"speed":0.000,"climb":0.000,"epc":143.52,"ecefx":1113943.25,"ecefy":-4843365.73,"ecefz":3984336.02,"ecefvx":0.00,"ecefvy":0.00,"ecefvz":0.00,"geoidSep":-34.809,"eph":26.410,"sep":64.980}
{"class":"SKY","gdop":3.87,"hdop":1.39,"pdop":3.42,"tdop":1.80,"vdop":3.12}
{"class":"TPV","mode":3,"time":"2023-04-18T19:54:50.000Z","ept":0.005,"lat":38.907352800,"lon":-77.047582200,"altHAE":27.5700,"altMSL":62.4700,"alt":62.4700,"epv":71.760,"magvar":-10.8,"speed":0.000,"climb":0.000,"epc":143.52,"ecefx":1113943.25,"ecefy":-4843365.73,"ecefz":3984336.02,"ecefvx":0.00,"ecefvy":0.00,"ecefvz":0.00,"geoidSep":-34.809,"eph":26.410,"sep":64.980}
{"class":"SKY","gdop":3.87,"hdop":1.39,"pdop":3.42,"tdop":1.80,"vdop":3.12}
{"class":"TPV","mode":3,"time":"2023-04-18T19:54:50.000Z","ept":0.005,"lat":38.907352800,"lon":-77.047582200,"altHAE":27.5700,"altMSL":62.4700,"alt":62.4700,"epv":71.760,"magvar":-10.8,"speed":0.000,"climb":0.000,"epc":143.52,"ecefx":1113943.25,"ecefy":-4843365.73,"ecefz":3984336.02,"ecefvx":0.00,"ecefvy":0.00,"ecefvz":0.00,"geoidSep":-34.809,"eph":26.410,"sep":64.980}
{"class":"SKY","gdop":3.87,"hdop":1.39,"pdop":3.42,"tdop":1.80,"vdop":3.12}
{"class":"TPV","mode":3,"time":"2023-04-18T19:54:51.000Z","ept":0.005,"lat":38.907352800,"lon":-77.047582200,"altHAE":27.5700,"altMSL":62.4700,"alt":62.4700,"epv":71.760,"magvar":-10.8,"speed":0.000,"climb":0.000,"epc":143.52,"ecefx":1113943.25,"ecefy":-4843365.73,"ecefz":3984336.02,"ecefvx":0.00,"ecefvy":0.00,"ecefvz":0.00,"geoidSep":-34.809,"eph":26.410,"sep":64.980}
{"class":"SKY","gdop":3.87,"hdop":1.39,"pdop":3.42,"tdop":1.80,"vdop":3.12}
{"class":"TPV","mode":3,"time":"2023-04-18T19:54:51.000Z","ept":0.005,"lat":38.907352800,"lon":-77.047582200,"altHAE":27.5700,"altMSL":62.4700,"alt":62.4700,"epv":71.760,"magvar":-10.8,"speed":0.000,"climb":0.000,"epc":143.52,"ecefx":1113943.25,"ecefy":-4843365.73,"ecefz":3984336.02,"ecefvx":0.00,"ecefvy":0.00,"ecefvz":0.00,"geoidSep":-34.809,"eph":26.410,"sep":64.980}
{"class":"SKY","gdop":3.87,"hdop":1.39,"pdop":3.42,"tdop":1.80,"vdop":3.12}
{"class":"TPV","mode":3,"time":"2023-04-18T19:54:52.000Z","ept":0.005,"lat":38.907352800,"lon":-77.047582200,"altHAE":27.5700,"altMSL":62.4700,"alt":62.4700,"epv":71.760,"magvar":-10.8,"speed":0.000,"climb":0.000,"epc":143.52,"ecefx":1113943.25,"ecefy":-4843365.73,"ecefz":3984336.02,"ecefvx":0.00,"ecefvy":0.00,"ecefvz":0.00,"geoidSep":-34.809,"eph":26.410,"sep":64.980}
{"class":"SKY","gdop":3.87,"hdop":1.39,"pdop":3.42,"tdop":1.80,"vdop":3.12}
{"class":"TPV","mode":3,"time":"2023-04-18T19:54:52.000Z","ept":0.005,"lat":38.907352800,"lon":-77.047582200,"altHAE":27.5700,"altMSL":62.4700,"alt":62.4700,"epv":71.760,"magvar":-10.8,"speed":0.000,"climb":0.000,"epc":143.52,"ecefx":1113943.25,"ecefy":-4843365.73,"ecefz":3984336.02,"ecefvx":0.00,"ecefvy":0.00,"ecefvz":0.00,"geoidSep":-34.809,"eph":26.410,"sep":64.980}
{"class":"SKY","gdop":3.87,"hdop":1.39,"pdop":3.42,"tdop":1.80,"vdop":3.12}
{"class":"TPV","mode":3,"time":"2023-04-18T19:54:53.000Z","ept":0.005,"lat":38.907352800,"lon":-77.047582200,"altHAE":27.5700,"altMSL":62.4700,"alt":62.4700,"epv":71.760,"magvar":-10.8,"speed":0.000,"climb":0.000,"epc":143.52,"ecefx":1113943.25,"ecefy":-4843365.73,"ecefz":3984336.02,"ecefvx":0.00,"ecefvy":0.00,"ecefvz":0.00,"geoidSep":-34.809,"eph":26.410,"sep":64.980}
{"class":"SKY","gdop":3.86,"hdop":1.39,"pdop":3.42,"tdop":1.80,"vdop":3.12}
{"class":"TPV","mode":3,"time":"2023-04-18T19:54:53.000Z","ept":0.005,"lat":38.907352800,"lon":-77.047582200,"altHAE":27.5700,"altMSL":62.4700,"alt":62.4700,"epv":71.760,"magvar":-10.8,"speed":0.000,"climb":0.000,"epc":143.52,"ecefx":1113943.25,"ecefy":-4843365.73,"ecefz":3984336.02,"ecefvx":0.00,"ecefvy":0.00,"ecefvz":0.00,"geoidSep":-34.809,"eph":26.410,"sep":64.980}
{"class":"SKY","gdop":3.86,"hdop":1.39,"pdop":3.42,"tdop":1.80,"vdop":3.12}
{"class":"TPV","mode":3,"time":"2023-04-18T19:54:54.000Z","ept":0.005,"lat":38.907352800,"lon":-77.047582200,"altHAE":27.5700,"altMSL":62.4700,"alt":62.4700,"epv":71.760,"magvar":-10.8,"speed":0.000,"climb":0.000,"epc":143.52,"ecefx":1113943.25,"ecefy":-4843365.73,"ecefz":3984336.02,"ecefvx":0.00,"ecefvy":0.00,"ecefvz":0.00,"geoidSep":-34.809,"eph":26.410,"sep":64.980}
{"class":"SKY","gdop":3.86,"hdop":1.39,"pdop":3.42,"tdop":1.80,"vdop":3.12}
{"class":"TPV","mode":3,"time":"2023-04-18T19:54:54.000Z","ept":0.005,"lat":38.907352800,"lon":-77.047582200,"altHAE":27.5700,"altMSL":62.4700,"alt":62.4700,"epv":71.760,"magvar":-10.8,"speed":0.000,"climb":0.000,"epc":143.52,"ecefx":1113943.25,"ecefy":-4843365.73,"ecefz":3984336.02,"ecefvx":0.00,"ecefvy":0.00,"ecefvz":0.00,"geoidSep":-34.809,"eph":26.410,"sep":64.980}
{"class":"SKY","gdop":3.86,"hdop":1.39,"pdop":3.42,"tdop":1.80,"vdop":3.12}
{"class":"TPV","mode":3,"time":"2023-04-18T19:54:55.000Z","ept":0.005,"lat":38.907352800,"lon":-77.047582200,"altHAE":27.5700,"altMSL":62.4700,"alt":62.4700,"epv":71.760,"magvar":-10.8,"speed":0.000,"climb":0.000,"epc":143.52,"ecefx":1113943.25,"ecefy":-4843365.73,"ecefz":3984336.02,"ecefvx":0.00,"ecefvy":0.00,"ecefvz":0.00,"geoidSep":-34.809,"eph":26.410,"sep":64.980}
{"class":"SKY","gdop":3.86,"hdop":1.39,"pdop":3.42,"tdop":1.80,"vdop":3.12}
