$GPGGA,212406.000,0000.0000000,N,00000.0000000,E,0,00,0.0,0.000,M,0.000,M,,0000*6E
{"class":"TPV","mode":1}
{"class":"SKY","hdop":0.00}
$GPGLL,0000.0000000,N,00000.0000000,E,212406.000,V,N*42
{"class":"TPV","mode":1}
$GPGSA,A,1,,,,,,,,,,,,,0.0,0.0,0.0*30
{"class":"TPV","mode":1}
{"class":"SKY","vdop":0.00,"hdop":0.00,"pdop":0.00}
$BDGSA,A,1,,,,,,,,,,,,,0.0,0.0,0.0*21
{"class":"TPV","mode":1}
{"class":"SKY","vdop":0.00,"hdop":0.00,"pdop":0.00}
$GPRMC,212406.000,V,0000.0000000,N,00000.0000000,E,000.0,000.0,280316,,,N*7B
{"class":"TPV","mode":1}
$GPVTG,000.0,T,,M,000.0,N,000.0,K,N*02
$GPZDA,212406.000,28,03,2016,00,00*59
$GPGST,212406.000,,,,,,,*4A
{"class":"GST","time":"2035-11-12T21:24:06.000Z"}
$PSTI,030,212406.000,V,0000.0000000,N,00000.0000000,E,0.000,0.00,0.00,0.00,280316,N,0.0,0.0*01
{"class":"TPV","mode":1,"time":"2035-11-12T21:24:06.000Z","ept":0.005}
$GPGGA,212407.000,0000.0000000,N,00000.0000000,E,0,00,0.0,0.000,M,0.000,M,,0000*6F
{"class":"SKY","vdop":0.00,"hdop":0.00,"pdop":0.00}
$GPGLL,0000.0000000,N,00000.0000000,E,212407.000,V,N*43
$GPGSA,A,1,,,,,,,,,,,,,0.0,0.0,0.0*30
$BDGSA,A,1,,,,,,,,,,,,,0.0,0.0,0.0*21
{"class":"SKY","vdop":0.00,"hdop":0.00,"pdop":0.00}
$GPRMC,212407.000,V,0000.0000000,N,00000.0000000,E,000.0,000.0,280316,,,N*7A
$GPVTG,000.0,T,,M,000.0,N,000.0,K,N*02
$GPZDA,212407.000,28,03,2016,00,00*58
{"class":"TPV","mode":1,"time":"2035-11-12T21:24:07.000Z","ept":0.005}
$GPGST,212407.000,,,,,,,*4B
{"class":"TPV","mode":1,"time":"2035-11-12T21:24:07.000Z","ept":0.005}
{"class":"GST","time":"2035-11-12T21:24:07.000Z"}
$PSTI,030,212407.000,V,0000.0000000,N,00000.0000000,E,0.000,0.00,0.00,0.00,280316,N,0.0,0.0*00
{"class":"TPV","mode":1,"time":"2035-11-12T21:24:07.000Z","ept":0.005}
$GPGGA,212408.000,0000.0000000,N,00000.0000000,E,0,00,0.0,0.000,M,0.000,M,,0000*60
{"class":"SKY","vdop":0.00,"hdop":0.00,"pdop":0.00}
$GPGLL,0000.0000000,N,00000.0000000,E,212408.000,V,N*4C
$GPGSA,A,1,,,,,,,,,,,,,0.0,0.0,0.0*30
$BDGSA,A,1,,,,,,,,,,,,,0.0,0.0,0.0*21
{"class":"SKY","vdop":0.00,"hdop":0.00,"pdop":0.00}
$GPGSV,1,1,02,23,00,000,30,09,00,000,24*76
$GPRMC,212408.000,V,0000.0000000,N,00000.0000000,E,000.0,000.0,280316,,,N*75
$GPVTG,000.0,T,,M,000.0,N,000.0,K,N*02
$GPZDA,212408.000,28,03,2016,00,00*57
{"class":"TPV","mode":1,"time":"2035-11-12T21:24:08.000Z","ept":0.005}
$GPGST,212408.000,,,,,,,*44
{"class":"TPV","mode":1,"time":"2035-11-12T21:24:08.000Z","ept":0.005}
{"class":"GST","time":"2035-11-12T21:24:08.000Z"}
$PSTI,030,212408.000,V,0000.0000000,N,00000.0000000,E,0.000,0.00,0.00,0.00,280316,N,0.0,0.0*0F
{"class":"TPV","mode":1,"time":"2035-11-12T21:24:08.000Z","ept":0.005}
$GPGGA,212409.000,0000.0000000,N,00000.0000000,E,0,00,0.0,0.000,M,0.000,M,,0000*61
{"class":"SKY","vdop":0.00,"hdop":0.00,"pdop":0.00}
$GPGLL,0000.0000000,N,00000.0000000,E,212409.000,V,N*4D
$GPGSA,A,1,,,,,,,,,,,,,0.0,0.0,0.0*30
$BDGSA,A,1,,,,,,,,,,,,,0.0,0.0,0.0*21
{"class":"SKY","vdop":0.00,"hdop":0.00,"pdop":0.00}
$GPRMC,212409.000,V,0000.0000000,N,00000.0000000,E,000.0,000.0,280316,,,N*74
$GPVTG,000.0,T,,M,000.0,N,000.0,K,N*02
$GPZDA,212409.000,28,03,2016,00,00*56
{"class":"TPV","mode":1,"time":"2035-11-12T21:24:09.000Z","ept":0.005}
$GPGST,212409.000,,,,,,,*45
{"class":"TPV","mode":1,"time":"2035-11-12T21:24:09.000Z","ept":0.005}
{"class":"GST","time":"2035-11-12T21:24:09.000Z"}
$PSTI,030,212409.000,V,0000.0000000,N,00000.0000000,E,0.000,0.00,0.00,0.00,280316,N,0.0,0.0*0E
{"class":"TPV","mode":1,"time":"2035-11-12T21:24:09.000Z","ept":0.005}
$GPGGA,212410.000,0000.0000000,N,00000.0000000,E,0,00,0.0,0.000,M,0.000,M,,0000*69
{"class":"SKY","vdop":0.00,"hdop":0.00,"pdop":0.00}
$GPGLL,0000.0000000,N,00000.0000000,E,212410.000,V,N*45
$GPGSA,A,1,,,,,,,,,,,,,0.0,0.0,0.0*30
$BDGSA,A,1,,,,,,,,,,,,,0.0,0.0,0.0*21
{"class":"SKY","vdop":0.00,"hdop":0.00,"pdop":0.00}
$GPRMC,212410.000,V,0000.0000000,N,00000.0000000,E,000.0,000.0,280316,,,N*7C
$GPVTG,000.0,T,,M,000.0,N,000.0,K,N*02
$GPZDA,212410.000,28,03,2016,00,00*5E
{"class":"TPV","mode":1,"time":"2035-11-12T21:24:10.000Z","ept":0.005}
$GPGST,212410.000,,,,,,,*4D
{"class":"TPV","mode":1,"time":"2035-11-12T21:24:10.000Z","ept":0.005}
{"class":"GST","time":"2035-11-12T21:24:10.000Z"}
$PSTI,030,212410.000,V,0000.0000000,N,00000.0000000,E,0.000,0.00,0.00,0.00,280316,N,0.0,0.0*06
{"class":"TPV","mode":1,"time":"2035-11-12T21:24:10.000Z","ept":0.005}
$GPGGA,212411.000,0000.0000000,N,00000.0000000,E,0,00,0.0,0.000,M,0.000,M,,0000*68
{"class":"SKY","vdop":0.00,"hdop":0.00,"pdop":0.00}
$GPGLL,0000.0000000,N,00000.0000000,E,212411.000,V,N*44
$GPGSA,A,1,,,,,,,,,,,,,0.0,0.0,0.0*30
$BDGSA,A,1,,,,,,,,,,,,,0.0,0.0,0.0*21
{"class":"SKY","vdop":0.00,"hdop":0.00,"pdop":0.00}
$GPGSV,1,1,02,23,00,000,30,09,00,000,24*76
$GPRMC,212411.000,V,0000.0000000,N,00000.0000000,E,000.0,000.0,280316,,,N*7D
$GPVTG,000.0,T,,M,000.0,N,000.0,K,N*02
$GPZDA,212411.000,28,03,2016,00,00*5F
{"class":"TPV","mode":1,"time":"2035-11-12T21:24:11.000Z","ept":0.005}
$GPGST,212411.000,,,,,,,*4C
{"class":"TPV","mode":1,"time":"2035-11-12T21:24:11.000Z","ept":0.005}
{"class":"GST","time":"2035-11-12T21:24:11.000Z"}
$PSTI,030,212411.000,V,0000.0000000,N,00000.0000000,E,0.000,0.00,0.00,0.00,280316,N,0.0,0.0*07
{"class":"TPV","mode":1,"time":"2035-11-12T21:24:11.000Z","ept":0.005}
$GPGGA,212412.000,0000.0000000,N,00000.0000000,E,0,00,0.0,0.000,M,0.000,M,,0000*6B
{"class":"SKY","vdop":0.00,"hdop":0.00,"pdop":0.00}
$GPGLL,0000.0000000,N,00000.0000000,E,212412.000,V,N*47
$GPGSA,A,1,,,,,,,,,,,,,0.0,0.0,0.0*30
$BDGSA,A,1,,,,,,,,,,,,,0.0,0.0,0.0*21
{"class":"SKY","vdop":0.00,"hdop":0.00,"pdop":0.00}
$GPRMC,212412.000,V,0000.0000000,N,00000.0000000,E,000.0,000.0,280316,,,N*7E
$GPVTG,000.0,T,,M,000.0,N,000.0,K,N*02
$GPZDA,212412.000,28,03,2016,00,00*5C
{"class":"TPV","mode":1,"time":"2035-11-12T21:24:12.000Z","ept":0.005}
$GPGST,212412.000,,,,,,,*4F
{"class":"TPV","mode":1,"time":"2035-11-12T21:24:12.000Z","ept":0.005}
{"class":"GST","time":"2035-11-12T21:24:12.000Z"}
$PSTI,030,212412.000,V,0000.0000000,N,00000.0000000,E,0.000,0.00,0.00,0.00,280316,N,0.0,0.0*04
{"class":"TPV","mode":1,"time":"2035-11-12T21:24:12.000Z","ept":0.005}
$GPGGA,212413.000,0000.0000000,N,00000.0000000,E,0,00,0.0,0.000,M,0.000,M,,0000*6A
{"class":"SKY","vdop":0.00,"hdop":0.00,"pdop":0.00}
$GPGLL,0000.0000000,N,00000.0000000,E,212413.000,V,N*46
$GPGSA,A,1,,,,,,,,,,,,,0.0,0.0,0.0*30
$BDGSA,A,1,,,,,,,,,,,,,0.0,0.0,0.0*21
{"class":"SKY","vdop":0.00,"hdop":0.00,"pdop":0.00}
$GPRMC,212413.000,V,0000.0000000,N,00000.0000000,E,000.0,000.0,280316,,,N*7F
$GPVTG,000.0,T,,M,000.0,N,000.0,K,N*02
$GPZDA,212413.000,28,03,2016,00,00*5D
{"class":"TPV","mode":1,"time":"2035-11-12T21:24:13.000Z","ept":0.005}
$GPGST,212413.000,,,,,,,*4E
{"class":"TPV","mode":1,"time":"2035-11-12T21:24:13.000Z","ept":0.005}
{"class":"GST","time":"2035-11-12T21:24:13.000Z"}
$PSTI,030,212413.000,V,0000.0000000,N,00000.0000000,E,0.000,0.00,0.00,0.00,280316,N,0.0,0.0*05
{"class":"TPV","mode":1,"time":"2035-11-12T21:24:13.000Z","ept":0.005}
$GPGGA,212414.000,0000.0000000,N,00000.0000000,E,0,00,0.0,0.000,M,0.000,M,,0000*6D
{"class":"SKY","vdop":0.00,"hdop":0.00,"pdop":0.00}
$GPGLL,0000.0000000,N,00000.0000000,E,212414.000,V,N*41
$GPGSA,A,1,,,,,,,,,,,,,0.0,0.0,0.0*30
$BDGSA,A,1,,,,,,,,,,,,,0.0,0.0,0.0*21
{"class":"SKY","vdop":0.00,"hdop":0.00,"pdop":0.00}
$GPGSV,1,1,02,23,00,000,31,09,00,000,24*77
$GPRMC,212414.000,V,0000.0000000,N,00000.0000000,E,000.0,000.0,280316,,,N*78
$GPVTG,000.0,T,,M,000.0,N,000.0,K,N*02
$GPZDA,212414.000,28,03,2016,00,00*5A
{"class":"TPV","mode":1,"time":"2035-11-12T21:24:14.000Z","ept":0.005}
$GPGST,212414.000,,,,,,,*49
{"class":"TPV","mode":1,"time":"2035-11-12T21:24:14.000Z","ept":0.005}
{"class":"GST","time":"2035-11-12T21:24:14.000Z"}
$PSTI,030,212414.000,V,0000.0000000,N,00000.0000000,E,0.000,0.00,0.00,0.00,280316,N,0.0,0.0*02
{"class":"TPV","mode":1,"time":"2035-11-12T21:24:14.000Z","ept":0.005}
$GPGGA,212415.000,0000.0000000,N,00000.0000000,E,0,00,0.0,0.000,M,0.000,M,,0000*6C
{"class":"SKY","vdop":0.00,"hdop":0.00,"pdop":0.00}
$GPGLL,0000.0000000,N,00000.0000000,E,212415.000,V,N*40
$GPGSA,A,1,,,,,,,,,,,,,0.0,0.0,0.0*30
$BDGSA,A,1,,,,,,,,,,,,,0.0,0.0,0.0*21
{"class":"SKY","vdop":0.00,"hdop":0.00,"pdop":0.00}
$GPRMC,212415.000,V,0000.0000000,N,00000.0000000,E,000.0,000.0,280316,,,N*79
$GPVTG,000.0,T,,M,000.0,N,000.0,K,N*02
$GPZDA,212415.000,28,03,2016,00,00*5B
{"class":"TPV","mode":1,"time":"2035-11-12T21:24:15.000Z","ept":0.005}
$GPGST,212415.000,,,,,,,*48
{"class":"TPV","mode":1,"time":"2035-11-12T21:24:15.000Z","ept":0.005}
{"class":"GST","time":"2035-11-12T21:24:15.000Z"}
$PSTI,030,212415.000,V,0000.0000000,N,00000.0000000,E,0.000,0.00,0.00,0.00,280316,N,0.0,0.0*03
{"class":"TPV","mode":1,"time":"2035-11-12T21:24:15.000Z","ept":0.005}
$GPGGA,212416.000,0000.0000000,N,00000.0000000,E,0,00,0.0,0.000,M,0.000,M,,0000*6F
{"class":"SKY","vdop":0.00,"hdop":0.00,"pdop":0.00}
$GPGLL,0000.0000000,N,00000.0000000,E,212416.000,V,N*43
$GPGSA,A,1,,,,,,,,,,,,,0.0,0.0,0.0*30
$BDGSA,A,1,,,,,,,,,,,,,0.0,0.0,0.0*21
{"class":"SKY","vdop":0.00,"hdop":0.00,"pdop":0.00}
$GPRMC,212416.000,V,0000.0000000,N,00000.0000000,E,000.0,000.0,280316,,,N*7A
$GPVTG,000.0,T,,M,000.0,N,000.0,K,N*02
$GPZDA,212416.000,28,03,2016,00,00*58
{"class":"TPV","mode":1,"time":"2035-11-12T21:24:16.000Z","ept":0.005}
$GPGST,212416.000,,,,,,,*4B
{"class":"TPV","mode":1,"time":"2035-11-12T21:24:16.000Z","ept":0.005}
{"class":"GST","time":"2035-11-12T21:24:16.000Z"}
$PSTI,030,212416.000,V,0000.0000000,N,00000.0000000,E,0.000,0.00,0.00,0.00,280316,N,0.0,0.0*00
{"class":"TPV","mode":1,"time":"2035-11-12T21:24:16.000Z","ept":0.005}
$GPGGA,212417.000,0000.0000000,N,00000.0000000,E,0,00,0.0,0.000,M,0.000,M,,0000*6E
{"class":"SKY","vdop":0.00,"hdop":0.00,"pdop":0.00}
$GPGLL,0000.0000000,N,00000.0000000,E,212417.000,V,N*42
$GPGSA,A,1,,,,,,,,,,,,,0.0,0.0,0.0*30
$BDGSA,A,1,,,,,,,,,,,,,0.0,0.0,0.0*21
{"class":"SKY","vdop":0.00,"hdop":0.00,"pdop":0.00}
$GPGSV,1,1,02,23,00,000,30,09,00,000,23*71
$GPRMC,212417.000,V,0000.0000000,N,00000.0000000,E,000.0,000.0,280316,,,N*7B
$GPVTG,000.0,T,,M,000.0,N,000.0,K,N*02
$GPZDA,212417.000,28,03,2016,00,00*59
{"class":"TPV","mode":1,"time":"2035-11-12T21:24:17.000Z","ept":0.005}
$GPGST,212417.000,,,,,,,*4A
{"class":"TPV","mode":1,"time":"2035-11-12T21:24:17.000Z","ept":0.005}
{"class":"GST","time":"2035-11-12T21:24:17.000Z"}
$PSTI,030,212417.000,V,0000.0000000,N,00000.0000000,E,0.000,0.00,0.00,0.00,280316,N,0.0,0.0*01
{"class":"TPV","mode":1,"time":"2035-11-12T21:24:17.000Z","ept":0.005}
$GPGGA,212418.000,0000.0000000,N,00000.0000000,E,0,00,0.0,0.000,M,0.000,M,,0000*61
{"class":"SKY","vdop":0.00,"hdop":0.00,"pdop":0.00}
$GPGLL,0000.0000000,N,00000.0000000,E,212418.000,V,N*4D
$GPGSA,A,1,,,,,,,,,,,,,0.0,0.0,0.0*30
$BDGSA,A,1,,,,,,,,,,,,,0.0,0.0,0.0*21
{"class":"SKY","vdop":0.00,"hdop":0.00,"pdop":0.00}
$GPRMC,212418.000,V,0000.0000000,N,00000.0000000,E,000.0,000.0,280316,,,N*74
$GPVTG,000.0,T,,M,000.0,N,000.0,K,N*02
$GPZDA,212418.000,28,03,2016,00,00*56
{"class":"TPV","mode":1,"time":"2035-11-12T21:24:18.000Z","ept":0.005}
$GPGST,212418.000,,,,,,,*45
{"class":"TPV","mode":1,"time":"2035-11-12T21:24:18.000Z","ept":0.005}
{"class":"GST","time":"2035-11-12T21:24:18.000Z"}
$PSTI,030,212418.000,V,0000.0000000,N,00000.0000000,E,0.000,0.00,0.00,0.00,280316,N,0.0,0.0*0E
{"class":"TPV","mode":1,"time":"2035-11-12T21:24:18.000Z","ept":0.005}
$GPGGA,212419.000,0000.0000000,N,00000.0000000,E,0,00,0.0,0.000,M,0.000,M,,0000*60
{"class":"SKY","vdop":0.00,"hdop":0.00,"pdop":0.00}
$GPGLL,0000.0000000,N,00000.0000000,E,212419.000,V,N*4C
$GPGSA,A,1,,,,,,,,,,,,,0.0,0.0,0.0*30
$BDGSA,A,1,,,,,,,,,,,,,0.0,0.0,0.0*21
{"class":"SKY","vdop":0.00,"hdop":0.00,"pdop":0.00}
$GPRMC,212419.000,V,0000.0000000,N,00000.0000000,E,000.0,000.0,280316,,,N*75
$GPVTG,000.0,T,,M,000.0,N,000.0,K,N*02
$GPZDA,212419.000,28,03,2016,00,00*57
{"class":"TPV","mode":1,"time":"2035-11-12T21:24:19.000Z","ept":0.005}
$GPGST,212419.000,,,,,,,*44
{"class":"TPV","mode":1,"time":"2035-11-12T21:24:19.000Z","ept":0.005}
{"class":"GST","time":"2035-11-12T21:24:19.000Z"}
$PSTI,030,212419.000,V,0000.0000000,N,00000.0000000,E,0.000,0.00,0.00,0.00,280316,N,0.0,0.0*0F
{"class":"TPV","mode":1,"time":"2035-11-12T21:24:19.000Z","ept":0.005}
$GPGGA,212420.000,0000.0000000,N,00000.0000000,E,0,00,0.0,0.000,M,0.000,M,,0000*6A
{"class":"SKY","vdop":0.00,"hdop":0.00,"pdop":0.00}
$GPGLL,0000.0000000,N,00000.0000000,E,212420.000,V,N*46
$GPGSA,A,1,,,,,,,,,,,,,0.0,0.0,0.0*30
$BDGSA,A,1,,,,,,,,,,,,,0.0,0.0,0.0*21
{"class":"SKY","vdop":0.00,"hdop":0.00,"pdop":0.00}
$GPGSV,1,1,02,23,00,000,30,09,00,000,24*76
$GPRMC,212420.000,V,0000.0000000,N,00000.0000000,E,000.0,000.0,280316,,,N*7F
$GPVTG,000.0,T,,M,000.0,N,000.0,K,N*02
$GPZDA,212420.000,28,03,2016,00,00*5D
{"class":"TPV","mode":1,"time":"2035-11-12T21:24:20.000Z","ept":0.005}
$GPGST,212420.000,,,,,,,*4E
{"class":"TPV","mode":1,"time":"2035-11-12T21:24:20.000Z","ept":0.005}
{"class":"GST","time":"2035-11-12T21:24:20.000Z"}
$PSTI,030,212420.000,V,0000.0000000,N,00000.0000000,E,0.000,0.00,0.00,0.00,280316,N,0.0,0.0*05
{"class":"TPV","mode":1,"time":"2035-11-12T21:24:20.000Z","ept":0.005}
$GPGGA,212421.000,0000.0000000,N,00000.0000000,E,0,00,0.0,0.000,M,0.000,M,,0000*6B
{"class":"SKY","vdop":0.00,"hdop":0.00,"pdop":0.00}
$GPGLL,0000.0000000,N,00000.0000000,E,212421.000,V,N*47
$GPGSA,A,1,,,,,,,,,,,,,0.0,0.0,0.0*30
$BDGSA,A,1,,,,,,,,,,,,,0.0,0.0,0.0*21
{"class":"SKY","vdop":0.00,"hdop":0.00,"pdop":0.00}
$GPRMC,212421.000,V,0000.0000000,N,00000.0000000,E,000.0,000.0,280316,,,N*7E
$GPVTG,000.0,T,,M,000.0,N,000.0,K,N*02
$GPZDA,212421.000,28,03,2016,00,00*5C
{"class":"TPV","mode":1,"time":"2035-11-12T21:24:21.000Z","ept":0.005}
$GPGST,212421.000,,,,,,,*4F
{"class":"TPV","mode":1,"time":"2035-11-12T21:24:21.000Z","ept":0.005}
{"class":"GST","time":"2035-11-12T21:24:21.000Z"}
$PSTI,030,212421.000,V,0000.0000000,N,00000.0000000,E,0.000,0.00,0.00,0.00,280316,N,0.0,0.0*04
{"class":"TPV","mode":1,"time":"2035-11-12T21:24:21.000Z","ept":0.005}
$GPGGA,212422.000,0000.0000000,N,00000.0000000,E,0,00,0.0,0.000,M,0.000,M,,0000*68
{"class":"SKY","vdop":0.00,"hdop":0.00,"pdop":0.00}
$GPGLL,0000.0000000,N,00000.0000000,E,212422.000,V,N*44
$GPGSA,A,1,,,,,,,,,,,,,0.0,0.0,0.0*30
$BDGSA,A,1,,,,,,,,,,,,,0.0,0.0,0.0*21
{"class":"SKY","vdop":0.00,"hdop":0.00,"pdop":0.00}
$GPRMC,212422.000,V,0000.0000000,N,00000.0000000,E,000.0,000.0,280316,,,N*7D
$GPVTG,000.0,T,,M,000.0,N,000.0,K,N*02
$GPZDA,212422.000,28,03,2016,00,00*5F
{"class":"TPV","mode":1,"time":"2035-11-12T21:24:22.000Z","ept":0.005}
$GPGST,212422.000,,,,,,,*4C
{"class":"TPV","mode":1,"time":"2035-11-12T21:24:22.000Z","ept":0.005}
{"class":"GST","time":"2035-11-12T21:24:22.000Z"}
$PSTI,030,212422.000,V,0000.0000000,N,00000.0000000,E,0.000,0.00,0.00,0.00,280316,N,0.0,0.0*07
{"class":"TPV","mode":1,"time":"2035-11-12T21:24:22.000Z","ept":0.005}
