# Name: Skytraq PX1172RH_DS NMEA
# Submitter: Gary E. Miller <gem@rellim.com>
# Date: 2020-03-28
# Notes: New PSTI message variants: 030, 032, 033, 035, 036
#        New GNTHS and GNHDT
#
# This file is Copyright (c) 2022 by the GPSD project
# BSD terms apply: see the file COPYING in the distribution root for details.
{"class":"VERSION","release":"3.23.2~dev","rev":"release-3.23.1-469-gd179514ac","proto_major":3,"proto_minor":14}
{"class":"DEVICES","devices":[{"class":"DEVICE","path":"/dev/ttyUSB1","driver":"Skytraq","subtype":"kver 3.0.1 over 1.7.33 rev 21.12.16","activated":"2022-03-29T00:38:31.112Z","flags":1,"native":0,"bps":115200,"parity":"N","stopbits":1,"cycle":1.00},{"class":"DEVICE","path":"ntrip://rellim2:rellim2@167.131.109.57:9879/BNDM_Single_GG3x","driver":"RTCM104V3","activated":"2022-03-29T00:38:31.083Z","flags":4}]}
{"class":"WATCH","enable":true,"json":false,"nmea":false,"raw":2,"scaled":false,"timing":false,"split24":false,"pps":false,"device":"/dev/ttyUSB1"}
$GPGGA,003832.000,4404.1271062,N,12118.8438377,W,5,14,0.8,1127.630,M,-20.300,M,1.000,0000*74
$GNGSA,A,3,05,12,25,29,,,,,,,,,1.7,0.8,1.6,1*32
$GNGSA,A,3,74,,,,,,,,,,,,1.7,0.8,1.6,2*38
$GNGSA,A,3,02,11,25,36,,,,,,,,,1.7,0.8,1.6,3*3A
$GNGSA,A,3,20,29,30,32,35,,,,,,,,1.7,0.8,1.6,4*30
$GNGLL,4404.1271062,N,12118.8438377,W,003832.000,A,D*50
$GNRMC,003832.000,A,4404.1271062,N,12118.8438377,W,000.0,171.0,290322,,,F,V*10
$GNVTG,171.0,T,,M,000.0,N,000.0,K,D*11
$GNZDA,003832.000,29,03,2022,00,00*48
$PSTI,030,003832.000,A,4404.1271062,N,12118.8438377,W,1127.630,-0.00,-0.01,0.02,290322,O,1.000,1.100*32
$PSTI,032,003832.000,290322,A,O,-503.349,-2270.309,60.062,2326.213,192.50,,,,,*32
$PSTI,033,003832.000,290322,2,R,0,G,0,0,,,C,0,0,,,E,0,0,,,R,0,0,,,*5D
$PSTI,033,003832.000,290322,2,B,0,G,0,0,,,C,0,0,,,E,0,0,,,R,0,0,,,*4D
$GNTHS,244.28,A*11
$GNHDT,244.28,T*13
$PSTI,035,003832.000,290322,A,R,-0.815,-0.393,0.044,0.906,244.28,,,,,*17
$PSTI,036,003832.000,290322,244.28,2.77,0.00,R*5D
$GPGGA,003833.000,4404.1271062,N,12118.8438377,W,5,14,0.8,1127.630,M,-20.300,M,1.000,0000*75
$GNGSA,A,3,05,12,25,29,,,,,,,,,1.7,0.8,1.6,1*32
$GNGSA,A,3,74,,,,,,,,,,,,1.7,0.8,1.6,2*38
$GNGSA,A,3,02,11,25,36,,,,,,,,,1.7,0.8,1.6,3*3A
$GNGSA,A,3,20,29,30,32,35,,,,,,,,1.7,0.8,1.6,4*30
$GPGSV,3,1,10,25,70,260,46,02,55,052,,12,53,162,46,20,52,107,,1*65
$GPGSV,3,2,10,11,52,053,,29,46,296,43,05,40,146,47,31,18,304,,1*6B
$GPGSV,3,3,10,18,11,233,,06,09,052,,1*66
$GPGSV,1,1,04,25,70,260,50,12,53,162,45,29,46,296,39,05,40,146,48,6*67
$GLGSV,2,1,08,84,64,323,,74,58,249,43,83,28,051,,73,28,190,,1*7A
$GLGSV,2,2,08,68,24,077,,85,18,262,,67,13,026,,69,09,126,,1*7E
$GAGSV,3,1,10,11,62,045,41,36,61,251,42,25,56,186,46,02,55,293,37,7*75
$GAGSV,3,2,10,10,35,053,42,30,12,329,,34,10,240,,12,09,049,,7*7B
$GAGSV,3,3,10,24,07,159,,19,04,043,,7*75
$GAGSV,2,1,05,11,62,045,41,36,61,251,51,25,56,186,48,02,55,293,45,2*7C
$GAGSV,2,2,05,10,35,053,44,2*42
$GBGSV,3,1,10,29,76,355,50,35,35,274,41,30,31,073,48,26,30,301,,1*71
$GBGSV,3,2,10,20,24,121,45,32,23,063,42,36,12,184,,16,04,312,,1*7A
$GBGSV,3,3,10,06,04,315,,09,04,334,,1*7B
$GNGLL,4404.1271062,N,12118.8438377,W,003833.000,A,D*51
$GNRMC,003833.000,A,4404.1271062,N,12118.8438377,W,000.0,171.0,290322,,,F,V*11
$GNVTG,171.0,T,,M,000.0,N,000.0,K,D*11
$GNZDA,003833.000,29,03,2022,00,00*49
$PSTI,030,003833.000,A,4404.1271062,N,12118.8438377,W,1127.630,-0.00,-0.01,0.02,290322,O,1.000,1.000*32
$PSTI,032,003833.000,290322,A,O,-505.478,-2272.360,58.980,2328.649,192.54,,,,,*32
$PSTI,033,003833.000,290322,2,R,0,G,0,0,,,C,0,0,,,E,0,0,,,R,0,0,,,*5C
$PSTI,033,003833.000,290322,2,B,0,G,0,0,,,C,0,0,,,E,0,0,,,R,0,0,,,*4C
$GNTHS,244.65,A*18
$GNHDT,244.65,T*1A
$PSTI,035,003833.000,290322,A,R,-0.823,-0.390,0.024,0.911,244.65,,,,,*19
$PSTI,036,003833.000,290322,244.65,1.48,0.00,R*5A
$GPGGA,003834.000,4404.1271062,N,12118.8438377,W,5,14,0.8,1127.630,M,-20.300,M,1.000,0000*72
$GNGSA,A,3,05,12,25,29,,,,,,,,,1.7,0.8,1.6,1*32
$GNGSA,A,3,74,,,,,,,,,,,,1.7,0.8,1.6,2*38
$GNGSA,A,3,02,11,25,36,,,,,,,,,1.7,0.8,1.6,3*3A
$GNGSA,A,3,20,29,30,32,35,,,,,,,,1.7,0.8,1.6,4*30
$GNGLL,4404.1271062,N,12118.8438377,W,003834.000,A,D*56
$GNRMC,003834.000,A,4404.1271062,N,12118.8438377,W,000.0,171.0,290322,,,F,V*16
$GNVTG,171.0,T,,M,000.0,N,000.0,K,D*11
$GNZDA,003834.000,29,03,2022,00,00*4E
$PSTI,030,003834.000,A,4404.1271062,N,12118.8438377,W,1127.630,-0.00,-0.01,0.02,290322,O,1.000,1.000*35
$PSTI,032,003834.000,290322,A,O,-507.692,-2274.462,57.795,2331.152,192.58,,,,,*3E
$PSTI,033,003834.000,290322,2,R,0,G,0,0,,,C,0,0,,,E,0,0,,,R,0,0,,,*5B
$PSTI,033,003834.000,290322,2,B,0,G,0,0,,,C,0,0,,,E,0,0,,,R,0,0,,,*4B
$GNTHS,244.17,A*1D
$GNHDT,244.17,T*1F
$PSTI,035,003834.000,290322,A,R,-0.808,-0.391,0.023,0.899,244.17,,,,,*15
$PSTI,036,003834.000,290322,244.17,1.44,0.00,R*54
$GPGGA,003835.000,4404.1271062,N,12118.8438377,W,5,14,0.8,1127.630,M,-20.300,M,1.000,0000*73
$GNGSA,A,3,05,12,25,29,,,,,,,,,1.7,0.8,1.6,1*32
$GNGSA,A,3,74,,,,,,,,,,,,1.7,0.8,1.6,2*38
$GNGSA,A,3,02,11,25,36,,,,,,,,,1.7,0.8,1.6,3*3A
$GNGSA,A,3,20,29,30,32,35,,,,,,,,1.7,0.8,1.6,4*30
$GNGLL,4404.1271062,N,12118.8438377,W,003835.000,A,D*57
$GNRMC,003835.000,A,4404.1271062,N,12118.8438377,W,000.0,171.0,290322,,,F,V*17
$GNVTG,171.0,T,,M,000.0,N,000.0,K,D*11
$GNZDA,003835.000,29,03,2022,00,00*4F
$PSTI,030,003835.000,A,4404.1271062,N,12118.8438377,W,1127.630,0.00,-0.02,0.03,290322,O,1.000,1.100*1A
$PSTI,032,003835.000,290322,A,O,-509.509,-2276.165,56.781,2333.185,192.62,,,,,*35
$PSTI,033,003835.000,290322,2,R,0,G,0,0,,,C,0,0,,,E,0,0,,,R,0,0,,,*5A
$PSTI,033,003835.000,290322,2,B,0,G,0,0,,,C,0,0,,,E,0,0,,,R,0,0,,,*4A
$GNTHS,244.28,A*11
$GNHDT,244.28,T*13
$PSTI,035,003835.000,290322,A,R,-0.818,-0.394,-0.006,0.908,244.28,,,,,*3F
$PSTI,036,003835.000,290322,244.28,-0.39,0.00,R*7F
$GPGGA,003836.000,4404.1271062,N,12118.8438377,W,5,14,0.8,1127.630,M,-20.300,M,1.000,0000*70
$GNGSA,A,3,05,12,25,29,,,,,,,,,1.7,0.8,1.6,1*32
$GNGSA,A,3,74,,,,,,,,,,,,1.7,0.8,1.6,2*38
$GNGSA,A,3,02,11,25,36,,,,,,,,,1.7,0.8,1.6,3*3A
$GNGSA,A,3,20,29,30,32,35,,,,,,,,1.7,0.8,1.6,4*30
$GPGSV,3,1,10,25,70,260,47,02,55,052,,12,53,162,47,20,52,107,,1*65
$GPGSV,3,2,10,11,52,053,,29,46,296,44,05,40,146,48,31,18,304,,1*63
$GPGSV,3,3,10,18,11,233,,06,09,052,,1*66
$GPGSV,1,1,04,25,70,260,50,12,53,162,45,29,46,296,39,05,40,146,48,6*67
$GLGSV,2,1,08,84,64,323,,74,58,249,43,83,28,051,,73,28,190,,1*7A
$GLGSV,2,2,08,68,24,077,,85,18,262,,67,13,026,,69,10,126,,1*76
$GAGSV,3,1,10,11,62,045,41,36,61,251,42,25,56,186,46,02,55,293,38,7*7A
$GAGSV,3,2,10,10,35,053,42,30,12,329,,34,10,240,,12,09,049,,7*7B
$GAGSV,3,3,10,24,07,159,,19,04,043,,7*75
$GAGSV,2,1,05,11,62,045,41,36,61,251,51,25,56,186,48,02,55,293,44,2*7D
$GAGSV,2,2,05,10,35,053,44,2*42
$GBGSV,3,1,10,29,76,355,50,35,35,274,41,30,31,073,48,26,30,301,,1*71
$GBGSV,3,2,10,20,24,121,45,32,23,063,42,36,12,184,,16,04,312,,1*7A
$GBGSV,3,3,10,06,04,315,,09,04,334,,1*7B
$GNGLL,4404.1271062,N,12118.8438377,W,003836.000,A,D*54
$GNRMC,003836.000,A,4404.1271062,N,12118.8438377,W,000.0,171.0,290322,,,F,V*14
$GNVTG,171.0,T,,M,000.0,N,000.0,K,D*11
$GNZDA,003836.000,29,03,2022,00,00*4C
$PSTI,030,003836.000,A,4404.1271062,N,12118.8438377,W,1127.630,-0.00,-0.01,0.03,290322,O,1.000,1.100*37
$PSTI,032,003836.000,290322,A,O,-511.250,-2277.819,55.662,2335.152,192.65,,,,,*33
$PSTI,033,003836.000,290322,2,R,0,G,0,0,,,C,0,0,,,E,0,0,,,R,0,0,,,*59
$PSTI,033,003836.000,290322,2,B,0,G,0,0,,,C,0,0,,,E,0,0,,,R,0,0,,,*49
$GNTHS,244.23,A*1A
$GNHDT,244.23,T*18
$PSTI,035,003836.000,290322,A,R,-0.814,-0.393,0.005,0.904,244.23,,,,,*1E
$PSTI,036,003836.000,290322,244.23,0.31,0.00,R*52
$GPGGA,003837.000,4404.1271062,N,12118.8438377,W,5,14,0.8,1127.630,M,-20.300,M,1.000,0000*71
$GNGSA,A,3,05,12,25,29,,,,,,,,,1.7,0.8,1.6,1*32
$GNGSA,A,3,74,,,,,,,,,,,,1.7,0.8,1.6,2*38
$GNGSA,A,3,02,11,25,36,,,,,,,,,1.7,0.8,1.6,3*3A
$GNGSA,A,3,20,29,30,32,35,,,,,,,,1.7,0.8,1.6,4*30
$GNGLL,4404.1271062,N,12118.8438377,W,003837.000,A,D*55
$GNRMC,003837.000,A,4404.1271062,N,12118.8438377,W,000.0,171.0,290322,,,F,V*15
$GNVTG,171.0,T,,M,000.0,N,000.0,K,D*11
$GNZDA,003837.000,29,03,2022,00,00*4D
$PSTI,030,003837.000,A,4404.1271062,N,12118.8438377,W,1127.630,0.00,-0.01,0.03,290322,O,1.000,1.100*1B
$PSTI,032,003837.000,290322,A,O,-512.277,-2278.800,54.967,2336.317,192.67,,,,,*3A
$PSTI,033,003837.000,290322,2,R,0,G,0,0,,,C,0,0,,,E,0,0,,,R,0,0,,,*58
$PSTI,033,003837.000,290322,2,B,0,G,0,0,,,C,0,0,,,E,0,0,,,R,0,0,,,*48
$GNTHS,244.36,A*1E
$GNHDT,244.36,T*1C
$PSTI,035,003837.000,290322,A,R,-0.813,-0.390,-0.008,0.902,244.36,,,,,*39
$PSTI,036,003837.000,290322,244.36,-0.48,0.00,R*74
$GPGGA,003838.000,4404.1271062,N,12118.8438377,W,5,14,0.8,1127.630,M,-20.300,M,1.000,0000*7E
$GNGSA,A,3,05,12,25,29,,,,,,,,,1.7,0.8,1.6,1*32
$GNGSA,A,3,74,,,,,,,,,,,,1.7,0.8,1.6,2*38
$GNGSA,A,3,02,11,25,36,,,,,,,,,1.7,0.8,1.6,3*3A
$GNGSA,A,3,20,29,30,32,35,,,,,,,,1.7,0.8,1.6,4*30
$GNGLL,4404.1271062,N,12118.8438377,W,003838.000,A,D*5A
$GNRMC,003838.000,A,4404.1271062,N,12118.8438377,W,000.0,171.0,290322,,,F,V*1A
$GNVTG,171.0,T,,M,000.0,N,000.0,K,D*11
$GNZDA,003838.000,29,03,2022,00,00*42
$PSTI,030,003838.000,A,4404.1271062,N,12118.8438377,W,1127.630,-0.00,-0.01,0.02,290322,O,1.000,1.100*38
$PSTI,032,003838.000,290322,A,O,-512.840,-2279.308,54.416,2336.923,192.68,,,,,*30
$PSTI,033,003838.000,290322,2,R,0,G,0,0,,,C,0,0,,,E,0,0,,,R,0,0,,,*57
$PSTI,033,003838.000,290322,2,B,0,G,0,0,,,C,0,0,,,E,0,0,,,R,0,0,,,*47
$GNTHS,244.31,A*19
$GNHDT,244.31,T*1B
$PSTI,035,003838.000,290322,A,R,-0.817,-0.393,0.012,0.907,244.31,,,,,*15
$PSTI,036,003838.000,290322,244.31,0.75,0.00,R*5F
$GPGGA,003839.000,4404.1271062,N,12118.8438377,W,5,14,0.8,1127.630,M,-20.300,M,1.000,0000*7F
$GNGSA,A,3,05,12,25,29,,,,,,,,,1.7,0.8,1.6,1*32
$GNGSA,A,3,74,,,,,,,,,,,,1.7,0.8,1.6,2*38
$GNGSA,A,3,02,11,25,36,,,,,,,,,1.7,0.8,1.6,3*3A
$GNGSA,A,3,20,29,30,32,35,,,,,,,,1.7,0.8,1.6,4*30
$GPGSV,3,1,10,25,70,260,46,02,55,052,,12,53,162,46,20,52,107,,1*65
$GPGSV,3,2,10,11,52,053,,29,46,296,43,05,40,146,47,31,18,304,,1*6B
$GPGSV,3,3,10,18,11,233,,06,09,052,,1*66
$GPGSV,1,1,04,25,70,260,50,12,53,162,45,29,46,296,39,05,40,146,48,6*67
$GLGSV,2,1,08,84,64,323,,74,57,247,43,83,28,051,,73,27,190,,1*74
$GLGSV,2,2,08,68,24,077,,85,18,262,,67,13,026,,69,10,126,,1*76
$GAGSV,3,1,10,11,62,045,40,36,61,251,42,25,56,186,46,02,55,293,38,7*7B
$GAGSV,3,2,10,10,35,053,42,30,12,329,,34,10,240,,12,09,049,,7*7B
$GAGSV,3,3,10,24,07,159,,19,04,043,,7*75
$GAGSV,2,1,05,11,62,045,41,36,61,251,51,25,56,186,48,02,55,293,44,2*7D
$GAGSV,2,2,05,10,35,053,44,2*42
$GBGSV,3,1,10,29,76,355,50,35,35,274,42,30,31,073,49,26,30,301,,1*73
$GBGSV,3,2,10,20,24,121,45,32,23,063,42,36,12,184,,16,04,312,,1*7A
$GBGSV,3,3,10,06,04,315,,09,04,334,,1*7B
$GNGLL,4404.1271062,N,12118.8438377,W,003839.000,A,D*5B
$GNRMC,003839.000,A,4404.1271062,N,12118.8438377,W,000.0,171.0,290322,,,F,V*1B
$GNVTG,171.0,T,,M,000.0,N,000.0,K,D*11
$GNZDA,003839.000,29,03,2022,00,00*43
$PSTI,030,003839.000,A,4404.1271062,N,12118.8438377,W,1127.630,0.00,-0.02,0.03,290322,O,1.000,1.000*17
$PSTI,032,003839.000,290322,A,O,-512.851,-2279.221,54.081,2336.833,192.68,,,,,*31
$PSTI,033,003839.000,290322,2,R,0,G,0,0,,,C,0,0,,,E,0,0,,,R,0,0,,,*56
$PSTI,033,003839.000,290322,2,B,0,G,0,0,,,C,0,0,,,E,0,0,,,R,0,0,,,*46
$GNTHS,244.25,A*1C
$GNHDT,244.25,T*1E
$PSTI,035,003839.000,290322,A,R,-0.810,-0.391,0.020,0.900,244.25,,,,,*12
$PSTI,036,003839.000,290322,244.25,1.27,0.00,R*5D
$GPGGA,003840.000,4404.1271062,N,12118.8438377,W,5,14,0.8,1127.630,M,-20.300,M,1.000,0000*71
$GNGSA,A,3,05,12,25,29,,,,,,,,,1.7,0.8,1.6,1*32
$GNGSA,A,3,74,,,,,,,,,,,,1.7,0.8,1.6,2*38
$GNGSA,A,3,02,11,25,36,,,,,,,,,1.7,0.8,1.6,3*3A
$GNGSA,A,3,20,29,30,32,35,,,,,,,,1.7,0.8,1.6,4*30
$GNGLL,4404.1271062,N,12118.8438377,W,003840.000,A,D*55
$GNRMC,003840.000,A,4404.1271062,N,12118.8438377,W,000.0,171.0,290322,,,F,V*15
$GNVTG,171.0,T,,M,000.0,N,000.0,K,D*11
$GNZDA,003840.000,29,03,2022,00,00*4D
$PSTI,030,003840.000,A,4404.1271062,N,12118.8438377,W,1127.630,-0.00,-0.01,0.03,290322,O,1.000,1.000*37
$PSTI,032,003840.000,290322,A,O,-512.853,-2279.136,53.817,2336.745,192.68,,,,,*36
$PSTI,033,003840.000,290322,2,R,0,G,0,0,,,C,0,0,,,E,0,0,,,R,0,0,,,*58
$PSTI,033,003840.000,290322,2,B,0,G,0,0,,,C,0,0,,,E,0,0,,,R,0,0,,,*48
$GNTHS,244.67,A*1A
$GNHDT,244.67,T*18
$PSTI,035,003840.000,290322,A,R,-0.818,-0.387,0.001,0.904,244.67,,,,,*12
$PSTI,036,003840.000,290322,244.67,0.08,0.00,R*59
