$GLGSV,3,2,10,77,27,203,36,71,20,036,34,79,18,331,36,65,12,145,27*64
$GLGSV,3,3,10,86,06,069,25,81,06,268,27,,,,,,,,*62
{"class":"SKY","nSat":6,"uSat":0,"satellites":[{"PRN":77,"gnssid":6,"svid":13,"az":203.0,"el":27.0,"ss":36.0,"used":false},{"PRN":71,"gnssid":6,"svid":7,"az":36.0,"el":20.0,"ss":34.0,"used":false},{"PRN":79,"gnssid":6,"svid":15,"az":331.0,"el":18.0,"ss":36.0,"used":false},{"PRN":65,"gnssid":6,"svid":1,"az":145.0,"el":12.0,"ss":27.0,"used":false},{"PRN":86,"gnssid":6,"svid":22,"az":69.0,"el":6.0,"ss":25.0,"used":false},{"PRN":81,"gnssid":6,"svid":17,"az":268.0,"el":6.0,"ss":27.0,"used":false}]}
$GPGLL,4215.07753,N,08811.88592,W,203451.000,A,D*45
{"class":"TPV","status":2,"mode":2,"lat":42.251292167,"lon":-88.198098667,"magvar":-3.7}
$PSTMCPU,54.57,-1,98*40
$GPRMC,203452.000,A,4215.07755,N,08811.88588,W,0.1,0.0,160326,,,D*7D
$GPGGA,203452.000,4215.07755,N,08811.88588,W,2,15,0.6,233.47,M,-34.1,M,,*50
{"class":"SKY","hdop":0.60,"uSat":15}
$GPVTG,0.0,T,,M,0.1,N,0.2,K,D*0B
$GNGSA,A,3,11,12,06,21,25,05,19,,,,,,1.1,0.6,0.9*2F
$GNGSA,A,3,87,78,88,77,71,79,65,81,,,,,1.1,0.6,0.9*21
{"class":"SKY","hdop":0.60,"pdop":1.10,"vdop":0.90,"uSat":15}
$GPGSV,4,1,13,11,75,290,51,12,59,272,49,06,51,048,31,21,42,175,41*79
$GPGSV,4,2,13,19,39,099,31,25,28,311,23,05,19,197,43,17,15,108,27*79
$GPGSV,4,3,13,09,13,077,,04,07,047,,46,26,232,40,48,28,227,38*7C
$GPGSV,4,4,13,44,33,219,36,,,,,,,,,,,,*44
$GLGSV,3,1,10,88,50,302,42,78,48,277,43,87,40,047,32,72,31,092,23*66
$GLGSV,3,2,10,77,27,203,36,71,20,036,34,79,18,331,36,65,12,145,26*65
$GLGSV,3,3,10,86,06,069,25,81,06,268,28,,,,,,,,*6D
{"class":"SKY","gdop":1.41,"hdop":0.60,"pdop":1.10,"tdop":0.64,"xdop":0.48,"ydop":0.46,"vdop":0.90,"nSat":23,"uSat":15,"satellites":[{"PRN":11,"gnssid":0,"svid":11,"az":290.0,"el":75.0,"ss":51.0,"used":true},{"PRN":12,"gnssid":0,"svid":12,"az":272.0,"el":59.0,"ss":49.0,"used":true},{"PRN":6,"gnssid":0,"svid":6,"az":48.0,"el":51.0,"ss":31.0,"used":true},{"PRN":21,"gnssid":0,"svid":21,"az":175.0,"el":42.0,"ss":41.0,"used":true},{"PRN":19,"gnssid":0,"svid":19,"az":99.0,"el":39.0,"ss":31.0,"used":true},{"PRN":25,"gnssid":0,"svid":25,"az":311.0,"el":28.0,"ss":23.0,"used":true},{"PRN":5,"gnssid":0,"svid":5,"az":197.0,"el":19.0,"ss":43.0,"used":true},{"PRN":17,"gnssid":0,"svid":17,"az":108.0,"el":15.0,"ss":27.0,"used":false},{"PRN":9,"gnssid":0,"svid":9,"az":77.0,"el":13.0,"ss":0.0,"used":false},{"PRN":4,"gnssid":0,"svid":4,"az":47.0,"el":7.0,"ss":0.0,"used":false},{"PRN":46,"gnssid":1,"svid":133,"az":232.0,"el":26.0,"ss":40.0,"used":false},{"PRN":48,"gnssid":1,"svid":135,"az":227.0,"el":28.0,"ss":38.0,"used":false},{"PRN":44,"gnssid":1,"svid":131,"az":219.0,"el":33.0,"ss":36.0,"used":false},{"PRN":88,"gnssid":6,"svid":24,"az":302.0,"el":50.0,"ss":42.0,"used":true},{"PRN":78,"gnssid":6,"svid":14,"az":277.0,"el":48.0,"ss":43.0,"used":true},{"PRN":87,"gnssid":6,"svid":23,"az":47.0,"el":40.0,"ss":32.0,"used":true},{"PRN":72,"gnssid":6,"svid":8,"az":92.0,"el":31.0,"ss":23.0,"used":false},{"PRN":77,"gnssid":6,"svid":13,"az":203.0,"el":27.0,"ss":36.0,"used":true},{"PRN":71,"gnssid":6,"svid":7,"az":36.0,"el":20.0,"ss":34.0,"used":true},{"PRN":79,"gnssid":6,"svid":15,"az":331.0,"el":18.0,"ss":36.0,"used":true},{"PRN":65,"gnssid":6,"svid":1,"az":145.0,"el":12.0,"ss":26.0,"used":true},{"PRN":86,"gnssid":6,"svid":22,"az":69.0,"el":6.0,"ss":25.0,"used":false},{"PRN":81,"gnssid":6,"svid":17,"az":268.0,"el":6.0,"ss":28.0,"used":true}]}
$GPGLL,4215.07755,N,08811.88588,W,203452.000,A,D*4B
{"class":"TPV","status":2,"mode":3,"time":"2026-03-16T20:34:52.000Z","ept":0.005,"lat":42.251292500,"lon":-88.198098000,"altHAE":199.3700,"altMSL":233.4700,"alt":233.4700,"epx":1.782,"epy":1.722,"epv":5.175,"track":0.0000,"magtrack":356.3206,"magvar":-3.7,"speed":0.051,"geoidSep":-34.100,"eph":2.850,"sep":5.225}
{"class":"SKY","gdop":1.41,"hdop":0.60,"pdop":1.10,"tdop":0.64,"xdop":0.48,"ydop":0.46,"vdop":0.90,"uSat":15}
$PSTMCPU,55.77,-1,98*43
$GPRMC,203453.000,A,4215.07756,N,08811.88585,W,0.1,0.0,160326,,,D*72
$GPGGA,203453.000,4215.07756,N,08811.88585,W,2,15,0.6,233.45,M,-34.1,M,,*5D
{"class":"SKY","hdop":0.60,"uSat":15}
$GPVTG,0.0,T,,M,0.1,N,0.2,K,D*0B
$GNGSA,A,3,11,12,06,21,25,05,19,,,,,,1.1,0.6,0.9*2F
$GNGSA,A,3,87,78,88,77,71,79,65,81,,,,,1.1,0.6,0.9*21
{"class":"SKY","hdop":0.60,"pdop":1.10,"vdop":0.90,"uSat":15}
$GPGSV,4,1,13,11,75,290,51,12,59,272,50,06,51,048,30,21,42,175,41*70
$GPGSV,4,2,13,19,39,099,31,25,28,311,24,05,19,197,43,17,15,108,27*7E
$GPGSV,4,3,13,09,13,077,,04,07,047,,46,26,232,39,48,28,227,38*72
$GPGSV,4,4,13,44,33,219,36,,,,,,,,,,,,*44
$GLGSV,3,1,10,88,50,302,42,78,48,277,43,87,40,047,31,72,31,092,25*63
$GLGSV,3,2,10,77,27,203,36,71,20,036,34,79,18,331,37,65,12,145,26*64
$GLGSV,3,3,10,86,06,069,25,81,06,268,29,,,,,,,,*6C
{"class":"SKY","gdop":1.41,"hdop":0.60,"pdop":1.10,"tdop":0.64,"xdop":0.48,"ydop":0.46,"vdop":0.90,"nSat":23,"uSat":15,"satellites":[{"PRN":11,"gnssid":0,"svid":11,"az":290.0,"el":75.0,"ss":51.0,"used":true},{"PRN":12,"gnssid":0,"svid":12,"az":272.0,"el":59.0,"ss":50.0,"used":true},{"PRN":6,"gnssid":0,"svid":6,"az":48.0,"el":51.0,"ss":30.0,"used":true},{"PRN":21,"gnssid":0,"svid":21,"az":175.0,"el":42.0,"ss":41.0,"used":true},{"PRN":19,"gnssid":0,"svid":19,"az":99.0,"el":39.0,"ss":31.0,"used":true},{"PRN":25,"gnssid":0,"svid":25,"az":311.0,"el":28.0,"ss":24.0,"used":true},{"PRN":5,"gnssid":0,"svid":5,"az":197.0,"el":19.0,"ss":43.0,"used":true},{"PRN":17,"gnssid":0,"svid":17,"az":108.0,"el":15.0,"ss":27.0,"used":false},{"PRN":9,"gnssid":0,"svid":9,"az":77.0,"el":13.0,"ss":0.0,"used":false},{"PRN":4,"gnssid":0,"svid":4,"az":47.0,"el":7.0,"ss":0.0,"used":false},{"PRN":46,"gnssid":1,"svid":133,"az":232.0,"el":26.0,"ss":39.0,"used":false},{"PRN":48,"gnssid":1,"svid":135,"az":227.0,"el":28.0,"ss":38.0,"used":false},{"PRN":44,"gnssid":1,"svid":131,"az":219.0,"el":33.0,"ss":36.0,"used":false},{"PRN":88,"gnssid":6,"svid":24,"az":302.0,"el":50.0,"ss":42.0,"used":true},{"PRN":78,"gnssid":6,"svid":14,"az":277.0,"el":48.0,"ss":43.0,"used":true},{"PRN":87,"gnssid":6,"svid":23,"az":47.0,"el":40.0,"ss":31.0,"used":true},{"PRN":72,"gnssid":6,"svid":8,"az":92.0,"el":31.0,"ss":25.0,"used":false},{"PRN":77,"gnssid":6,"svid":13,"az":203.0,"el":27.0,"ss":36.0,"used":true},{"PRN":71,"gnssid":6,"svid":7,"az":36.0,"el":20.0,"ss":34.0,"used":true},{"PRN":79,"gnssid":6,"svid":15,"az":331.0,"el":18.0,"ss":37.0,"used":true},{"PRN":65,"gnssid":6,"svid":1,"az":145.0,"el":12.0,"ss":26.0,"used":true},{"PRN":86,"gnssid":6,"svid":22,"az":69.0,"el":6.0,"ss":25.0,"used":false},{"PRN":81,"gnssid":6,"svid":17,"az":268.0,"el":6.0,"ss":29.0,"used":true}]}
$GPGLL,4215.07756,N,08811.88585,W,203453.000,A,D*44
{"class":"TPV","status":2,"mode":3,"time":"2026-03-16T20:34:53.000Z","ept":0.005,"lat":42.251292667,"lon":-88.198097500,"altHAE":199.3500,"altMSL":233.4500,"alt":233.4500,"epx":1.782,"epy":1.722,"epv":5.175,"track":0.0000,"magtrack":356.3206,"magvar":-3.7,"speed":0.051,"climb":-0.020,"eps":3.56,"epc":10.35,"geoidSep":-34.100,"eph":2.850,"sep":5.225}
{"class":"SKY","gdop":1.41,"hdop":0.60,"pdop":1.10,"tdop":0.64,"xdop":0.48,"ydop":0.46,"vdop":0.90,"uSat":15}
$PSTMCPU,52.70,-1,98*43
$GPRMC,203454.000,A,4215.07757,N,08811.88582,W,0.1,0.0,160326,,,D*73
$GPGGA,203454.000,4215.07757,N,08811.88582,W,2,15,0.6,233.46,M,-34.1,M,,*5F
{"class":"SKY","hdop":0.60,"uSat":15}
$GPVTG,0.0,T,,M,0.1,N,0.2,K,D*0B
$GNGSA,A,3,11,12,06,21,25,05,19,,,,,,1.1,0.6,0.9*2F
$GNGSA,A,3,87,78,88,77,71,79,65,81,,,,,1.1,0.6,0.9*21
{"class":"SKY","hdop":0.60,"pdop":1.10,"vdop":0.90,"uSat":15}
$GPGSV,4,1,13,11,75,290,51,12,59,272,50,06,51,048,30,21,42,175,41*70
$GPGSV,4,2,13,19,39,099,31,25,28,311,24,05,19,197,43,17,15,108,27*7E
$GPGSV,4,3,13,09,13,077,,04,07,047,,46,26,232,39,48,28,227,38*72
$GPGSV,4,4,13,44,33,219,36,,,,,,,,,,,,*44
$GLGSV,3,1,10,88,50,302,43,78,48,277,43,87,40,047,31,72,31,092,25*62
$GLGSV,3,2,10,77,27,203,36,71,20,036,34,79,18,331,37,65,12,145,27*65
$GLGSV,3,3,10,86,06,069,25,81,06,268,30,,,,,,,,*64
{"class":"SKY","gdop":1.41,"hdop":0.60,"pdop":1.10,"tdop":0.64,"xdop":0.48,"ydop":0.46,"vdop":0.90,"nSat":23,"uSat":15,"satellites":[{"PRN":11,"gnssid":0,"svid":11,"az":290.0,"el":75.0,"ss":51.0,"used":true},{"PRN":12,"gnssid":0,"svid":12,"az":272.0,"el":59.0,"ss":50.0,"used":true},{"PRN":6,"gnssid":0,"svid":6,"az":48.0,"el":51.0,"ss":30.0,"used":true},{"PRN":21,"gnssid":0,"svid":21,"az":175.0,"el":42.0,"ss":41.0,"used":true},{"PRN":19,"gnssid":0,"svid":19,"az":99.0,"el":39.0,"ss":31.0,"used":true},{"PRN":25,"gnssid":0,"svid":25,"az":311.0,"el":28.0,"ss":24.0,"used":true},{"PRN":5,"gnssid":0,"svid":5,"az":197.0,"el":19.0,"ss":43.0,"used":true},{"PRN":17,"gnssid":0,"svid":17,"az":108.0,"el":15.0,"ss":27.0,"used":false},{"PRN":9,"gnssid":0,"svid":9,"az":77.0,"el":13.0,"ss":0.0,"used":false},{"PRN":4,"gnssid":0,"svid":4,"az":47.0,"el":7.0,"ss":0.0,"used":false},{"PRN":46,"gnssid":1,"svid":133,"az":232.0,"el":26.0,"ss":39.0,"used":false},{"PRN":48,"gnssid":1,"svid":135,"az":227.0,"el":28.0,"ss":38.0,"used":false},{"PRN":44,"gnssid":1,"svid":131,"az":219.0,"el":33.0,"ss":36.0,"used":false},{"PRN":88,"gnssid":6,"svid":24,"az":302.0,"el":50.0,"ss":43.0,"used":true},{"PRN":78,"gnssid":6,"svid":14,"az":277.0,"el":48.0,"ss":43.0,"used":true},{"PRN":87,"gnssid":6,"svid":23,"az":47.0,"el":40.0,"ss":31.0,"used":true},{"PRN":72,"gnssid":6,"svid":8,"az":92.0,"el":31.0,"ss":25.0,"used":false},{"PRN":77,"gnssid":6,"svid":13,"az":203.0,"el":27.0,"ss":36.0,"used":true},{"PRN":71,"gnssid":6,"svid":7,"az":36.0,"el":20.0,"ss":34.0,"used":true},{"PRN":79,"gnssid":6,"svid":15,"az":331.0,"el":18.0,"ss":37.0,"used":true},{"PRN":65,"gnssid":6,"svid":1,"az":145.0,"el":12.0,"ss":27.0,"used":true},{"PRN":86,"gnssid":6,"svid":22,"az":69.0,"el":6.0,"ss":25.0,"used":false},{"PRN":81,"gnssid":6,"svid":17,"az":268.0,"el":6.0,"ss":30.0,"used":true}]}
$GPGLL,4215.07757,N,08811.88582,W,203454.000,A,D*45
{"class":"TPV","status":2,"mode":3,"time":"2026-03-16T20:34:54.000Z","ept":0.005,"lat":42.251292833,"lon":-88.198097000,"altHAE":199.3600,"altMSL":233.4600,"alt":233.4600,"epx":1.782,"epy":1.722,"epv":5.175,"track":0.0000,"magtrack":356.3206,"magvar":-3.7,"speed":0.051,"climb":0.010,"eps":3.56,"epc":10.35,"geoidSep":-34.100,"eph":2.850,"sep":5.225}
{"class":"SKY","gdop":1.41,"hdop":0.60,"pdop":1.10,"tdop":0.64,"xdop":0.48,"ydop":0.46,"vdop":0.90,"uSat":15}
$PSTMCPU,52.01,-1,98*45
$GPRMC,203455.000,A,4215.07758,N,08811.88580,W,0.1,0.0,160326,,,D*7F
$GPGGA,203455.000,4215.07758,N,08811.88580,W,2,15,0.6,233.47,M,-34.1,M,,*52
{"class":"SKY","hdop":0.60,"uSat":15}
$GPVTG,0.0,T,,M,0.1,N,0.2,K,D*0B
$GNGSA,A,3,11,12,06,21,25,05,19,,,,,,1.1,0.6,0.9*2F
$GNGSA,A,3,87,78,88,77,71,79,65,81,,,,,1.1,0.6,0.9*21
{"class":"SKY","hdop":0.60,"pdop":1.10,"vdop":0.90,"uSat":15}
$GPGSV,4,1,13,11,75,290,51,12,59,272,50,06,51,048,30,21,42,175,41*70
$GPGSV,4,2,13,19,39,099,30,25,28,311,23,05,19,197,43,17,15,108,26*79
$GPGSV,4,3,13,09,13,077,,04,07,047,,46,26,232,39,48,28,227,38*72
$GPGSV,4,4,13,44,33,219,36,,,,,,,,,,,,*44
$GLGSV,3,1,10,88,50,302,42,78,48,277,42,87,40,047,32,72,31,092,25*61
$GLGSV,3,2,10,77,27,203,36,71,20,036,35,79,18,331,37,65,12,145,27*64
$GLGSV,3,3,10,86,06,069,25,81,06,268,31,,,,,,,,*65
{"class":"SKY","gdop":1.41,"hdop":0.60,"pdop":1.10,"tdop":0.64,"xdop":0.48,"ydop":0.46,"vdop":0.90,"nSat":23,"uSat":15,"satellites":[{"PRN":11,"gnssid":0,"svid":11,"az":290.0,"el":75.0,"ss":51.0,"used":true},{"PRN":12,"gnssid":0,"svid":12,"az":272.0,"el":59.0,"ss":50.0,"used":true},{"PRN":6,"gnssid":0,"svid":6,"az":48.0,"el":51.0,"ss":30.0,"used":true},{"PRN":21,"gnssid":0,"svid":21,"az":175.0,"el":42.0,"ss":41.0,"used":true},{"PRN":19,"gnssid":0,"svid":19,"az":99.0,"el":39.0,"ss":30.0,"used":true},{"PRN":25,"gnssid":0,"svid":25,"az":311.0,"el":28.0,"ss":23.0,"used":true},{"PRN":5,"gnssid":0,"svid":5,"az":197.0,"el":19.0,"ss":43.0,"used":true},{"PRN":17,"gnssid":0,"svid":17,"az":108.0,"el":15.0,"ss":26.0,"used":false},{"PRN":9,"gnssid":0,"svid":9,"az":77.0,"el":13.0,"ss":0.0,"used":false},{"PRN":4,"gnssid":0,"svid":4,"az":47.0,"el":7.0,"ss":0.0,"used":false},{"PRN":46,"gnssid":1,"svid":133,"az":232.0,"el":26.0,"ss":39.0,"used":false},{"PRN":48,"gnssid":1,"svid":135,"az":227.0,"el":28.0,"ss":38.0,"used":false},{"PRN":44,"gnssid":1,"svid":131,"az":219.0,"el":33.0,"ss":36.0,"used":false},{"PRN":88,"gnssid":6,"svid":24,"az":302.0,"el":50.0,"ss":42.0,"used":true},{"PRN":78,"gnssid":6,"svid":14,"az":277.0,"el":48.0,"ss":42.0,"used":true},{"PRN":87,"gnssid":6,"svid":23,"az":47.0,"el":40.0,"ss":32.0,"used":true},{"PRN":72,"gnssid":6,"svid":8,"az":92.0,"el":31.0,"ss":25.0,"used":false},{"PRN":77,"gnssid":6,"svid":13,"az":203.0,"el":27.0,"ss":36.0,"used":true},{"PRN":71,"gnssid":6,"svid":7,"az":36.0,"el":20.0,"ss":35.0,"used":true},{"PRN":79,"gnssid":6,"svid":15,"az":331.0,"el":18.0,"ss":37.0,"used":true},{"PRN":65,"gnssid":6,"svid":1,"az":145.0,"el":12.0,"ss":27.0,"used":true},{"PRN":86,"gnssid":6,"svid":22,"az":69.0,"el":6.0,"ss":25.0,"used":false},{"PRN":81,"gnssid":6,"svid":17,"az":268.0,"el":6.0,"ss":31.0,"used":true}]}
$GPGLL,4215.07758,N,08811.88580,W,203455.000,A,D*49
{"class":"TPV","status":2,"mode":3,"time":"2026-03-16T20:34:55.000Z","ept":0.005,"lat":42.251293000,"lon":-88.198096667,"altHAE":199.3700,"altMSL":233.4700,"alt":233.4700,"epx":1.782,"epy":1.722,"epv":5.175,"track":0.0000,"magtrack":356.3206,"magvar":-3.7,"speed":0.051,"climb":0.010,"eps":3.56,"epc":10.35,"geoidSep":-34.100,"eph":2.850,"sep":5.225}
{"class":"SKY","gdop":1.41,"hdop":0.60,"pdop":1.10,"tdop":0.64,"xdop":0.48,"ydop":0.46,"vdop":0.90,"uSat":15}
$PSTMCPU,55.54,-1,98*42
$GPRMC,203456.000,A,4215.07758,N,08811.88578,W,0.1,0.0,160326,,,D*7B
$GPGGA,203456.000,4215.07758,N,08811.88578,W,2,15,0.6,233.48,M,-34.1,M,,*59
{"class":"SKY","hdop":0.60,"uSat":15}
$GPVTG,0.0,T,,M,0.1,N,0.3,K,D*0A
$GNGSA,A,3,11,12,06,21,25,05,19,,,,,,1.1,0.6,0.9*2F
$GNGSA,A,3,87,78,88,77,71,79,65,81,,,,,1.1,0.6,0.9*21
{"class":"SKY","hdop":0.60,"pdop":1.10,"vdop":0.90,"uSat":15}
$GPGSV,4,1,14,11,75,290,51,12,59,272,50,06,51,048,30,21,42,175,41*77
$GPGSV,4,2,14,19,39,099,30,25,28,311,22,05,19,197,43,17,15,108,26*7F
$GPGSV,4,3,14,09,13,077,,04,07,047,,46,26,232,39,48,28,227,37*7A
$GPGSV,4,4,14,44,33,219,37,51,37,207,,,,,,,,,*77
$GLGSV,3,1,10,88,50,302,42,78,48,277,42,87,40,047,33,72,31,092,25*60
$GLGSV,3,2,10,77,27,203,36,71,20,036,35,79,18,331,37,65,12,145,28*6B
$GLGSV,3,3,10,86,06,069,25,81,06,268,32,,,,,,,,*66
{"class":"SKY","gdop":1.41,"hdop":0.60,"pdop":1.10,"tdop":0.64,"xdop":0.48,"ydop":0.46,"vdop":0.90,"nSat":24,"uSat":15,"satellites":[{"PRN":11,"gnssid":0,"svid":11,"az":290.0,"el":75.0,"ss":51.0,"used":true},{"PRN":12,"gnssid":0,"svid":12,"az":272.0,"el":59.0,"ss":50.0,"used":true},{"PRN":6,"gnssid":0,"svid":6,"az":48.0,"el":51.0,"ss":30.0,"used":true},{"PRN":21,"gnssid":0,"svid":21,"az":175.0,"el":42.0,"ss":41.0,"used":true},{"PRN":19,"gnssid":0,"svid":19,"az":99.0,"el":39.0,"ss":30.0,"used":true},{"PRN":25,"gnssid":0,"svid":25,"az":311.0,"el":28.0,"ss":22.0,"used":true},{"PRN":5,"gnssid":0,"svid":5,"az":197.0,"el":19.0,"ss":43.0,"used":true},{"PRN":17,"gnssid":0,"svid":17,"az":108.0,"el":15.0,"ss":26.0,"used":false},{"PRN":9,"gnssid":0,"svid":9,"az":77.0,"el":13.0,"ss":0.0,"used":false},{"PRN":4,"gnssid":0,"svid":4,"az":47.0,"el":7.0,"ss":0.0,"used":false},{"PRN":46,"gnssid":1,"svid":133,"az":232.0,"el":26.0,"ss":39.0,"used":false},{"PRN":48,"gnssid":1,"svid":135,"az":227.0,"el":28.0,"ss":37.0,"used":false},{"PRN":44,"gnssid":1,"svid":131,"az":219.0,"el":33.0,"ss":37.0,"used":false},{"PRN":51,"gnssid":1,"svid":138,"az":207.0,"el":37.0,"ss":0.0,"used":false},{"PRN":88,"gnssid":6,"svid":24,"az":302.0,"el":50.0,"ss":42.0,"used":true},{"PRN":78,"gnssid":6,"svid":14,"az":277.0,"el":48.0,"ss":42.0,"used":true},{"PRN":87,"gnssid":6,"svid":23,"az":47.0,"el":40.0,"ss":33.0,"used":true},{"PRN":72,"gnssid":6,"svid":8,"az":92.0,"el":31.0,"ss":25.0,"used":false},{"PRN":77,"gnssid":6,"svid":13,"az":203.0,"el":27.0,"ss":36.0,"used":true},{"PRN":71,"gnssid":6,"svid":7,"az":36.0,"el":20.0,"ss":35.0,"used":true},{"PRN":79,"gnssid":6,"svid":15,"az":331.0,"el":18.0,"ss":37.0,"used":true},{"PRN":65,"gnssid":6,"svid":1,"az":145.0,"el":12.0,"ss":28.0,"used":true},{"PRN":86,"gnssid":6,"svid":22,"az":69.0,"el":6.0,"ss":25.0,"used":false},{"PRN":81,"gnssid":6,"svid":17,"az":268.0,"el":6.0,"ss":32.0,"used":true}]}
$GPGLL,4215.07758,N,08811.88578,W,203456.000,A,D*4D
{"class":"TPV","status":2,"mode":3,"time":"2026-03-16T20:34:56.000Z","ept":0.005,"lat":42.251293000,"lon":-88.198096333,"altHAE":199.3800,"altMSL":233.4800,"alt":233.4800,"epx":1.782,"epy":1.722,"epv":5.175,"track":0.0000,"magtrack":356.3206,"magvar":-3.7,"speed":0.051,"climb":0.010,"eps":3.56,"epc":10.35,"geoidSep":-34.100,"eph":2.850,"sep":5.225}
{"class":"SKY","gdop":1.41,"hdop":0.60,"pdop":1.10,"tdop":0.64,"xdop":0.48,"ydop":0.46,"vdop":0.90,"uSat":15}
$PSTMCPU,57.20,-1,98*43
$GPRMC,203457.000,A,4215.07757,N,08811.88577,W,0.1,0.0,160326,,,D*7A
$GPGGA,203457.000,4215.07757,N,08811.88577,W,2,15,0.6,233.51,M,-34.1,M,,*50
{"class":"SKY","hdop":0.60,"uSat":15}
$GPVTG,0.0,T,,M,0.1,N,0.1,K,D*08
$GNGSA,A,3,11,12,06,21,25,05,19,,,,,,1.1,0.6,0.9*2F
$GNGSA,A,3,87,78,88,77,71,79,65,81,,,,,1.1,0.6,0.9*21
{"class":"SKY","hdop":0.60,"pdop":1.10,"vdop":0.90,"uSat":15}
$GPGSV,4,1,13,11,75,290,51,12,59,272,50,06,51,048,30,21,42,175,42*73
$GPGSV,4,2,13,19,39,099,29,25,28,311,21,05,19,197,43,17,15,108,26*73
$GPGSV,4,3,13,09,13,077,,04,07,047,,46,26,232,39,48,28,227,38*72
$GPGSV,4,4,13,44,33,219,37,,,,,,,,,,,,*45
$GLGSV,3,1,10,88,50,302,42,78,48,277,42,87,40,047,33,72,31,092,25*60
$GLGSV,3,2,10,77,27,203,36,71,20,036,35,79,18,331,38,65,12,145,28*64
$GLGSV,3,3,10,86,06,069,25,81,06,268,32,,,,,,,,*66
{"class":"SKY","gdop":1.41,"hdop":0.60,"pdop":1.10,"tdop":0.64,"xdop":0.48,"ydop":0.46,"vdop":0.90,"nSat":23,"uSat":15,"satellites":[{"PRN":11,"gnssid":0,"svid":11,"az":290.0,"el":75.0,"ss":51.0,"used":true},{"PRN":12,"gnssid":0,"svid":12,"az":272.0,"el":59.0,"ss":50.0,"used":true},{"PRN":6,"gnssid":0,"svid":6,"az":48.0,"el":51.0,"ss":30.0,"used":true},{"PRN":21,"gnssid":0,"svid":21,"az":175.0,"el":42.0,"ss":42.0,"used":true},{"PRN":19,"gnssid":0,"svid":19,"az":99.0,"el":39.0,"ss":29.0,"used":true},{"PRN":25,"gnssid":0,"svid":25,"az":311.0,"el":28.0,"ss":21.0,"used":true},{"PRN":5,"gnssid":0,"svid":5,"az":197.0,"el":19.0,"ss":43.0,"used":true},{"PRN":17,"gnssid":0,"svid":17,"az":108.0,"el":15.0,"ss":26.0,"used":false},{"PRN":9,"gnssid":0,"svid":9,"az":77.0,"el":13.0,"ss":0.0,"used":false},{"PRN":4,"gnssid":0,"svid":4,"az":47.0,"el":7.0,"ss":0.0,"used":false},{"PRN":46,"gnssid":1,"svid":133,"az":232.0,"el":26.0,"ss":39.0,"used":false},{"PRN":48,"gnssid":1,"svid":135,"az":227.0,"el":28.0,"ss":38.0,"used":false},{"PRN":44,"gnssid":1,"svid":131,"az":219.0,"el":33.0,"ss":37.0,"used":false},{"PRN":88,"gnssid":6,"svid":24,"az":302.0,"el":50.0,"ss":42.0,"used":true},{"PRN":78,"gnssid":6,"svid":14,"az":277.0,"el":48.0,"ss":42.0,"used":true},{"PRN":87,"gnssid":6,"svid":23,"az":47.0,"el":40.0,"ss":33.0,"used":true},{"PRN":72,"gnssid":6,"svid":8,"az":92.0,"el":31.0,"ss":25.0,"used":false},{"PRN":77,"gnssid":6,"svid":13,"az":203.0,"el":27.0,"ss":36.0,"used":true},{"PRN":71,"gnssid":6,"svid":7,"az":36.0,"el":20.0,"ss":35.0,"used":true},{"PRN":79,"gnssid":6,"svid":15,"az":331.0,"el":18.0,"ss":38.0,"used":true},{"PRN":65,"gnssid":6,"svid":1,"az":145.0,"el":12.0,"ss":28.0,"used":true},{"PRN":86,"gnssid":6,"svid":22,"az":69.0,"el":6.0,"ss":25.0,"used":false},{"PRN":81,"gnssid":6,"svid":17,"az":268.0,"el":6.0,"ss":32.0,"used":true}]}
$GPGLL,4215.07757,N,08811.88577,W,203457.000,A,D*4C
{"class":"TPV","status":2,"mode":3,"time":"2026-03-16T20:34:57.000Z","ept":0.005,"lat":42.251292833,"lon":-88.198096167,"altHAE":199.4100,"altMSL":233.5100,"alt":233.5100,"epx":1.782,"epy":1.722,"epv":5.175,"track":0.0000,"magtrack":356.3206,"magvar":-3.7,"speed":0.051,"climb":0.030,"eps":3.56,"epc":10.35,"geoidSep":-34.100,"eph":2.850,"sep":5.225}
{"class":"SKY","gdop":1.41,"hdop":0.60,"pdop":1.10,"tdop":0.64,"xdop":0.48,"ydop":0.46,"vdop":0.90,"uSat":15}
$PSTMCPU,60.51,-1,98*41
$GPRMC,203458.000,A,4215.07755,N,08811.88576,W,0.1,0.0,160326,,,D*76
$GPGGA,203458.000,4215.07755,N,08811.88576,W,2,14,0.6,233.53,M,-34.1,M,,*5F
{"class":"SKY","hdop":0.60,"uSat":14}
$GPVTG,0.0,T,,M,0.1,N,0.2,K,D*0B
$GNGSA,A,3,11,12,06,21,05,19,,,,,,,1.1,0.6,0.9*28
$GNGSA,A,3,87,78,88,77,71,79,65,81,,,,,1.1,0.6,0.9*21
{"class":"SKY","hdop":0.60,"pdop":1.10,"vdop":0.90,"uSat":14}
$GPGSV,4,1,13,11,75,290,51,12,59,272,50,06,51,048,29,21,42,175,42*7B
$GPGSV,4,2,13,19,39,099,30,25,28,311,20,05,19,197,43,17,15,108,26*7A
$GPGSV,4,3,13,09,13,077,,04,07,047,,46,26,232,40,48,28,227,39*7D
$GPGSV,4,4,13,44,33,219,37,,,,,,,,,,,,*45
$GLGSV,3,1,10,88,50,302,42,78,48,277,42,87,40,047,33,72,31,092,24*61
$GLGSV,3,2,10,77,27,203,36,71,20,036,35,79,18,331,38,65,12,145,29*65
$GLGSV,3,3,10,86,06,069,25,81,06,268,33,,,,,,,,*67
{"class":"SKY","gdop":1.43,"hdop":0.60,"pdop":1.10,"tdop":0.66,"xdop":0.49,"ydop":0.48,"vdop":0.90,"nSat":23,"uSat":14,"satellites":[{"PRN":11,"gnssid":0,"svid":11,"az":290.0,"el":75.0,"ss":51.0,"used":true},{"PRN":12,"gnssid":0,"svid":12,"az":272.0,"el":59.0,"ss":50.0,"used":true},{"PRN":6,"gnssid":0,"svid":6,"az":48.0,"el":51.0,"ss":29.0,"used":true},{"PRN":21,"gnssid":0,"svid":21,"az":175.0,"el":42.0,"ss":42.0,"used":true},{"PRN":19,"gnssid":0,"svid":19,"az":99.0,"el":39.0,"ss":30.0,"used":true},{"PRN":25,"gnssid":0,"svid":25,"az":311.0,"el":28.0,"ss":20.0,"used":false},{"PRN":5,"gnssid":0,"svid":5,"az":197.0,"el":19.0,"ss":43.0,"used":true},{"PRN":17,"gnssid":0,"svid":17,"az":108.0,"el":15.0,"ss":26.0,"used":false},{"PRN":9,"gnssid":0,"svid":9,"az":77.0,"el":13.0,"ss":0.0,"used":false},{"PRN":4,"gnssid":0,"svid":4,"az":47.0,"el":7.0,"ss":0.0,"used":false},{"PRN":46,"gnssid":1,"svid":133,"az":232.0,"el":26.0,"ss":40.0,"used":false},{"PRN":48,"gnssid":1,"svid":135,"az":227.0,"el":28.0,"ss":39.0,"used":false},{"PRN":44,"gnssid":1,"svid":131,"az":219.0,"el":33.0,"ss":37.0,"used":false},{"PRN":88,"gnssid":6,"svid":24,"az":302.0,"el":50.0,"ss":42.0,"used":true},{"PRN":78,"gnssid":6,"svid":14,"az":277.0,"el":48.0,"ss":42.0,"used":true},{"PRN":87,"gnssid":6,"svid":23,"az":47.0,"el":40.0,"ss":33.0,"used":true},{"PRN":72,"gnssid":6,"svid":8,"az":92.0,"el":31.0,"ss":24.0,"used":false},{"PRN":77,"gnssid":6,"svid":13,"az":203.0,"el":27.0,"ss":36.0,"used":true},{"PRN":71,"gnssid":6,"svid":7,"az":36.0,"el":20.0,"ss":35.0,"used":true},{"PRN":79,"gnssid":6,"svid":15,"az":331.0,"el":18.0,"ss":38.0,"used":true},{"PRN":65,"gnssid":6,"svid":1,"az":145.0,"el":12.0,"ss":29.0,"used":true},{"PRN":86,"gnssid":6,"svid":22,"az":69.0,"el":6.0,"ss":25.0,"used":false},{"PRN":81,"gnssid":6,"svid":17,"az":268.0,"el":6.0,"ss":33.0,"used":true}]}
$GPGLL,4215.07755,N,08811.88576,W,203458.000,A,D*40
{"class":"TPV","status":2,"mode":3,"time":"2026-03-16T20:34:58.000Z","ept":0.005,"lat":42.251292500,"lon":-88.198096000,"altHAE":199.4300,"altMSL":233.5300,"alt":233.5300,"epx":1.849,"epy":1.796,"epv":5.175,"track":0.0000,"magtrack":356.3206,"magvar":-3.7,"speed":0.051,"climb":0.020,"eps":3.63,"epc":10.35,"geoidSep":-34.100,"eph":2.850,"sep":5.225}
{"class":"SKY","gdop":1.43,"hdop":0.60,"pdop":1.10,"tdop":0.66,"xdop":0.49,"ydop":0.48,"vdop":0.90,"uSat":14}
$PSTMCPU,54.97,-1,98*4C
$GPRMC,203459.000,A,4215.07754,N,08811.88575,W,0.2,0.0,160326,,,D*76
$GPGGA,203459.000,4215.07754,N,08811.88575,W,2,15,0.6,233.56,M,-34.1,M,,*58
{"class":"SKY","hdop":0.60,"uSat":15}
$GPVTG,0.0,T,,M,0.2,N,0.3,K,D*09
$GNGSA,A,3,11,12,06,21,25,05,19,,,,,,1.1,0.6,0.9*2F
$GNGSA,A,3,87,78,88,77,71,79,65,81,,,,,1.1,0.6,0.9*21
{"class":"SKY","hdop":0.60,"pdop":1.10,"vdop":0.90,"uSat":15}
$GPGSV,4,1,13,11,75,290,51,12,59,272,50,06,51,048,30,21,42,175,42*73
$GPGSV,4,2,13,19,39,099,30,25,28,311,20,05,19,197,43,17,15,108,26*7A
$GPGSV,4,3,13,09,13,077,,04,07,047,,46,26,232,40,48,28,227,39*7D
$GPGSV,4,4,13,44,33,219,37,,,,,,,,,,,,*45
$GLGSV,3,1,10,88,50,302,42,78,48,277,42,87,40,047,33,72,31,092,23*66
$GLGSV,3,2,10,77,27,203,36,71,20,036,35,79,18,331,38,65,12,145,29*65
$GLGSV,3,3,10,86,06,069,25,81,06,268,33,,,,,,,,*67
{"class":"SKY","gdop":1.41,"hdop":0.60,"pdop":1.10,"tdop":0.64,"xdop":0.48,"ydop":0.46,"vdop":0.90,"nSat":23,"uSat":15,"satellites":[{"PRN":11,"gnssid":0,"svid":11,"az":290.0,"el":75.0,"ss":51.0,"used":true},{"PRN":12,"gnssid":0,"svid":12,"az":272.0,"el":59.0,"ss":50.0,"used":true},{"PRN":6,"gnssid":0,"svid":6,"az":48.0,"el":51.0,"ss":30.0,"used":true},{"PRN":21,"gnssid":0,"svid":21,"az":175.0,"el":42.0,"ss":42.0,"used":true},{"PRN":19,"gnssid":0,"svid":19,"az":99.0,"el":39.0,"ss":30.0,"used":true},{"PRN":25,"gnssid":0,"svid":25,"az":311.0,"el":28.0,"ss":20.0,"used":true},{"PRN":5,"gnssid":0,"svid":5,"az":197.0,"el":19.0,"ss":43.0,"used":true},{"PRN":17,"gnssid":0,"svid":17,"az":108.0,"el":15.0,"ss":26.0,"used":false},{"PRN":9,"gnssid":0,"svid":9,"az":77.0,"el":13.0,"ss":0.0,"used":false},{"PRN":4,"gnssid":0,"svid":4,"az":47.0,"el":7.0,"ss":0.0,"used":false},{"PRN":46,"gnssid":1,"svid":133,"az":232.0,"el":26.0,"ss":40.0,"used":false},{"PRN":48,"gnssid":1,"svid":135,"az":227.0,"el":28.0,"ss":39.0,"used":false},{"PRN":44,"gnssid":1,"svid":131,"az":219.0,"el":33.0,"ss":37.0,"used":false},{"PRN":88,"gnssid":6,"svid":24,"az":302.0,"el":50.0,"ss":42.0,"used":true},{"PRN":78,"gnssid":6,"svid":14,"az":277.0,"el":48.0,"ss":42.0,"used":true},{"PRN":87,"gnssid":6,"svid":23,"az":47.0,"el":40.0,"ss":33.0,"used":true},{"PRN":72,"gnssid":6,"svid":8,"az":92.0,"el":31.0,"ss":23.0,"used":false},{"PRN":77,"gnssid":6,"svid":13,"az":203.0,"el":27.0,"ss":36.0,"used":true},{"PRN":71,"gnssid":6,"svid":7,"az":36.0,"el":20.0,"ss":35.0,"used":true},{"PRN":79,"gnssid":6,"svid":15,"az":331.0,"el":18.0,"ss":38.0,"used":true},{"PRN":65,"gnssid":6,"svid":1,"az":145.0,"el":12.0,"ss":29.0,"used":true},{"PRN":86,"gnssid":6,"svid":22,"az":69.0,"el":6.0,"ss":25.0,"used":false},{"PRN":81,"gnssid":6,"svid":17,"az":268.0,"el":6.0,"ss":33.0,"used":true}]}
$GPGLL,4215.07754,N,08811.88575,W,203459.000,A,D*43
{"class":"TPV","status":2,"mode":3,"time":"2026-03-16T20:34:59.000Z","ept":0.005,"lat":42.251292333,"lon":-88.198095833,"altHAE":199.4600,"altMSL":233.5600,"alt":233.5600,"epx":1.782,"epy":1.722,"epv":5.175,"track":0.0000,"magtrack":356.3206,"magvar":-3.7,"speed":0.103,"climb":0.030,"eps":3.63,"epc":10.35,"geoidSep":-34.100,"eph":2.850,"sep":5.225}
{"class":"SKY","gdop":1.41,"hdop":0.60,"pdop":1.10,"tdop":0.64,"xdop":0.48,"ydop":0.46,"vdop":0.90,"uSat":15}
$PSTMCPU,53.01,-1,98*44
$GPRMC,203500.000,A,4215.07752,N,08811.88572,W,0.1,0.0,160326,,,D*79
$GPGGA,203500.000,4215.07752,N,08811.88572,W,2,15,0.6,233.61,M,-34.1,M,,*50
{"class":"SKY","hdop":0.60,"uSat":15}
$GPVTG,0.0,T,,M,0.1,N,0.2,K,D*0B
$GNGSA,A,3,11,12,06,21,25,05,19,,,,,,1.1,0.6,1.0*27
$GNGSA,A,3,87,78,88,77,71,79,65,81,,,,,1.1,0.6,1.0*29
{"class":"SKY","hdop":0.60,"pdop":1.10,"vdop":1.00,"uSat":15}
$GPGSV,4,1,13,11,75,290,51,12,59,272,50,06,51,048,30,21,42,175,42*73
$GPGSV,4,2,13,19,39,099,30,25,28,311,20,05,19,197,43,17,15,108,26*7A
$GPGSV,4,3,13,09,13,077,20,04,07,047,,46,26,232,41,48,28,227,39*7E
$GPGSV,4,4,13,44,33,219,36,,,,,,,,,,,,*44
$GLGSV,3,1,10,88,50,302,42,78,48,277,42,87,40,047,33,72,31,092,23*66
$GLGSV,3,2,10,77,27,203,36,71,20,036,34,79,18,331,39,65,12,145,30*6D
$GLGSV,3,3,10,86,06,069,25,81,06,268,33,,,,,,,,*67
{"class":"SKY","gdop":1.41,"hdop":0.60,"pdop":1.10,"tdop":0.64,"xdop":0.48,"ydop":0.46,"vdop":1.00,"nSat":23,"uSat":15,"satellites":[{"PRN":11,"gnssid":0,"svid":11,"az":290.0,"el":75.0,"ss":51.0,"used":true},{"PRN":12,"gnssid":0,"svid":12,"az":272.0,"el":59.0,"ss":50.0,"used":true},{"PRN":6,"gnssid":0,"svid":6,"az":48.0,"el":51.0,"ss":30.0,"used":true},{"PRN":21,"gnssid":0,"svid":21,"az":175.0,"el":42.0,"ss":42.0,"used":true},{"PRN":19,"gnssid":0,"svid":19,"az":99.0,"el":39.0,"ss":30.0,"used":true},{"PRN":25,"gnssid":0,"svid":25,"az":311.0,"el":28.0,"ss":20.0,"used":true},{"PRN":5,"gnssid":0,"svid":5,"az":197.0,"el":19.0,"ss":43.0,"used":true},{"PRN":17,"gnssid":0,"svid":17,"az":108.0,"el":15.0,"ss":26.0,"used":false},{"PRN":9,"gnssid":0,"svid":9,"az":77.0,"el":13.0,"ss":20.0,"used":false},{"PRN":4,"gnssid":0,"svid":4,"az":47.0,"el":7.0,"ss":0.0,"used":false},{"PRN":46,"gnssid":1,"svid":133,"az":232.0,"el":26.0,"ss":41.0,"used":false},{"PRN":48,"gnssid":1,"svid":135,"az":227.0,"el":28.0,"ss":39.0,"used":false},{"PRN":44,"gnssid":1,"svid":131,"az":219.0,"el":33.0,"ss":36.0,"used":false},{"PRN":88,"gnssid":6,"svid":24,"az":302.0,"el":50.0,"ss":42.0,"used":true},{"PRN":78,"gnssid":6,"svid":14,"az":277.0,"el":48.0,"ss":42.0,"used":true},{"PRN":87,"gnssid":6,"svid":23,"az":47.0,"el":40.0,"ss":33.0,"used":true},{"PRN":72,"gnssid":6,"svid":8,"az":92.0,"el":31.0,"ss":23.0,"used":false},{"PRN":77,"gnssid":6,"svid":13,"az":203.0,"el":27.0,"ss":36.0,"used":true},{"PRN":71,"gnssid":6,"svid":7,"az":36.0,"el":20.0,"ss":34.0,"used":true},{"PRN":79,"gnssid":6,"svid":15,"az":331.0,"el":18.0,"ss":39.0,"used":true},{"PRN":65,"gnssid":6,"svid":1,"az":145.0,"el":12.0,"ss":30.0,"used":true},{"PRN":86,"gnssid":6,"svid":22,"az":69.0,"el":6.0,"ss":25.0,"used":false},{"PRN":81,"gnssid":6,"svid":17,"az":268.0,"el":6.0,"ss":33.0,"used":true}]}
$GPGLL,4215.07752,N,08811.88572,W,203500.000,A,D*4F
{"class":"TPV","status":2,"mode":3,"time":"2026-03-16T20:35:00.000Z","ept":0.005,"lat":42.251292000,"lon":-88.198095333,"altHAE":199.5100,"altMSL":233.6100,"alt":233.6100,"epx":1.782,"epy":1.722,"epv":5.750,"track":0.0000,"magtrack":356.3206,"magvar":-3.7,"speed":0.051,"climb":0.050,"eps":3.56,"epc":10.93,"geoidSep":-34.100,"eph":2.850,"sep":5.225}
{"class":"SKY","gdop":1.41,"hdop":0.60,"pdop":1.10,"tdop":0.64,"xdop":0.48,"ydop":0.46,"vdop":1.00,"uSat":15}
$PSTMCPU,56.87,-1,98*4F
$GPRMC,203501.000,A,4215.07749,N,08811.88567,W,0.0,0.0,160326,,,D*77
$GPGGA,203501.000,4215.07749,N,08811.88567,W,2,15,0.6,233.65,M,-34.1,M,,*5B
{"class":"SKY","hdop":0.60,"uSat":15}
$GPVTG,0.0,T,,M,0.0,N,0.1,K,D*09
$GNGSA,A,3,11,12,06,21,05,09,19,,,,,,1.1,0.6,0.9*21
$GNGSA,A,3,87,78,88,77,71,79,65,81,,,,,1.1,0.6,0.9*21
{"class":"SKY","hdop":0.60,"pdop":1.10,"vdop":0.90,"uSat":15}
$GPGSV,4,1,13,11,75,290,51,12,59,272,50,06,51,048,29,21,42,175,42*7B
$GPGSV,4,2,13,19,39,099,30,25,28,311,20,05,19,197,43,17,15,108,26*7A
$GPGSV,4,3,13,09,13,077,21,04,07,047,,46,26,232,41,48,28,227,39*7F
$GPGSV,4,4,13,44,33,219,36,,,,,,,,,,,,*44
$GLGSV,3,1,10,88,50,302,42,78,48,277,42,87,40,047,32,72,31,092,23*67
$GLGSV,3,2,10,77,27,203,36,71,20,036,34,79,18,331,39,65,12,145,30*6D
$GLGSV,3,3,10,86,06,069,25,81,06,268,34,,,,,,,,*60
{"class":"SKY","gdop":1.35,"hdop":0.60,"pdop":1.10,"tdop":0.60,"xdop":0.45,"ydop":0.47,"vdop":0.90,"nSat":23,"uSat":15,"satellites":[{"PRN":11,"gnssid":0,"svid":11,"az":290.0,"el":75.0,"ss":51.0,"used":true},{"PRN":12,"gnssid":0,"svid":12,"az":272.0,"el":59.0,"ss":50.0,"used":true},{"PRN":6,"gnssid":0,"svid":6,"az":48.0,"el":51.0,"ss":29.0,"used":true},{"PRN":21,"gnssid":0,"svid":21,"az":175.0,"el":42.0,"ss":42.0,"used":true},{"PRN":19,"gnssid":0,"svid":19,"az":99.0,"el":39.0,"ss":30.0,"used":true},{"PRN":25,"gnssid":0,"svid":25,"az":311.0,"el":28.0,"ss":20.0,"used":false},{"PRN":5,"gnssid":0,"svid":5,"az":197.0,"el":19.0,"ss":43.0,"used":true},{"PRN":17,"gnssid":0,"svid":17,"az":108.0,"el":15.0,"ss":26.0,"used":false},{"PRN":9,"gnssid":0,"svid":9,"az":77.0,"el":13.0,"ss":21.0,"used":true},{"PRN":4,"gnssid":0,"svid":4,"az":47.0,"el":7.0,"ss":0.0,"used":false},{"PRN":46,"gnssid":1,"svid":133,"az":232.0,"el":26.0,"ss":41.0,"used":false},{"PRN":48,"gnssid":1,"svid":135,"az":227.0,"el":28.0,"ss":39.0,"used":false},{"PRN":44,"gnssid":1,"svid":131,"az":219.0,"el":33.0,"ss":36.0,"used":false},{"PRN":88,"gnssid":6,"svid":24,"az":302.0,"el":50.0,"ss":42.0,"used":true},{"PRN":78,"gnssid":6,"svid":14,"az":277.0,"el":48.0,"ss":42.0,"used":true},{"PRN":87,"gnssid":6,"svid":23,"az":47.0,"el":40.0,"ss":32.0,"used":true},{"PRN":72,"gnssid":6,"svid":8,"az":92.0,"el":31.0,"ss":23.0,"used":false},{"PRN":77,"gnssid":6,"svid":13,"az":203.0,"el":27.0,"ss":36.0,"used":true},{"PRN":71,"gnssid":6,"svid":7,"az":36.0,"el":20.0,"ss":34.0,"used":true},{"PRN":79,"gnssid":6,"svid":15,"az":331.0,"el":18.0,"ss":39.0,"used":true},{"PRN":65,"gnssid":6,"svid":1,"az":145.0,"el":12.0,"ss":30.0,"used":true},{"PRN":86,"gnssid":6,"svid":22,"az":69.0,"el":6.0,"ss":25.0,"used":false},{"PRN":81,"gnssid":6,"svid":17,"az":268.0,"el":6.0,"ss":34.0,"used":true}]}
$GPGLL,4215.07749,N,08811.88567,W,203501.000,A,D*40
{"class":"TPV","status":2,"mode":3,"time":"2026-03-16T20:35:01.000Z","ept":0.005,"lat":42.251291500,"lon":-88.198094500,"altHAE":199.5500,"altMSL":233.6500,"alt":233.6500,"epx":1.679,"epy":1.779,"epv":5.175,"track":0.0000,"magtrack":356.3206,"magvar":-3.7,"speed":0.000,"climb":0.040,"eps":3.56,"epc":10.93,"geoidSep":-34.100,"eph":2.850,"sep":5.225}
{"class":"SKY","gdop":1.35,"hdop":0.60,"pdop":1.10,"tdop":0.60,"xdop":0.45,"ydop":0.47,"vdop":0.90,"uSat":15}
$PSTMCPU,57.09,-1,98*48
$GPRMC,203502.000,A,4215.07748,N,08811.88562,W,0.1,0.0,160326,,,D*71
$GPGGA,203502.000,4215.07748,N,08811.88562,W,2,16,0.6,233.69,M,-34.1,M,,*53
{"class":"SKY","hdop":0.60,"uSat":16}
$GPVTG,0.0,T,,M,0.1,N,0.1,K,D*08
$GNGSA,A,3,11,12,06,21,25,05,09,19,,,,,1.1,0.6,0.9*26
$GNGSA,A,3,87,78,88,77,71,79,65,81,,,,,1.1,0.6,0.9*21
{"class":"SKY","hdop":0.60,"pdop":1.10,"vdop":0.90,"uSat":16}
$GPGSV,4,1,13,11,75,290,51,12,59,272,50,06,51,048,29,21,42,175,42*7B
$GPGSV,4,2,13,19,39,099,30,25,28,311,20,05,19,197,43,17,15,108,26*7A
$GPGSV,4,3,13,09,13,077,22,04,07,047,,46,26,232,41,48,28,227,39*7C
$GPGSV,4,4,13,44,33,219,36,,,,,,,,,,,,*44
$GLGSV,3,1,10,88,50,302,42,78,48,277,42,87,40,047,32,72,31,092,24*60
$GLGSV,3,2,10,77,27,203,36,71,20,036,34,79,18,331,39,65,12,145,29*65
$GLGSV,3,3,10,86,06,069,25,81,06,268,34,,,,,,,,*60
{"class":"SKY","gdop":1.32,"hdop":0.60,"pdop":1.10,"tdop":0.59,"xdop":0.43,"ydop":0.45,"vdop":0.90,"nSat":23,"uSat":16,"satellites":[{"PRN":11,"gnssid":0,"svid":11,"az":290.0,"el":75.0,"ss":51.0,"used":true},{"PRN":12,"gnssid":0,"svid":12,"az":272.0,"el":59.0,"ss":50.0,"used":true},{"PRN":6,"gnssid":0,"svid":6,"az":48.0,"el":51.0,"ss":29.0,"used":true},{"PRN":21,"gnssid":0,"svid":21,"az":175.0,"el":42.0,"ss":42.0,"used":true},{"PRN":19,"gnssid":0,"svid":19,"az":99.0,"el":39.0,"ss":30.0,"used":true},{"PRN":25,"gnssid":0,"svid":25,"az":311.0,"el":28.0,"ss":20.0,"used":true},{"PRN":5,"gnssid":0,"svid":5,"az":197.0,"el":19.0,"ss":43.0,"used":true},{"PRN":17,"gnssid":0,"svid":17,"az":108.0,"el":15.0,"ss":26.0,"used":false},{"PRN":9,"gnssid":0,"svid":9,"az":77.0,"el":13.0,"ss":22.0,"used":true},{"PRN":4,"gnssid":0,"svid":4,"az":47.0,"el":7.0,"ss":0.0,"used":false},{"PRN":46,"gnssid":1,"svid":133,"az":232.0,"el":26.0,"ss":41.0,"used":false},{"PRN":48,"gnssid":1,"svid":135,"az":227.0,"el":28.0,"ss":39.0,"used":false},{"PRN":44,"gnssid":1,"svid":131,"az":219.0,"el":33.0,"ss":36.0,"used":false},{"PRN":88,"gnssid":6,"svid":24,"az":302.0,"el":50.0,"ss":42.0,"used":true},{"PRN":78,"gnssid":6,"svid":14,"az":277.0,"el":48.0,"ss":42.0,"used":true},{"PRN":87,"gnssid":6,"svid":23,"az":47.0,"el":40.0,"ss":32.0,"used":true},{"PRN":72,"gnssid":6,"svid":8,"az":92.0,"el":31.0,"ss":24.0,"used":false},{"PRN":77,"gnssid":6,"svid":13,"az":203.0,"el":27.0,"ss":36.0,"used":true},{"PRN":71,"gnssid":6,"svid":7,"az":36.0,"el":20.0,"ss":34.0,"used":true},{"PRN":79,"gnssid":6,"svid":15,"az":331.0,"el":18.0,"ss":39.0,"used":true},{"PRN":65,"gnssid":6,"svid":1,"az":145.0,"el":12.0,"ss":29.0,"used":true},{"PRN":86,"gnssid":6,"svid":22,"az":69.0,"el":6.0,"ss":25.0,"used":false},{"PRN":81,"gnssid":6,"svid":17,"az":268.0,"el":6.0,"ss":34.0,"used":true}]}
$GPGLL,4215.07748,N,08811.88562,W,203502.000,A,D*47
{"class":"TPV","status":2,"mode":3,"time":"2026-03-16T20:35:02.000Z","ept":0.005,"lat":42.251291333,"lon":-88.198093667,"altHAE":199.5900,"altMSL":233.6900,"alt":233.6900,"epx":1.604,"epy":1.705,"epv":5.175,"track":0.0000,"magtrack":356.3206,"magvar":-3.7,"speed":0.051,"climb":0.040,"eps":3.48,"epc":10.35,"geoidSep":-34.100,"eph":2.850,"sep":5.225}
{"class":"SKY","gdop":1.32,"hdop":0.60,"pdop":1.10,"tdop":0.59,"xdop":0.43,"ydop":0.45,"vdop":0.90,"uSat":16}
$PSTMCPU,56.23,-1,98*41
$GPRMC,203503.000,A,4215.07747,N,08811.88556,W,0.0,0.0,160326,,,D*79
$GPGGA,203503.000,4215.07747,N,08811.88556,W,2,16,0.6,233.71,M,-34.1,M,,*53
{"class":"SKY","hdop":0.60,"uSat":16}
$GPVTG,0.0,T,,M,0.0,N,0.1,K,D*09
$GNGSA,A,3,11,12,06,21,25,05,09,19,,,,,1.2,0.6,1.0*2D
$GNGSA,A,3,87,78,88,77,71,79,65,81,,,,,1.2,0.6,1.0*2A
{"class":"SKY","hdop":0.60,"pdop":1.20,"vdop":1.00,"uSat":16}
$GPGSV,4,1,13,11,75,290,51,12,59,272,50,06,51,048,28,21,42,175,42*7A
$GPGSV,4,2,13,19,39,099,30,25,28,311,20,05,19,197,43,17,15,108,26*7A
$GPGSV,4,3,13,09,13,077,23,04,07,047,,46,26,232,41,48,28,227,39*7D
$GPGSV,4,4,13,44,33,219,36,,,,,,,,,,,,*44
$GLGSV,3,1,10,88,50,302,43,78,48,277,42,87,40,047,32,72,31,092,24*61
$GLGSV,3,2,10,77,27,203,37,71,20,036,33,79,18,331,39,65,12,145,29*63
$GLGSV,3,3,10,86,06,069,24,81,06,268,34,,,,,,,,*61
{"class":"SKY","gdop":1.32,"hdop":0.60,"pdop":1.20,"tdop":0.59,"xdop":0.43,"ydop":0.45,"vdop":1.00,"nSat":23,"uSat":16,"satellites":[{"PRN":11,"gnssid":0,"svid":11,"az":290.0,"el":75.0,"ss":51.0,"used":true},{"PRN":12,"gnssid":0,"svid":12,"az":272.0,"el":59.0,"ss":50.0,"used":true},{"PRN":6,"gnssid":0,"svid":6,"az":48.0,"el":51.0,"ss":28.0,"used":true},{"PRN":21,"gnssid":0,"svid":21,"az":175.0,"el":42.0,"ss":42.0,"used":true},{"PRN":19,"gnssid":0,"svid":19,"az":99.0,"el":39.0,"ss":30.0,"used":true},{"PRN":25,"gnssid":0,"svid":25,"az":311.0,"el":28.0,"ss":20.0,"used":true},{"PRN":5,"gnssid":0,"svid":5,"az":197.0,"el":19.0,"ss":43.0,"used":true},{"PRN":17,"gnssid":0,"svid":17,"az":108.0,"el":15.0,"ss":26.0,"used":false},{"PRN":9,"gnssid":0,"svid":9,"az":77.0,"el":13.0,"ss":23.0,"used":true},{"PRN":4,"gnssid":0,"svid":4,"az":47.0,"el":7.0,"ss":0.0,"used":false},{"PRN":46,"gnssid":1,"svid":133,"az":232.0,"el":26.0,"ss":41.0,"used":false},{"PRN":48,"gnssid":1,"svid":135,"az":227.0,"el":28.0,"ss":39.0,"used":false},{"PRN":44,"gnssid":1,"svid":131,"az":219.0,"el":33.0,"ss":36.0,"used":false},{"PRN":88,"gnssid":6,"svid":24,"az":302.0,"el":50.0,"ss":43.0,"used":true},{"PRN":78,"gnssid":6,"svid":14,"az":277.0,"el":48.0,"ss":42.0,"used":true},{"PRN":87,"gnssid":6,"svid":23,"az":47.0,"el":40.0,"ss":32.0,"used":true},{"PRN":72,"gnssid":6,"svid":8,"az":92.0,"el":31.0,"ss":24.0,"used":false},{"PRN":77,"gnssid":6,"svid":13,"az":203.0,"el":27.0,"ss":37.0,"used":true},{"PRN":71,"gnssid":6,"svid":7,"az":36.0,"el":20.0,"ss":33.0,"used":true},{"PRN":79,"gnssid":6,"svid":15,"az":331.0,"el":18.0,"ss":39.0,"used":true},{"PRN":65,"gnssid":6,"svid":1,"az":145.0,"el":12.0,"ss":29.0,"used":true},{"PRN":86,"gnssid":6,"svid":22,"az":69.0,"el":6.0,"ss":24.0,"used":false},{"PRN":81,"gnssid":6,"svid":17,"az":268.0,"el":6.0,"ss":34.0,"used":true}]}
$GPGLL,4215.07747,N,08811.88556,W,203503.000,A,D*4E
{"class":"TPV","status":2,"mode":3,"time":"2026-03-16T20:35:03.000Z","ept":0.005,"lat":42.251291167,"lon":-88.198092667,"altHAE":199.6100,"altMSL":233.7100,"alt":233.7100,"epx":1.604,"epy":1.705,"epv":5.750,"track":0.0000,"magtrack":356.3206,"magvar":-3.7,"speed":0.000,"climb":0.020,"eps":3.41,"epc":10.93,"geoidSep":-34.100,"eph":2.850,"sep":5.700}
{"class":"SKY","gdop":1.32,"hdop":0.60,"pdop":1.20,"tdop":0.59,"xdop":0.43,"ydop":0.45,"vdop":1.00,"uSat":16}
$PSTMCPU,54.56,-1,98*41
$GPRMC,203504.000,A,4215.07745,N,08811.88550,W,0.0,0.0,160326,,,D*7A
$GPGGA,203504.000,4215.07745,N,08811.88550,W,2,15,0.6,233.74,M,-34.1,M,,*56
{"class":"SKY","hdop":0.60,"uSat":15}
$GPVTG,0.0,T,,M,0.0,N,0.0,K,D*08
$GNGSA,A,3,11,12,06,21,05,09,19,,,,,,1.2,0.6,1.0*2A
$GNGSA,A,3,87,78,88,77,71,79,65,81,,,,,1.2,0.6,1.0*2A
{"class":"SKY","hdop":0.60,"pdop":1.20,"vdop":1.00,"uSat":15}
$GPGSV,4,1,13,11,75,290,50,12,59,272,50,06,51,048,27,21,42,175,42*74
$GPGSV,4,2,13,19,39,099,30,25,28,311,20,05,19,197,43,17,15,108,26*7A
$GPGSV,4,3,13,09,13,077,23,04,07,047,,46,26,232,41,48,28,227,38*7C
$GPGSV,4,4,13,44,33,219,36,,,,,,,,,,,,*44
$GLGSV,3,1,10,88,50,302,42,78,48,277,42,87,40,047,32,72,31,092,24*60
$GLGSV,3,2,10,77,27,203,37,71,20,036,33,79,18,331,39,65,12,145,29*63
$GLGSV,3,3,10,86,06,069,24,81,06,268,34,,,,,,,,*61
{"class":"SKY","gdop":1.35,"hdop":0.60,"pdop":1.20,"tdop":0.60,"xdop":0.45,"ydop":0.47,"vdop":1.00,"nSat":23,"uSat":15,"satellites":[{"PRN":11,"gnssid":0,"svid":11,"az":290.0,"el":75.0,"ss":50.0,"used":true},{"PRN":12,"gnssid":0,"svid":12,"az":272.0,"el":59.0,"ss":50.0,"used":true},{"PRN":6,"gnssid":0,"svid":6,"az":48.0,"el":51.0,"ss":27.0,"used":true},{"PRN":21,"gnssid":0,"svid":21,"az":175.0,"el":42.0,"ss":42.0,"used":true},{"PRN":19,"gnssid":0,"svid":19,"az":99.0,"el":39.0,"ss":30.0,"used":true},{"PRN":25,"gnssid":0,"svid":25,"az":311.0,"el":28.0,"ss":20.0,"used":false},{"PRN":5,"gnssid":0,"svid":5,"az":197.0,"el":19.0,"ss":43.0,"used":true},{"PRN":17,"gnssid":0,"svid":17,"az":108.0,"el":15.0,"ss":26.0,"used":false},{"PRN":9,"gnssid":0,"svid":9,"az":77.0,"el":13.0,"ss":23.0,"used":true},{"PRN":4,"gnssid":0,"svid":4,"az":47.0,"el":7.0,"ss":0.0,"used":false},{"PRN":46,"gnssid":1,"svid":133,"az":232.0,"el":26.0,"ss":41.0,"used":false},{"PRN":48,"gnssid":1,"svid":135,"az":227.0,"el":28.0,"ss":38.0,"used":false},{"PRN":44,"gnssid":1,"svid":131,"az":219.0,"el":33.0,"ss":36.0,"used":false},{"PRN":88,"gnssid":6,"svid":24,"az":302.0,"el":50.0,"ss":42.0,"used":true},{"PRN":78,"gnssid":6,"svid":14,"az":277.0,"el":48.0,"ss":42.0,"used":true},{"PRN":87,"gnssid":6,"svid":23,"az":47.0,"el":40.0,"ss":32.0,"used":true},{"PRN":72,"gnssid":6,"svid":8,"az":92.0,"el":31.0,"ss":24.0,"used":false},{"PRN":77,"gnssid":6,"svid":13,"az":203.0,"el":27.0,"ss":37.0,"used":true},{"PRN":71,"gnssid":6,"svid":7,"az":36.0,"el":20.0,"ss":33.0,"used":true},{"PRN":79,"gnssid":6,"svid":15,"az":331.0,"el":18.0,"ss":39.0,"used":true},{"PRN":65,"gnssid":6,"svid":1,"az":145.0,"el":12.0,"ss":29.0,"used":true},{"PRN":86,"gnssid":6,"svid":22,"az":69.0,"el":6.0,"ss":24.0,"used":false},{"PRN":81,"gnssid":6,"svid":17,"az":268.0,"el":6.0,"ss":34.0,"used":true}]}
$GPGLL,4215.07745,N,08811.88550,W,203504.000,A,D*4D
{"class":"TPV","status":2,"mode":3,"time":"2026-03-16T20:35:04.000Z","ept":0.005,"lat":42.251290833,"lon":-88.198091667,"altHAE":199.6400,"altMSL":233.7400,"alt":233.7400,"epx":1.679,"epy":1.779,"epv":5.750,"track":0.0000,"magtrack":356.3206,"magvar":-3.7,"speed":0.000,"climb":0.030,"eps":3.48,"epc":11.50,"geoidSep":-34.100,"eph":2.850,"sep":5.700}
{"class":"SKY","gdop":1.35,"hdop":0.60,"pdop":1.20,"tdop":0.60,"xdop":0.45,"ydop":0.47,"vdop":1.00,"uSat":15}
$PSTMCPU,53.43,-1,98*42
$GPRMC,203505.000,A,4215.07744,N,08811.88546,W,0.0,0.0,160326,,,D*7D
$GPGGA,203505.000,4215.07744,N,08811.88546,W,2,15,0.6,233.79,M,-34.1,M,,*5C
{"class":"SKY","hdop":0.60,"uSat":15}
$GPVTG,0.0,T,,M,0.0,N,0.1,K,D*09
$GNGSA,A,3,11,12,06,21,05,09,19,,,,,,1.2,0.6,1.0*2A
$GNGSA,A,3,87,78,88,77,71,79,65,81,,,,,1.2,0.6,1.0*2A
{"class":"SKY","hdop":0.60,"pdop":1.20,"vdop":1.00,"uSat":15}
$GPGSV,4,1,14,11,75,290,51,12,59,272,50,06,51,048,26,21,42,175,42*73
$GPGSV,4,2,14,19,39,099,31,25,28,311,20,05,19,197,43,17,15,108,26*7C
$GPGSV,4,3,14,09,13,077,23,04,07,047,,46,26,232,41,48,28,227,38*7B
$GPGSV,4,4,14,44,33,219,36,51,37,207,,,,,,,,,*76
$GLGSV,3,1,10,88,50,302,42,78,48,277,42,87,40,047,31,72,31,092,24*63
$GLGSV,3,2,10,77,27,203,36,71,20,036,33,79,18,331,39,65,12,145,29*62
$GLGSV,3,3,10,86,06,069,24,81,06,268,34,,,,,,,,*61
{"class":"SKY","gdop":1.35,"hdop":0.60,"pdop":1.20,"tdop":0.60,"xdop":0.45,"ydop":0.47,"vdop":1.00,"nSat":24,"uSat":15,"satellites":[{"PRN":11,"gnssid":0,"svid":11,"az":290.0,"el":75.0,"ss":51.0,"used":true},{"PRN":12,"gnssid":0,"svid":12,"az":272.0,"el":59.0,"ss":50.0,"used":true},{"PRN":6,"gnssid":0,"svid":6,"az":48.0,"el":51.0,"ss":26.0,"used":true},{"PRN":21,"gnssid":0,"svid":21,"az":175.0,"el":42.0,"ss":42.0,"used":true},{"PRN":19,"gnssid":0,"svid":19,"az":99.0,"el":39.0,"ss":31.0,"used":true},{"PRN":25,"gnssid":0,"svid":25,"az":311.0,"el":28.0,"ss":20.0,"used":false},{"PRN":5,"gnssid":0,"svid":5,"az":197.0,"el":19.0,"ss":43.0,"used":true},{"PRN":17,"gnssid":0,"svid":17,"az":108.0,"el":15.0,"ss":26.0,"used":false},{"PRN":9,"gnssid":0,"svid":9,"az":77.0,"el":13.0,"ss":23.0,"used":true},{"PRN":4,"gnssid":0,"svid":4,"az":47.0,"el":7.0,"ss":0.0,"used":false},{"PRN":46,"gnssid":1,"svid":133,"az":232.0,"el":26.0,"ss":41.0,"used":false},{"PRN":48,"gnssid":1,"svid":135,"az":227.0,"el":28.0,"ss":38.0,"used":false},{"PRN":44,"gnssid":1,"svid":131,"az":219.0,"el":33.0,"ss":36.0,"used":false},{"PRN":51,"gnssid":1,"svid":138,"az":207.0,"el":37.0,"ss":0.0,"used":false},{"PRN":88,"gnssid":6,"svid":24,"az":302.0,"el":50.0,"ss":42.0,"used":true},{"PRN":78,"gnssid":6,"svid":14,"az":277.0,"el":48.0,"ss":42.0,"used":true},{"PRN":87,"gnssid":6,"svid":23,"az":47.0,"el":40.0,"ss":31.0,"used":true},{"PRN":72,"gnssid":6,"svid":8,"az":92.0,"el":31.0,"ss":24.0,"used":false},{"PRN":77,"gnssid":6,"svid":13,"az":203.0,"el":27.0,"ss":36.0,"used":true},{"PRN":71,"gnssid":6,"svid":7,"az":36.0,"el":20.0,"ss":33.0,"used":true},{"PRN":79,"gnssid":6,"svid":15,"az":331.0,"el":18.0,"ss":39.0,"used":true},{"PRN":65,"gnssid":6,"svid":1,"az":145.0,"el":12.0,"ss":29.0,"used":true},{"PRN":86,"gnssid":6,"svid":22,"az":69.0,"el":6.0,"ss":24.0,"used":false},{"PRN":81,"gnssid":6,"svid":17,"az":268.0,"el":6.0,"ss":34.0,"used":true}]}
$GPGLL,4215.07744,N,08811.88546,W,203505.000,A,D*4A
{"class":"TPV","status":2,"mode":3,"time":"2026-03-16T20:35:05.000Z","ept":0.005,"lat":42.251290667,"lon":-88.198091000,"altHAE":199.6900,"altMSL":233.7900,"alt":233.7900,"epx":1.679,"epy":1.779,"epv":5.750,"track":0.0000,"magtrack":356.3206,"magvar":-3.7,"speed":0.000,"climb":0.050,"eps":3.56,"epc":11.50,"geoidSep":-34.100,"eph":2.850,"sep":5.700}
{"class":"SKY","gdop":1.35,"hdop":0.60,"pdop":1.20,"tdop":0.60,"xdop":0.45,"ydop":0.47,"vdop":1.00,"uSat":15}
$PSTMCPU,58.80,-1,98*46
$GPRMC,203506.000,A,4215.07743,N,08811.88543,W,0.0,0.0,160326,,,D*7C
$GPGGA,203506.000,4215.07743,N,08811.88543,W,2,15,0.6,233.82,M,-34.1,M,,*59
{"class":"SKY","hdop":0.60,"uSat":15}
$GPVTG,0.0,T,,M,0.0,N,0.1,K,D*09
$GNGSA,A,3,11,12,06,21,05,09,19,,,,,,1.2,0.6,1.0*2A
$GNGSA,A,3,87,78,88,77,71,79,65,81,,,,,1.2,0.6,1.0*2A
{"class":"SKY","hdop":0.60,"pdop":1.20,"vdop":1.00,"uSat":15}
$GPGSV,4,1,14,11,75,290,50,12,59,272,50,06,51,048,26,21,42,175,42*72
$GPGSV,4,2,14,19,39,099,31,25,28,311,19,05,19,197,43,17,15,108,26*76
$GPGSV,4,3,14,09,13,077,23,04,07,047,,46,26,232,41,48,28,227,38*7B
$GPGSV,4,4,14,44,33,219,34,51,37,207,,,,,,,,,*74
$GLGSV,3,1,10,88,50,302,41,78,48,277,43,87,40,047,31,72,31,092,25*60
$GLGSV,3,2,10,77,27,203,36,71,20,036,31,79,18,331,39,65,12,145,29*60
$GLGSV,3,3,10,86,06,069,23,81,06,268,33,,,,,,,,*61
{"class":"SKY","gdop":1.35,"hdop":0.60,"pdop":1.20,"tdop":0.60,"xdop":0.45,"ydop":0.47,"vdop":1.00,"nSat":24,"uSat":15,"satellites":[{"PRN":11,"gnssid":0,"svid":11,"az":290.0,"el":75.0,"ss":50.0,"used":true},{"PRN":12,"gnssid":0,"svid":12,"az":272.0,"el":59.0,"ss":50.0,"used":true},{"PRN":6,"gnssid":0,"svid":6,"az":48.0,"el":51.0,"ss":26.0,"used":true},{"PRN":21,"gnssid":0,"svid":21,"az":175.0,"el":42.0,"ss":42.0,"used":true},{"PRN":19,"gnssid":0,"svid":19,"az":99.0,"el":39.0,"ss":31.0,"used":true},{"PRN":25,"gnssid":0,"svid":25,"az":311.0,"el":28.0,"ss":19.0,"used":false},{"PRN":5,"gnssid":0,"svid":5,"az":197.0,"el":19.0,"ss":43.0,"used":true},{"PRN":17,"gnssid":0,"svid":17,"az":108.0,"el":15.0,"ss":26.0,"used":false},{"PRN":9,"gnssid":0,"svid":9,"az":77.0,"el":13.0,"ss":23.0,"used":true},{"PRN":4,"gnssid":0,"svid":4,"az":47.0,"el":7.0,"ss":0.0,"used":false},{"PRN":46,"gnssid":1,"svid":133,"az":232.0,"el":26.0,"ss":41.0,"used":false},{"PRN":48,"gnssid":1,"svid":135,"az":227.0,"el":28.0,"ss":38.0,"used":false},{"PRN":44,"gnssid":1,"svid":131,"az":219.0,"el":33.0,"ss":34.0,"used":false},{"PRN":51,"gnssid":1,"svid":138,"az":207.0,"el":37.0,"ss":0.0,"used":false},{"PRN":88,"gnssid":6,"svid":24,"az":302.0,"el":50.0,"ss":41.0,"used":true},{"PRN":78,"gnssid":6,"svid":14,"az":277.0,"el":48.0,"ss":43.0,"used":true},{"PRN":87,"gnssid":6,"svid":23,"az":47.0,"el":40.0,"ss":31.0,"used":true},{"PRN":72,"gnssid":6,"svid":8,"az":92.0,"el":31.0,"ss":25.0,"used":false},{"PRN":77,"gnssid":6,"svid":13,"az":203.0,"el":27.0,"ss":36.0,"used":true},{"PRN":71,"gnssid":6,"svid":7,"az":36.0,"el":20.0,"ss":31.0,"used":true},{"PRN":79,"gnssid":6,"svid":15,"az":331.0,"el":18.0,"ss":39.0,"used":true},{"PRN":65,"gnssid":6,"svid":1,"az":145.0,"el":12.0,"ss":29.0,"used":true},{"PRN":86,"gnssid":6,"svid":22,"az":69.0,"el":6.0,"ss":23.0,"used":false},{"PRN":81,"gnssid":6,"svid":17,"az":268.0,"el":6.0,"ss":33.0,"used":true}]}
$GPGLL,4215.07743,N,08811.88543,W,203506.000,A,D*4B
{"class":"TPV","status":2,"mode":3,"time":"2026-03-16T20:35:06.000Z","ept":0.005,"lat":42.251290500,"lon":-88.198090500,"altHAE":199.7200,"altMSL":233.8200,"alt":233.8200,"epx":1.679,"epy":1.779,"epv":5.750,"track":0.0000,"magtrack":356.3206,"magvar":-3.7,"speed":0.000,"climb":0.030,"eps":3.56,"epc":11.50,"geoidSep":-34.100,"eph":2.850,"sep":5.700}
{"class":"SKY","gdop":1.35,"hdop":0.60,"pdop":1.20,"tdop":0.60,"xdop":0.45,"ydop":0.47,"vdop":1.00,"uSat":15}
$PSTMCPU,61.52,-1,98*43
$GPRMC,203507.000,A,4215.07742,N,08811.88542,W,0.1,0.0,160326,,,D*7C
$GPGGA,203507.000,4215.07742,N,08811.88542,W,2,15,0.6,233.83,M,-34.1,M,,*59
{"class":"SKY","hdop":0.60,"uSat":15}
$GPVTG,0.0,T,,M,0.1,N,0.2,K,D*0B
$GNGSA,A,3,11,12,06,21,05,09,19,,,,,,1.2,0.6,1.0*2A
$GNGSA,A,3,87,78,88,77,71,79,65,81,,,,,1.2,0.6,1.0*2A
{"class":"SKY","hdop":0.60,"pdop":1.20,"vdop":1.00,"uSat":15}
$GPGSV,4,1,13,11,75,290,50,12,59,272,50,06,51,048,25,21,42,175,41*75
$GPGSV,4,2,13,19,39,099,32,25,28,311,19,05,19,197,43,17,15,108,26*72
$GPGSV,4,3,13,09,13,077,23,04,07,047,,46,26,232,40,48,28,227,38*7D
$GPGSV,4,4,13,44,33,219,34,,,,,,,,,,,,*46
$GLGSV,3,1,10,88,50,302,41,78,48,277,43,87,40,047,31,72,31,092,25*60
$GLGSV,3,2,10,77,27,203,36,71,20,036,32,79,18,331,39,65,12,145,29*63
$GLGSV,3,3,10,86,06,069,23,81,06,268,33,,,,,,,,*61
{"class":"SKY","gdop":1.35,"hdop":0.60,"pdop":1.20,"tdop":0.60,"xdop":0.45,"ydop":0.47,"vdop":1.00,"nSat":23,"uSat":15,"satellites":[{"PRN":11,"gnssid":0,"svid":11,"az":290.0,"el":75.0,"ss":50.0,"used":true},{"PRN":12,"gnssid":0,"svid":12,"az":272.0,"el":59.0,"ss":50.0,"used":true},{"PRN":6,"gnssid":0,"svid":6,"az":48.0,"el":51.0,"ss":25.0,"used":true},{"PRN":21,"gnssid":0,"svid":21,"az":175.0,"el":42.0,"ss":41.0,"used":true},{"PRN":19,"gnssid":0,"svid":19,"az":99.0,"el":39.0,"ss":32.0,"used":true},{"PRN":25,"gnssid":0,"svid":25,"az":311.0,"el":28.0,"ss":19.0,"used":false},{"PRN":5,"gnssid":0,"svid":5,"az":197.0,"el":19.0,"ss":43.0,"used":true},{"PRN":17,"gnssid":0,"svid":17,"az":108.0,"el":15.0,"ss":26.0,"used":false},{"PRN":9,"gnssid":0,"svid":9,"az":77.0,"el":13.0,"ss":23.0,"used":true},{"PRN":4,"gnssid":0,"svid":4,"az":47.0,"el":7.0,"ss":0.0,"used":false},{"PRN":46,"gnssid":1,"svid":133,"az":232.0,"el":26.0,"ss":40.0,"used":false},{"PRN":48,"gnssid":1,"svid":135,"az":227.0,"el":28.0,"ss":38.0,"used":false},{"PRN":44,"gnssid":1,"svid":131,"az":219.0,"el":33.0,"ss":34.0,"used":false},{"PRN":88,"gnssid":6,"svid":24,"az":302.0,"el":50.0,"ss":41.0,"used":true},{"PRN":78,"gnssid":6,"svid":14,"az":277.0,"el":48.0,"ss":43.0,"used":true},{"PRN":87,"gnssid":6,"svid":23,"az":47.0,"el":40.0,"ss":31.0,"used":true},{"PRN":72,"gnssid":6,"svid":8,"az":92.0,"el":31.0,"ss":25.0,"used":false},{"PRN":77,"gnssid":6,"svid":13,"az":203.0,"el":27.0,"ss":36.0,"used":true},{"PRN":71,"gnssid":6,"svid":7,"az":36.0,"el":20.0,"ss":32.0,"used":true},{"PRN":79,"gnssid":6,"svid":15,"az":331.0,"el":18.0,"ss":39.0,"used":true},{"PRN":65,"gnssid":6,"svid":1,"az":145.0,"el":12.0,"ss":29.0,"used":true},{"PRN":86,"gnssid":6,"svid":22,"az":69.0,"el":6.0,"ss":23.0,"used":false},{"PRN":81,"gnssid":6,"svid":17,"az":268.0,"el":6.0,"ss":33.0,"used":true}]}
$GPGLL,4215.07742,N,08811.88542,W,203507.000,A,D*4A
{"class":"TPV","status":2,"mode":3,"time":"2026-03-16T20:35:07.000Z","ept":0.005,"lat":42.251290333,"lon":-88.198090333,"altHAE":199.7300,"altMSL":233.8300,"alt":233.8300,"epx":1.679,"epy":1.779,"epv":5.750,"track":0.0000,"magtrack":356.3206,"magvar":-3.7,"speed":0.051,"climb":0.010,"eps":3.56,"epc":11.50,"geoidSep":-34.100,"eph":2.850,"sep":5.700}
{"class":"SKY","gdop":1.35,"hdop":0.60,"pdop":1.20,"tdop":0.60,"xdop":0.45,"ydop":0.47,"vdop":1.00,"uSat":15}
$PSTMCPU,58.20,-1,98*4C
$GPRMC,203508.000,A,4215.07742,N,08811.88541,W,0.0,0.0,160326,,,D*71
$GPGGA,203508.000,4215.07742,N,08811.88541,W,2,15,0.6,233.84,M,-34.1,M,,*52
{"class":"SKY","hdop":0.60,"uSat":15}
$GPVTG,0.0,T,,M,0.0,N,0.0,K,D*08
$GNGSA,A,3,11,12,06,21,05,09,19,,,,,,1.2,0.6,1.0*2A
$GNGSA,A,3,87,78,88,77,71,79,65,81,,,,,1.2,0.6,1.0*2A
{"class":"SKY","hdop":0.60,"pdop":1.20,"vdop":1.00,"uSat":15}
$GPGSV,4,1,13,11,75,290,50,12,59,272,50,06,51,048,25,21,42,175,41*75
$GPGSV,4,2,13,19,39,099,32,25,28,311,19,05,19,197,43,17,15,108,25*71
$GPGSV,4,3,13,09,13,077,23,04,07,047,,46,26,232,40,48,28,227,38*7D
$GPGSV,4,4,13,44,33,219,35,,,,,,,,,,,,*47
$GLGSV,3,1,10,88,50,302,41,78,48,277,43,87,40,047,31,72,31,092,25*60
$GLGSV,3,2,10,77,27,203,36,71,20,036,32,79,18,331,39,65,12,145,28*62
$GLGSV,3,3,10,86,06,069,23,81,06,268,33,,,,,,,,*61
{"class":"SKY","gdop":1.35,"hdop":0.60,"pdop":1.20,"tdop":0.60,"xdop":0.45,"ydop":0.47,"vdop":1.00,"nSat":23,"uSat":15,"satellites":[{"PRN":11,"gnssid":0,"svid":11,"az":290.0,"el":75.0,"ss":50.0,"used":true},{"PRN":12,"gnssid":0,"svid":12,"az":272.0,"el":59.0,"ss":50.0,"used":true},{"PRN":6,"gnssid":0,"svid":6,"az":48.0,"el":51.0,"ss":25.0,"used":true},{"PRN":21,"gnssid":0,"svid":21,"az":175.0,"el":42.0,"ss":41.0,"used":true},{"PRN":19,"gnssid":0,"svid":19,"az":99.0,"el":39.0,"ss":32.0,"used":true},{"PRN":25,"gnssid":0,"svid":25,"az":311.0,"el":28.0,"ss":19.0,"used":false},{"PRN":5,"gnssid":0,"svid":5,"az":197.0,"el":19.0,"ss":43.0,"used":true},{"PRN":17,"gnssid":0,"svid":17,"az":108.0,"el":15.0,"ss":25.0,"used":false},{"PRN":9,"gnssid":0,"svid":9,"az":77.0,"el":13.0,"ss":23.0,"used":true},{"PRN":4,"gnssid":0,"svid":4,"az":47.0,"el":7.0,"ss":0.0,"used":false},{"PRN":46,"gnssid":1,"svid":133,"az":232.0,"el":26.0,"ss":40.0,"used":false},{"PRN":48,"gnssid":1,"svid":135,"az":227.0,"el":28.0,"ss":38.0,"used":false},{"PRN":44,"gnssid":1,"svid":131,"az":219.0,"el":33.0,"ss":35.0,"used":false},{"PRN":88,"gnssid":6,"svid":24,"az":302.0,"el":50.0,"ss":41.0,"used":true},{"PRN":78,"gnssid":6,"svid":14,"az":277.0,"el":48.0,"ss":43.0,"used":true},{"PRN":87,"gnssid":6,"svid":23,"az":47.0,"el":40.0,"ss":31.0,"used":true},{"PRN":72,"gnssid":6,"svid":8,"az":92.0,"el":31.0,"ss":25.0,"used":false},{"PRN":77,"gnssid":6,"svid":13,"az":203.0,"el":27.0,"ss":36.0,"used":true},{"PRN":71,"gnssid":6,"svid":7,"az":36.0,"el":20.0,"ss":32.0,"used":true},{"PRN":79,"gnssid":6,"svid":15,"az":331.0,"el":18.0,"ss":39.0,"used":true},{"PRN":65,"gnssid":6,"svid":1,"az":145.0,"el":12.0,"ss":28.0,"used":true},{"PRN":86,"gnssid":6,"svid":22,"az":69.0,"el":6.0,"ss":23.0,"used":false},{"PRN":81,"gnssid":6,"svid":17,"az":268.0,"el":6.0,"ss":33.0,"used":true}]}
$GPGLL,4215.07742,N,08811.88541,W,203508.000,A,D*46
{"class":"TPV","status":2,"mode":3,"time":"2026-03-16T20:35:08.000Z","ept":0.005,"lat":42.251290333,"lon":-88.198090167,"altHAE":199.7400,"altMSL":233.8400,"alt":233.8400,"epx":1.679,"epy":1.779,"epv":5.750,"track":0.0000,"magtrack":356.3206,"magvar":-3.7,"speed":0.000,"climb":0.010,"eps":3.56,"epc":11.50,"geoidSep":-34.100,"eph":2.850,"sep":5.700}
{"class":"SKY","gdop":1.35,"hdop":0.60,"pdop":1.20,"tdop":0.60,"xdop":0.45,"ydop":0.47,"vdop":1.00,"uSat":15}
$PSTMCPU,55.82,-1,98*49
$GPRMC,203509.000,A,4215.07742,N,08811.88539,W,0.1,0.0,160326,,,D*7E
$GPGGA,203509.000,4215.07742,N,08811.88539,W,2,16,0.6,233.86,M,-34.1,M,,*5D
{"class":"SKY","hdop":0.60,"uSat":16}
$GPVTG,0.0,T,,M,0.1,N,0.1,K,D*08
$GNGSA,A,3,11,12,06,21,25,05,09,19,,,,,1.2,0.6,1.0*2D
$GNGSA,A,3,87,78,88,77,71,79,65,81,,,,,1.2,0.6,1.0*2A
{"class":"SKY","hdop":0.60,"pdop":1.20,"vdop":1.00,"uSat":16}
$GPGSV,4,1,13,11,75,290,50,12,59,272,50,06,51,048,23,21,42,175,41*73
$GPGSV,4,2,13,19,39,099,32,25,28,311,19,05,19,197,43,17,15,108,25*71
$GPGSV,4,3,13,09,13,077,24,04,07,047,,46,26,232,40,48,28,227,38*7A
$GPGSV,4,4,13,44,33,219,35,,,,,,,,,,,,*47
$GLGSV,3,1,10,88,50,302,41,78,48,277,44,87,40,047,31,72,31,092,26*64
$GLGSV,3,2,10,77,27,203,36,71,20,036,32,79,18,331,39,65,12,145,29*63
$GLGSV,3,3,10,86,06,069,23,81,06,268,33,,,,,,,,*61
{"class":"SKY","gdop":1.32,"hdop":0.60,"pdop":1.20,"tdop":0.59,"xdop":0.43,"ydop":0.45,"vdop":1.00,"nSat":23,"uSat":16,"satellites":[{"PRN":11,"gnssid":0,"svid":11,"az":290.0,"el":75.0,"ss":50.0,"used":true},{"PRN":12,"gnssid":0,"svid":12,"az":272.0,"el":59.0,"ss":50.0,"used":true},{"PRN":6,"gnssid":0,"svid":6,"az":48.0,"el":51.0,"ss":23.0,"used":true},{"PRN":21,"gnssid":0,"svid":21,"az":175.0,"el":42.0,"ss":41.0,"used":true},{"PRN":19,"gnssid":0,"svid":19,"az":99.0,"el":39.0,"ss":32.0,"used":true},{"PRN":25,"gnssid":0,"svid":25,"az":311.0,"el":28.0,"ss":19.0,"used":true},{"PRN":5,"gnssid":0,"svid":5,"az":197.0,"el":19.0,"ss":43.0,"used":true},{"PRN":17,"gnssid":0,"svid":17,"az":108.0,"el":15.0,"ss":25.0,"used":false},{"PRN":9,"gnssid":0,"svid":9,"az":77.0,"el":13.0,"ss":24.0,"used":true},{"PRN":4,"gnssid":0,"svid":4,"az":47.0,"el":7.0,"ss":0.0,"used":false},{"PRN":46,"gnssid":1,"svid":133,"az":232.0,"el":26.0,"ss":40.0,"used":false},{"PRN":48,"gnssid":1,"svid":135,"az":227.0,"el":28.0,"ss":38.0,"used":false},{"PRN":44,"gnssid":1,"svid":131,"az":219.0,"el":33.0,"ss":35.0,"used":false},{"PRN":88,"gnssid":6,"svid":24,"az":302.0,"el":50.0,"ss":41.0,"used":true},{"PRN":78,"gnssid":6,"svid":14,"az":277.0,"el":48.0,"ss":44.0,"used":true},{"PRN":87,"gnssid":6,"svid":23,"az":47.0,"el":40.0,"ss":31.0,"used":true},{"PRN":72,"gnssid":6,"svid":8,"az":92.0,"el":31.0,"ss":26.0,"used":false},{"PRN":77,"gnssid":6,"svid":13,"az":203.0,"el":27.0,"ss":36.0,"used":true},{"PRN":71,"gnssid":6,"svid":7,"az":36.0,"el":20.0,"ss":32.0,"used":true},{"PRN":79,"gnssid":6,"svid":15,"az":331.0,"el":18.0,"ss":39.0,"used":true},{"PRN":65,"gnssid":6,"svid":1,"az":145.0,"el":12.0,"ss":29.0,"used":true},{"PRN":86,"gnssid":6,"svid":22,"az":69.0,"el":6.0,"ss":23.0,"used":false},{"PRN":81,"gnssid":6,"svid":17,"az":268.0,"el":6.0,"ss":33.0,"used":true}]}
$GPGLL,4215.07742,N,08811.88539,W,203509.000,A,D*48
{"class":"TPV","status":2,"mode":3,"time":"2026-03-16T20:35:09.000Z","ept":0.005,"lat":42.251290333,"lon":-88.198089833,"altHAE":199.7600,"altMSL":233.8600,"alt":233.8600,"epx":1.604,"epy":1.705,"epv":5.750,"track":0.0000,"magtrack":356.3206,"magvar":-3.7,"speed":0.051,"climb":0.020,"eps":3.48,"epc":11.50,"geoidSep":-34.100,"eph":2.850,"sep":5.700}
{"class":"SKY","gdop":1.32,"hdop":0.60,"pdop":1.20,"tdop":0.59,"xdop":0.43,"ydop":0.45,"vdop":1.00,"uSat":16}
$PSTMCPU,56.23,-1,98*41
$GPRMC,203510.000,A,4215.07742,N,08811.88539,W,0.0,0.0,160326,,,D*77
$GPGGA,203510.000,4215.07742,N,08811.88539,W,2,15,0.6,233.89,M,-34.1,M,,*59
{"class":"SKY","hdop":0.60,"uSat":15}
$GPVTG,0.0,T,,M,0.0,N,0.1,K,D*09
$GNGSA,A,3,11,12,21,25,05,09,19,,,,,,1.2,0.6,1.0*2B
$GNGSA,A,3,87,78,88,77,71,79,65,81,,,,,1.2,0.6,1.0*2A
{"class":"SKY","hdop":0.60,"pdop":1.20,"vdop":1.00,"uSat":15}
$GPGSV,4,1,14,11,75,290,50,12,59,272,50,06,51,048,,21,42,175,41*75
$GPGSV,4,2,14,19,39,099,32,25,28,311,20,05,19,197,43,17,15,108,26*7F
$GPGSV,4,3,14,09,13,077,26,04,07,047,,46,26,232,40,48,28,227,37*70
$GPGSV,4,4,14,44,33,219,35,51,37,207,,,,,,,,,*75
$GLGSV,3,1,10,88,50,302,41,78,48,277,44,87,40,047,30,72,31,092,26*65
$GLGSV,3,2,10,77,27,203,36,71,20,036,32,79,18,331,39,65,12,144,29*62
$GLGSV,3,3,10,86,06,069,23,81,06,268,32,,,,,,,,*60
