# Name: ST Teseo-liv3f
# Chipset: ST microelectronic Teseo LIV3F
# Submitter: VINCENT/MICHELLE REINHARDT <vincent.reinhardt@comcast.net>
# Date: 2026-03-16
# Sample-Notes: $PSTMCPU
#
# SPDX-License-Identifier: BSD-2-Clause
# This file is Copyright by the GPSD project
#
# {"class":"DEVICES","devices":[{"class":"DEVICE","path":"/dev/ttyUSB0","driver":"NMEA0183","activated":"2026-03-16T20:34:54.939Z","flags":1,"native":0,"bps":9600,"parity":"N","stopbits":1,"cycle":1.00}]}
$GLGSV,3,2,10,77,27,203,36,71,20,036,34,79,18,331,36,65,12,145,27*64
$GLGSV,3,3,10,86,06,069,25,81,06,268,27,,,,,,,,*62
$GPGLL,4215.07753,N,08811.88592,W,203451.000,A,D*45
$PSTMCPU,54.57,-1,98*40
$GPRMC,203452.000,A,4215.07755,N,08811.88588,W,0.1,0.0,160326,,,D*7D
$GPGGA,203452.000,4215.07755,N,08811.88588,W,2,15,0.6,233.47,M,-34.1,M,,*50
$GPVTG,0.0,T,,M,0.1,N,0.2,K,D*0B
$GNGSA,A,3,11,12,06,21,25,05,19,,,,,,1.1,0.6,0.9*2F
$GNGSA,A,3,87,78,88,77,71,79,65,81,,,,,1.1,0.6,0.9*21
$GPGSV,4,1,13,11,75,290,51,12,59,272,49,06,51,048,31,21,42,175,41*79
$GPGSV,4,2,13,19,39,099,31,25,28,311,23,05,19,197,43,17,15,108,27*79
$GPGSV,4,3,13,09,13,077,,04,07,047,,46,26,232,40,48,28,227,38*7C
$GPGSV,4,4,13,44,33,219,36,,,,,,,,,,,,*44
$GLGSV,3,1,10,88,50,302,42,78,48,277,43,87,40,047,32,72,31,092,23*66
$GLGSV,3,2,10,77,27,203,36,71,20,036,34,79,18,331,36,65,12,145,26*65
$GLGSV,3,3,10,86,06,069,25,81,06,268,28,,,,,,,,*6D
$GPGLL,4215.07755,N,08811.88588,W,203452.000,A,D*4B
$PSTMCPU,55.77,-1,98*43
$GPRMC,203453.000,A,4215.07756,N,08811.88585,W,0.1,0.0,160326,,,D*72
$GPGGA,203453.000,4215.07756,N,08811.88585,W,2,15,0.6,233.45,M,-34.1,M,,*5D
$GPVTG,0.0,T,,M,0.1,N,0.2,K,D*0B
$GNGSA,A,3,11,12,06,21,25,05,19,,,,,,1.1,0.6,0.9*2F
$GNGSA,A,3,87,78,88,77,71,79,65,81,,,,,1.1,0.6,0.9*21
$GPGSV,4,1,13,11,75,290,51,12,59,272,50,06,51,048,30,21,42,175,41*70
$GPGSV,4,2,13,19,39,099,31,25,28,311,24,05,19,197,43,17,15,108,27*7E
$GPGSV,4,3,13,09,13,077,,04,07,047,,46,26,232,39,48,28,227,38*72
$GPGSV,4,4,13,44,33,219,36,,,,,,,,,,,,*44
$GLGSV,3,1,10,88,50,302,42,78,48,277,43,87,40,047,31,72,31,092,25*63
$GLGSV,3,2,10,77,27,203,36,71,20,036,34,79,18,331,37,65,12,145,26*64
$GLGSV,3,3,10,86,06,069,25,81,06,268,29,,,,,,,,*6C
$GPGLL,4215.07756,N,08811.88585,W,203453.000,A,D*44
$PSTMCPU,52.70,-1,98*43
$GPRMC,203454.000,A,4215.07757,N,08811.88582,W,0.1,0.0,160326,,,D*73
$GPGGA,203454.000,4215.07757,N,08811.88582,W,2,15,0.6,233.46,M,-34.1,M,,*5F
$GPVTG,0.0,T,,M,0.1,N,0.2,K,D*0B
$GNGSA,A,3,11,12,06,21,25,05,19,,,,,,1.1,0.6,0.9*2F
$GNGSA,A,3,87,78,88,77,71,79,65,81,,,,,1.1,0.6,0.9*21
$GPGSV,4,1,13,11,75,290,51,12,59,272,50,06,51,048,30,21,42,175,41*70
$GPGSV,4,2,13,19,39,099,31,25,28,311,24,05,19,197,43,17,15,108,27*7E
$GPGSV,4,3,13,09,13,077,,04,07,047,,46,26,232,39,48,28,227,38*72
$GPGSV,4,4,13,44,33,219,36,,,,,,,,,,,,*44
$GLGSV,3,1,10,88,50,302,43,78,48,277,43,87,40,047,31,72,31,092,25*62
$GLGSV,3,2,10,77,27,203,36,71,20,036,34,79,18,331,37,65,12,145,27*65
$GLGSV,3,3,10,86,06,069,25,81,06,268,30,,,,,,,,*64
$GPGLL,4215.07757,N,08811.88582,W,203454.000,A,D*45
$PSTMCPU,52.01,-1,98*45
$GPRMC,203455.000,A,4215.07758,N,08811.88580,W,0.1,0.0,160326,,,D*7F
$GPGGA,203455.000,4215.07758,N,08811.88580,W,2,15,0.6,233.47,M,-34.1,M,,*52
$GPVTG,0.0,T,,M,0.1,N,0.2,K,D*0B
$GNGSA,A,3,11,12,06,21,25,05,19,,,,,,1.1,0.6,0.9*2F
$GNGSA,A,3,87,78,88,77,71,79,65,81,,,,,1.1,0.6,0.9*21
$GPGSV,4,1,13,11,75,290,51,12,59,272,50,06,51,048,30,21,42,175,41*70
$GPGSV,4,2,13,19,39,099,30,25,28,311,23,05,19,197,43,17,15,108,26*79
$GPGSV,4,3,13,09,13,077,,04,07,047,,46,26,232,39,48,28,227,38*72
$GPGSV,4,4,13,44,33,219,36,,,,,,,,,,,,*44
$GLGSV,3,1,10,88,50,302,42,78,48,277,42,87,40,047,32,72,31,092,25*61
$GLGSV,3,2,10,77,27,203,36,71,20,036,35,79,18,331,37,65,12,145,27*64
$GLGSV,3,3,10,86,06,069,25,81,06,268,31,,,,,,,,*65
$GPGLL,4215.07758,N,08811.88580,W,203455.000,A,D*49
$PSTMCPU,55.54,-1,98*42
$GPRMC,203456.000,A,4215.07758,N,08811.88578,W,0.1,0.0,160326,,,D*7B
$GPGGA,203456.000,4215.07758,N,08811.88578,W,2,15,0.6,233.48,M,-34.1,M,,*59
$GPVTG,0.0,T,,M,0.1,N,0.3,K,D*0A
$GNGSA,A,3,11,12,06,21,25,05,19,,,,,,1.1,0.6,0.9*2F
$GNGSA,A,3,87,78,88,77,71,79,65,81,,,,,1.1,0.6,0.9*21
$GPGSV,4,1,14,11,75,290,51,12,59,272,50,06,51,048,30,21,42,175,41*77
$GPGSV,4,2,14,19,39,099,30,25,28,311,22,05,19,197,43,17,15,108,26*7F
$GPGSV,4,3,14,09,13,077,,04,07,047,,46,26,232,39,48,28,227,37*7A
$GPGSV,4,4,14,44,33,219,37,51,37,207,,,,,,,,,*77
$GLGSV,3,1,10,88,50,302,42,78,48,277,42,87,40,047,33,72,31,092,25*60
$GLGSV,3,2,10,77,27,203,36,71,20,036,35,79,18,331,37,65,12,145,28*6B
$GLGSV,3,3,10,86,06,069,25,81,06,268,32,,,,,,,,*66
$GPGLL,4215.07758,N,08811.88578,W,203456.000,A,D*4D
$PSTMCPU,57.20,-1,98*43
$GPRMC,203457.000,A,4215.07757,N,08811.88577,W,0.1,0.0,160326,,,D*7A
$GPGGA,203457.000,4215.07757,N,08811.88577,W,2,15,0.6,233.51,M,-34.1,M,,*50
$GPVTG,0.0,T,,M,0.1,N,0.1,K,D*08
$GNGSA,A,3,11,12,06,21,25,05,19,,,,,,1.1,0.6,0.9*2F
$GNGSA,A,3,87,78,88,77,71,79,65,81,,,,,1.1,0.6,0.9*21
$GPGSV,4,1,13,11,75,290,51,12,59,272,50,06,51,048,30,21,42,175,42*73
$GPGSV,4,2,13,19,39,099,29,25,28,311,21,05,19,197,43,17,15,108,26*73
$GPGSV,4,3,13,09,13,077,,04,07,047,,46,26,232,39,48,28,227,38*72
$GPGSV,4,4,13,44,33,219,37,,,,,,,,,,,,*45
$GLGSV,3,1,10,88,50,302,42,78,48,277,42,87,40,047,33,72,31,092,25*60
$GLGSV,3,2,10,77,27,203,36,71,20,036,35,79,18,331,38,65,12,145,28*64
$GLGSV,3,3,10,86,06,069,25,81,06,268,32,,,,,,,,*66
$GPGLL,4215.07757,N,08811.88577,W,203457.000,A,D*4C
$PSTMCPU,60.51,-1,98*41
$GPRMC,203458.000,A,4215.07755,N,08811.88576,W,0.1,0.0,160326,,,D*76
$GPGGA,203458.000,4215.07755,N,08811.88576,W,2,14,0.6,233.53,M,-34.1,M,,*5F
$GPVTG,0.0,T,,M,0.1,N,0.2,K,D*0B
$GNGSA,A,3,11,12,06,21,05,19,,,,,,,1.1,0.6,0.9*28
$GNGSA,A,3,87,78,88,77,71,79,65,81,,,,,1.1,0.6,0.9*21
$GPGSV,4,1,13,11,75,290,51,12,59,272,50,06,51,048,29,21,42,175,42*7B
$GPGSV,4,2,13,19,39,099,30,25,28,311,20,05,19,197,43,17,15,108,26*7A
$GPGSV,4,3,13,09,13,077,,04,07,047,,46,26,232,40,48,28,227,39*7D
$GPGSV,4,4,13,44,33,219,37,,,,,,,,,,,,*45
$GLGSV,3,1,10,88,50,302,42,78,48,277,42,87,40,047,33,72,31,092,24*61
$GLGSV,3,2,10,77,27,203,36,71,20,036,35,79,18,331,38,65,12,145,29*65
$GLGSV,3,3,10,86,06,069,25,81,06,268,33,,,,,,,,*67
$GPGLL,4215.07755,N,08811.88576,W,203458.000,A,D*40
$PSTMCPU,54.97,-1,98*4C
$GPRMC,203459.000,A,4215.07754,N,08811.88575,W,0.2,0.0,160326,,,D*76
$GPGGA,203459.000,4215.07754,N,08811.88575,W,2,15,0.6,233.56,M,-34.1,M,,*58
$GPVTG,0.0,T,,M,0.2,N,0.3,K,D*09
$GNGSA,A,3,11,12,06,21,25,05,19,,,,,,1.1,0.6,0.9*2F
$GNGSA,A,3,87,78,88,77,71,79,65,81,,,,,1.1,0.6,0.9*21
$GPGSV,4,1,13,11,75,290,51,12,59,272,50,06,51,048,30,21,42,175,42*73
$GPGSV,4,2,13,19,39,099,30,25,28,311,20,05,19,197,43,17,15,108,26*7A
$GPGSV,4,3,13,09,13,077,,04,07,047,,46,26,232,40,48,28,227,39*7D
$GPGSV,4,4,13,44,33,219,37,,,,,,,,,,,,*45
$GLGSV,3,1,10,88,50,302,42,78,48,277,42,87,40,047,33,72,31,092,23*66
$GLGSV,3,2,10,77,27,203,36,71,20,036,35,79,18,331,38,65,12,145,29*65
$GLGSV,3,3,10,86,06,069,25,81,06,268,33,,,,,,,,*67
$GPGLL,4215.07754,N,08811.88575,W,203459.000,A,D*43
$PSTMCPU,53.01,-1,98*44
$GPRMC,203500.000,A,4215.07752,N,08811.88572,W,0.1,0.0,160326,,,D*79
$GPGGA,203500.000,4215.07752,N,08811.88572,W,2,15,0.6,233.61,M,-34.1,M,,*50
$GPVTG,0.0,T,,M,0.1,N,0.2,K,D*0B
$GNGSA,A,3,11,12,06,21,25,05,19,,,,,,1.1,0.6,1.0*27
$GNGSA,A,3,87,78,88,77,71,79,65,81,,,,,1.1,0.6,1.0*29
$GPGSV,4,1,13,11,75,290,51,12,59,272,50,06,51,048,30,21,42,175,42*73
$GPGSV,4,2,13,19,39,099,30,25,28,311,20,05,19,197,43,17,15,108,26*7A
$GPGSV,4,3,13,09,13,077,20,04,07,047,,46,26,232,41,48,28,227,39*7E
$GPGSV,4,4,13,44,33,219,36,,,,,,,,,,,,*44
$GLGSV,3,1,10,88,50,302,42,78,48,277,42,87,40,047,33,72,31,092,23*66
$GLGSV,3,2,10,77,27,203,36,71,20,036,34,79,18,331,39,65,12,145,30*6D
$GLGSV,3,3,10,86,06,069,25,81,06,268,33,,,,,,,,*67
$GPGLL,4215.07752,N,08811.88572,W,203500.000,A,D*4F
$PSTMCPU,56.87,-1,98*4F
$GPRMC,203501.000,A,4215.07749,N,08811.88567,W,0.0,0.0,160326,,,D*77
$GPGGA,203501.000,4215.07749,N,08811.88567,W,2,15,0.6,233.65,M,-34.1,M,,*5B
$GPVTG,0.0,T,,M,0.0,N,0.1,K,D*09
$GNGSA,A,3,11,12,06,21,05,09,19,,,,,,1.1,0.6,0.9*21
$GNGSA,A,3,87,78,88,77,71,79,65,81,,,,,1.1,0.6,0.9*21
$GPGSV,4,1,13,11,75,290,51,12,59,272,50,06,51,048,29,21,42,175,42*7B
$GPGSV,4,2,13,19,39,099,30,25,28,311,20,05,19,197,43,17,15,108,26*7A
$GPGSV,4,3,13,09,13,077,21,04,07,047,,46,26,232,41,48,28,227,39*7F
$GPGSV,4,4,13,44,33,219,36,,,,,,,,,,,,*44
$GLGSV,3,1,10,88,50,302,42,78,48,277,42,87,40,047,32,72,31,092,23*67
$GLGSV,3,2,10,77,27,203,36,71,20,036,34,79,18,331,39,65,12,145,30*6D
$GLGSV,3,3,10,86,06,069,25,81,06,268,34,,,,,,,,*60
$GPGLL,4215.07749,N,08811.88567,W,203501.000,A,D*40
$PSTMCPU,57.09,-1,98*48
$GPRMC,203502.000,A,4215.07748,N,08811.88562,W,0.1,0.0,160326,,,D*71
$GPGGA,203502.000,4215.07748,N,08811.88562,W,2,16,0.6,233.69,M,-34.1,M,,*53
$GPVTG,0.0,T,,M,0.1,N,0.1,K,D*08
$GNGSA,A,3,11,12,06,21,25,05,09,19,,,,,1.1,0.6,0.9*26
$GNGSA,A,3,87,78,88,77,71,79,65,81,,,,,1.1,0.6,0.9*21
$GPGSV,4,1,13,11,75,290,51,12,59,272,50,06,51,048,29,21,42,175,42*7B
$GPGSV,4,2,13,19,39,099,30,25,28,311,20,05,19,197,43,17,15,108,26*7A
$GPGSV,4,3,13,09,13,077,22,04,07,047,,46,26,232,41,48,28,227,39*7C
$GPGSV,4,4,13,44,33,219,36,,,,,,,,,,,,*44
$GLGSV,3,1,10,88,50,302,42,78,48,277,42,87,40,047,32,72,31,092,24*60
$GLGSV,3,2,10,77,27,203,36,71,20,036,34,79,18,331,39,65,12,145,29*65
$GLGSV,3,3,10,86,06,069,25,81,06,268,34,,,,,,,,*60
$GPGLL,4215.07748,N,08811.88562,W,203502.000,A,D*47
$PSTMCPU,56.23,-1,98*41
$GPRMC,203503.000,A,4215.07747,N,08811.88556,W,0.0,0.0,160326,,,D*79
$GPGGA,203503.000,4215.07747,N,08811.88556,W,2,16,0.6,233.71,M,-34.1,M,,*53
$GPVTG,0.0,T,,M,0.0,N,0.1,K,D*09
$GNGSA,A,3,11,12,06,21,25,05,09,19,,,,,1.2,0.6,1.0*2D
$GNGSA,A,3,87,78,88,77,71,79,65,81,,,,,1.2,0.6,1.0*2A
$GPGSV,4,1,13,11,75,290,51,12,59,272,50,06,51,048,28,21,42,175,42*7A
$GPGSV,4,2,13,19,39,099,30,25,28,311,20,05,19,197,43,17,15,108,26*7A
$GPGSV,4,3,13,09,13,077,23,04,07,047,,46,26,232,41,48,28,227,39*7D
$GPGSV,4,4,13,44,33,219,36,,,,,,,,,,,,*44
$GLGSV,3,1,10,88,50,302,43,78,48,277,42,87,40,047,32,72,31,092,24*61
$GLGSV,3,2,10,77,27,203,37,71,20,036,33,79,18,331,39,65,12,145,29*63
$GLGSV,3,3,10,86,06,069,24,81,06,268,34,,,,,,,,*61
$GPGLL,4215.07747,N,08811.88556,W,203503.000,A,D*4E
$PSTMCPU,54.56,-1,98*41
$GPRMC,203504.000,A,4215.07745,N,08811.88550,W,0.0,0.0,160326,,,D*7A
$GPGGA,203504.000,4215.07745,N,08811.88550,W,2,15,0.6,233.74,M,-34.1,M,,*56
$GPVTG,0.0,T,,M,0.0,N,0.0,K,D*08
$GNGSA,A,3,11,12,06,21,05,09,19,,,,,,1.2,0.6,1.0*2A
$GNGSA,A,3,87,78,88,77,71,79,65,81,,,,,1.2,0.6,1.0*2A
$GPGSV,4,1,13,11,75,290,50,12,59,272,50,06,51,048,27,21,42,175,42*74
$GPGSV,4,2,13,19,39,099,30,25,28,311,20,05,19,197,43,17,15,108,26*7A
$GPGSV,4,3,13,09,13,077,23,04,07,047,,46,26,232,41,48,28,227,38*7C
$GPGSV,4,4,13,44,33,219,36,,,,,,,,,,,,*44
$GLGSV,3,1,10,88,50,302,42,78,48,277,42,87,40,047,32,72,31,092,24*60
$GLGSV,3,2,10,77,27,203,37,71,20,036,33,79,18,331,39,65,12,145,29*63
$GLGSV,3,3,10,86,06,069,24,81,06,268,34,,,,,,,,*61
$GPGLL,4215.07745,N,08811.88550,W,203504.000,A,D*4D
$PSTMCPU,53.43,-1,98*42
$GPRMC,203505.000,A,4215.07744,N,08811.88546,W,0.0,0.0,160326,,,D*7D
$GPGGA,203505.000,4215.07744,N,08811.88546,W,2,15,0.6,233.79,M,-34.1,M,,*5C
$GPVTG,0.0,T,,M,0.0,N,0.1,K,D*09
$GNGSA,A,3,11,12,06,21,05,09,19,,,,,,1.2,0.6,1.0*2A
$GNGSA,A,3,87,78,88,77,71,79,65,81,,,,,1.2,0.6,1.0*2A
$GPGSV,4,1,14,11,75,290,51,12,59,272,50,06,51,048,26,21,42,175,42*73
$GPGSV,4,2,14,19,39,099,31,25,28,311,20,05,19,197,43,17,15,108,26*7C
$GPGSV,4,3,14,09,13,077,23,04,07,047,,46,26,232,41,48,28,227,38*7B
$GPGSV,4,4,14,44,33,219,36,51,37,207,,,,,,,,,*76
$GLGSV,3,1,10,88,50,302,42,78,48,277,42,87,40,047,31,72,31,092,24*63
$GLGSV,3,2,10,77,27,203,36,71,20,036,33,79,18,331,39,65,12,145,29*62
$GLGSV,3,3,10,86,06,069,24,81,06,268,34,,,,,,,,*61
$GPGLL,4215.07744,N,08811.88546,W,203505.000,A,D*4A
$PSTMCPU,58.80,-1,98*46
$GPRMC,203506.000,A,4215.07743,N,08811.88543,W,0.0,0.0,160326,,,D*7C
$GPGGA,203506.000,4215.07743,N,08811.88543,W,2,15,0.6,233.82,M,-34.1,M,,*59
$GPVTG,0.0,T,,M,0.0,N,0.1,K,D*09
$GNGSA,A,3,11,12,06,21,05,09,19,,,,,,1.2,0.6,1.0*2A
$GNGSA,A,3,87,78,88,77,71,79,65,81,,,,,1.2,0.6,1.0*2A
$GPGSV,4,1,14,11,75,290,50,12,59,272,50,06,51,048,26,21,42,175,42*72
$GPGSV,4,2,14,19,39,099,31,25,28,311,19,05,19,197,43,17,15,108,26*76
$GPGSV,4,3,14,09,13,077,23,04,07,047,,46,26,232,41,48,28,227,38*7B
$GPGSV,4,4,14,44,33,219,34,51,37,207,,,,,,,,,*74
$GLGSV,3,1,10,88,50,302,41,78,48,277,43,87,40,047,31,72,31,092,25*60
$GLGSV,3,2,10,77,27,203,36,71,20,036,31,79,18,331,39,65,12,145,29*60
$GLGSV,3,3,10,86,06,069,23,81,06,268,33,,,,,,,,*61
$GPGLL,4215.07743,N,08811.88543,W,203506.000,A,D*4B
$PSTMCPU,61.52,-1,98*43
$GPRMC,203507.000,A,4215.07742,N,08811.88542,W,0.1,0.0,160326,,,D*7C
$GPGGA,203507.000,4215.07742,N,08811.88542,W,2,15,0.6,233.83,M,-34.1,M,,*59
$GPVTG,0.0,T,,M,0.1,N,0.2,K,D*0B
$GNGSA,A,3,11,12,06,21,05,09,19,,,,,,1.2,0.6,1.0*2A
$GNGSA,A,3,87,78,88,77,71,79,65,81,,,,,1.2,0.6,1.0*2A
$GPGSV,4,1,13,11,75,290,50,12,59,272,50,06,51,048,25,21,42,175,41*75
$GPGSV,4,2,13,19,39,099,32,25,28,311,19,05,19,197,43,17,15,108,26*72
$GPGSV,4,3,13,09,13,077,23,04,07,047,,46,26,232,40,48,28,227,38*7D
$GPGSV,4,4,13,44,33,219,34,,,,,,,,,,,,*46
$GLGSV,3,1,10,88,50,302,41,78,48,277,43,87,40,047,31,72,31,092,25*60
$GLGSV,3,2,10,77,27,203,36,71,20,036,32,79,18,331,39,65,12,145,29*63
$GLGSV,3,3,10,86,06,069,23,81,06,268,33,,,,,,,,*61
$GPGLL,4215.07742,N,08811.88542,W,203507.000,A,D*4A
$PSTMCPU,58.20,-1,98*4C
$GPRMC,203508.000,A,4215.07742,N,08811.88541,W,0.0,0.0,160326,,,D*71
$GPGGA,203508.000,4215.07742,N,08811.88541,W,2,15,0.6,233.84,M,-34.1,M,,*52
$GPVTG,0.0,T,,M,0.0,N,0.0,K,D*08
$GNGSA,A,3,11,12,06,21,05,09,19,,,,,,1.2,0.6,1.0*2A
$GNGSA,A,3,87,78,88,77,71,79,65,81,,,,,1.2,0.6,1.0*2A
$GPGSV,4,1,13,11,75,290,50,12,59,272,50,06,51,048,25,21,42,175,41*75
$GPGSV,4,2,13,19,39,099,32,25,28,311,19,05,19,197,43,17,15,108,25*71
$GPGSV,4,3,13,09,13,077,23,04,07,047,,46,26,232,40,48,28,227,38*7D
$GPGSV,4,4,13,44,33,219,35,,,,,,,,,,,,*47
$GLGSV,3,1,10,88,50,302,41,78,48,277,43,87,40,047,31,72,31,092,25*60
$GLGSV,3,2,10,77,27,203,36,71,20,036,32,79,18,331,39,65,12,145,28*62
$GLGSV,3,3,10,86,06,069,23,81,06,268,33,,,,,,,,*61
$GPGLL,4215.07742,N,08811.88541,W,203508.000,A,D*46
$PSTMCPU,55.82,-1,98*49
$GPRMC,203509.000,A,4215.07742,N,08811.88539,W,0.1,0.0,160326,,,D*7E
$GPGGA,203509.000,4215.07742,N,08811.88539,W,2,16,0.6,233.86,M,-34.1,M,,*5D
$GPVTG,0.0,T,,M,0.1,N,0.1,K,D*08
$GNGSA,A,3,11,12,06,21,25,05,09,19,,,,,1.2,0.6,1.0*2D
$GNGSA,A,3,87,78,88,77,71,79,65,81,,,,,1.2,0.6,1.0*2A
$GPGSV,4,1,13,11,75,290,50,12,59,272,50,06,51,048,23,21,42,175,41*73
$GPGSV,4,2,13,19,39,099,32,25,28,311,19,05,19,197,43,17,15,108,25*71
$GPGSV,4,3,13,09,13,077,24,04,07,047,,46,26,232,40,48,28,227,38*7A
$GPGSV,4,4,13,44,33,219,35,,,,,,,,,,,,*47
$GLGSV,3,1,10,88,50,302,41,78,48,277,44,87,40,047,31,72,31,092,26*64
$GLGSV,3,2,10,77,27,203,36,71,20,036,32,79,18,331,39,65,12,145,29*63
$GLGSV,3,3,10,86,06,069,23,81,06,268,33,,,,,,,,*61
$GPGLL,4215.07742,N,08811.88539,W,203509.000,A,D*48
$PSTMCPU,56.23,-1,98*41
$GPRMC,203510.000,A,4215.07742,N,08811.88539,W,0.0,0.0,160326,,,D*77
$GPGGA,203510.000,4215.07742,N,08811.88539,W,2,15,0.6,233.89,M,-34.1,M,,*59
$GPVTG,0.0,T,,M,0.0,N,0.1,K,D*09
$GNGSA,A,3,11,12,21,25,05,09,19,,,,,,1.2,0.6,1.0*2B
$GNGSA,A,3,87,78,88,77,71,79,65,81,,,,,1.2,0.6,1.0*2A
$GPGSV,4,1,14,11,75,290,50,12,59,272,50,06,51,048,,21,42,175,41*75
$GPGSV,4,2,14,19,39,099,32,25,28,311,20,05,19,197,43,17,15,108,26*7F
$GPGSV,4,3,14,09,13,077,26,04,07,047,,46,26,232,40,48,28,227,37*70
$GPGSV,4,4,14,44,33,219,35,51,37,207,,,,,,,,,*75
$GLGSV,3,1,10,88,50,302,41,78,48,277,44,87,40,047,30,72,31,092,26*65
$GLGSV,3,2,10,77,27,203,36,71,20,036,32,79,18,331,39,65,12,144,29*62
$GLGSV,3,3,10,86,06,069,23,81,06,268,32,,,,,,,,*60
$GPGLL,4215.07742,N,08811.88539,W,203510.000,A,D*40
$PSTMCPU,64.33,-1,98*41
$GPRMC,203511.000,A,4215.07741,N,08811.88538,W,0.1,0.0,160326,,,D*75
$GPGGA,203511.000,4215.07741,N,08811.88538,W,2,16,0.6,233.92,M,-34.1,M,,*53
$GPVTG,0.0,T,,M,0.1,N,0.1,K,D*08
$GNGSA,A,3,11,12,06,21,25,05,09,19,,,,,1.2,0.6,1.0*2D
$GNGSA,A,3,87,78,88,77,71,79,65,81,,,,,1.2,0.6,1.0*2A
$GPGSV,4,1,13,11,75,290,50,12,59,272,50,06,51,048,27,21,42,175,41*77
$GPGSV,4,2,13,19,39,099,31,25,28,311,24,05,19,197,43,17,15,108,27*7E
$GPGSV,4,3,13,09,13,077,26,04,07,047,,46,26,232,40,48,28,227,38*78
$GPGSV,4,4,13,44,33,219,35,,,,,,,,,,,,*47
$GLGSV,3,1,10,88,50,302,41,78,48,277,44,87,40,047,30,72,31,092,28*6B
$GLGSV,3,2,10,77,27,203,36,71,20,036,31,79,18,331,38,65,12,144,29*60
$GLGSV,3,3,10,86,06,069,23,81,06,268,33,,,,,,,,*61
$GPGLL,4215.07741,N,08811.88538,W,203511.000,A,D*43
$PSTMCPU,59.57,-1,98*4D
$GPRMC,203512.000,A,4215.07740,N,08811.88536,W,0.0,0.0,160326,,,D*78
$GPGGA,203512.000,4215.07740,N,08811.88536,W,2,16,0.6,233.96,M,-34.1,M,,*5B
$GPVTG,0.0,T,,M,0.0,N,0.1,K,D*09
$GNGSA,A,3,11,12,06,21,25,05,09,19,,,,,1.2,0.6,1.0*2D
$GNGSA,A,3,87,78,88,77,71,79,65,81,,,,,1.2,0.6,1.0*2A
$GPGSV,4,1,13,11,75,290,50,12,59,272,50,06,51,048,29,21,42,175,41*79
$GPGSV,4,2,13,19,39,099,31,25,28,311,25,05,19,197,43,17,15,108,27*7F
$GPGSV,4,3,13,09,13,077,25,04,07,047,,46,26,232,40,48,28,227,39*7A
$GPGSV,4,4,13,44,33,219,35,,,,,,,,,,,,*47
$GLGSV,3,1,10,88,50,302,41,78,48,277,44,87,40,047,30,72,31,092,27*64
$GLGSV,3,2,10,77,27,203,36,71,20,036,32,79,18,331,38,65,12,144,29*63
$GLGSV,3,3,10,86,06,069,23,81,06,268,33,,,,,,,,*61
$GPGLL,4215.07740,N,08811.88536,W,203512.000,A,D*4F
$PSTMCPU,55.41,-1,98*46
$GPRMC,203513.000,A,4215.07739,N,08811.88533,W,0.0,0.0,160326,,,D*72
$GPGGA,203513.000,4215.07739,N,08811.88533,W,2,16,0.6,233.99,M,-34.1,M,,*5E
$GPVTG,0.0,T,,M,0.0,N,0.1,K,D*09
$GNGSA,A,3,11,12,06,21,25,05,09,19,,,,,1.2,0.6,1.0*2D
$GNGSA,A,3,87,78,88,77,71,79,65,81,,,,,1.2,0.6,1.0*2A
$GPGSV,4,1,13,11,75,290,50,12,59,272,50,06,51,048,29,21,42,175,41*79
$GPGSV,4,2,13,19,39,099,27,25,28,311,25,05,19,197,43,17,15,108,27*78
$GPGSV,4,3,13,09,13,077,24,04,07,047,,46,26,232,40,48,28,227,39*7B
$GPGSV,4,4,13,44,33,219,35,,,,,,,,,,,,*47
$GLGSV,3,1,10,88,50,302,40,78,48,277,44,87,40,047,31,72,31,092,28*6B
$GLGSV,3,2,10,77,27,203,35,71,20,036,32,79,18,331,38,65,12,144,29*60
$GLGSV,3,3,10,86,06,069,24,81,06,268,34,,,,,,,,*61
$GPGLL,4215.07739,N,08811.88533,W,203513.000,A,D*45
$PSTMCPU,56.02,-1,98*42
$GPRMC,203514.000,A,4215.07738,N,08811.88532,W,0.0,0.0,160326,,,D*75
$GPGGA,203514.000,4215.07738,N,08811.88532,W,2,17,0.6,234.03,M,-34.1,M,,*5C
$GPVTG,0.0,T,,M,0.0,N,0.1,K,D*09
$GNGSA,A,3,11,12,06,21,25,05,09,19,,,,,1.1,0.6,0.9*26
$GNGSA,A,3,87,78,88,77,71,86,79,65,81,,,,1.1,0.6,0.9*2F
$GPGSV,4,1,14,11,75,290,50,12,59,272,50,06,51,048,29,21,42,175,41*7E
$GPGSV,4,2,14,19,39,099,27,25,28,311,25,05,19,197,43,17,15,108,26*7E
$GPGSV,4,3,14,09,13,077,24,04,07,047,,46,26,232,40,48,28,227,39*7C
$GPGSV,4,4,14,44,33,219,36,51,37,207,,,,,,,,,*76
$GLGSV,3,1,10,88,50,302,40,78,48,277,44,87,40,047,31,72,31,092,31*63
$GLGSV,3,2,10,77,27,203,35,71,20,036,34,79,18,331,38,65,12,144,28*67
$GLGSV,3,3,10,86,06,069,24,81,06,268,34,,,,,,,,*61
$GPGLL,4215.07738,N,08811.88532,W,203514.000,A,D*42
$PSTMCPU,54.37,-1,98*46
$GPRMC,203515.000,A,4215.07737,N,08811.88530,W,0.1,0.0,160326,,,D*78
$GPGGA,203515.000,4215.07737,N,08811.88530,W,2,17,0.6,234.06,M,-34.1,M,,*55
$GPVTG,0.0,T,,M,0.1,N,0.1,K,D*08
$GNGSA,A,3,11,12,06,21,25,05,09,19,,,,,1.1,0.6,0.9*26
$GNGSA,A,3,87,78,88,77,71,86,79,65,81,,,,1.1,0.6,0.9*2F
$GPGSV,4,1,13,11,75,290,50,12,59,272,50,06,51,048,30,21,42,175,41*71
$GPGSV,4,2,13,19,39,099,25,25,28,311,24,05,19,197,43,17,15,108,25*79
$GPGSV,4,3,13,09,13,077,24,04,07,047,,46,26,232,40,48,28,227,40*75
$GPGSV,4,4,13,44,33,219,36,,,,,,,,,,,,*44
$GLGSV,3,1,10,88,50,302,40,78,48,277,45,87,40,047,31,72,31,092,32*61
$GLGSV,3,2,10,77,27,203,35,71,20,036,34,79,18,331,38,65,12,144,28*67
$GLGSV,3,3,10,86,06,069,24,81,06,268,35,,,,,,,,*60
$GPGLL,4215.07737,N,08811.88530,W,203515.000,A,D*4E
$PSTMCPU,67.07,-1,98*45
$GPRMC,203516.000,A,4215.07738,N,08811.88528,W,0.1,0.0,160326,,,D*7D
$GPGGA,203516.000,4215.07738,N,08811.88528,W,2,17,0.6,234.06,M,-34.1,M,,*50
$GPVTG,0.0,T,,M,0.1,N,0.2,K,D*0B
$GNGSA,A,3,11,12,06,21,25,05,09,04,19,,,,1.1,0.6,0.9*22
$GNGSA,A,3,87,78,88,77,71,79,65,81,,,,,1.1,0.6,0.9*21
$GPGSV,4,1,13,11,75,290,50,12,59,272,50,06,51,048,31,21,42,175,41*70
$GPGSV,4,2,13,19,39,099,25,25,28,311,24,05,19,197,43,17,15,108,26*7A
$GPGSV,4,3,13,09,13,077,24,04,07,047,24,46,26,232,40,48,28,227,40*73
$GPGSV,4,4,13,44,33,219,36,,,,,,,,,,,,*44
$GLGSV,3,1,10,88,50,302,40,78,48,277,45,87,40,047,32,72,31,092,32*62
$GLGSV,3,2,10,77,27,203,35,71,20,036,33,79,18,331,37,65,12,144,27*60
$GLGSV,3,3,10,86,06,069,24,81,06,268,35,,,,,,,,*60
$GPGLL,4215.07738,N,08811.88528,W,203516.000,A,D*4B
$PSTMCPU,57.40,-1,98*45
$GPRMC,203517.000,A,4215.07740,N,08811.88526,W,0.1,0.0,160326,,,D*7D
$GPGGA,203517.000,4215.07740,N,08811.88526,W,2,15,0.6,234.05,M,-34.1,M,,*51
$GPVTG,0.0,T,,M,0.1,N,0.1,K,D*08
$GNGSA,A,3,11,12,06,21,05,09,19,,,,,,1.1,0.6,0.9*21
$GNGSA,A,3,87,78,88,77,71,79,65,81,,,,,1.1,0.6,0.9*21
$GPGSV,4,1,13,11,75,290,50,12,59,272,50,06,51,048,31,21,42,175,41*70
$GPGSV,4,2,13,19,39,099,27,25,28,311,24,05,19,197,43,17,15,108,23*7D
$GPGSV,4,3,13,09,13,077,23,04,07,047,23,46,26,232,40,48,28,227,40*73
$GPGSV,4,4,13,44,33,219,37,,,,,,,,,,,,*45
$GLGSV,3,1,10,88,50,302,40,78,48,277,45,87,40,047,33,72,31,092,33*62
$GLGSV,3,2,10,77,27,203,35,71,20,036,33,79,18,331,37,65,12,144,28*6F
$GLGSV,3,3,10,86,06,069,25,81,06,268,35,,,,,,,,*61
$GPGLL,4215.07740,N,08811.88526,W,203517.000,A,D*4B
$PSTMCPU,56.22,-1,98*40
$GPRMC,203518.000,A,4215.07740,N,08811.88526,W,0.1,0.0,160326,,,D*72
$GPGGA,203518.000,4215.07740,N,08811.88526,W,2,17,0.6,234.08,M,-34.1,M,,*51
$GPVTG,0.0,T,,M,0.1,N,0.2,K,D*0B
$GNGSA,A,3,11,12,06,21,25,05,04,19,,,,,1.1,0.6,0.9*2B
$GNGSA,A,3,87,78,88,77,71,86,79,65,81,,,,1.1,0.6,0.9*2F
$GPGSV,4,1,14,11,75,290,50,12,59,272,50,06,51,048,32,21,42,175,41*74
$GPGSV,4,2,14,19,39,099,27,25,28,310,24,05,19,197,43,17,15,108,23*7B
$GPGSV,4,3,14,09,13,077,23,04,07,047,23,46,26,232,40,48,28,227,40*74
$GPGSV,4,4,14,44,33,219,38,51,37,207,,,,,,,,,*78
$GLGSV,3,1,10,88,50,302,40,78,48,277,45,87,40,047,33,72,31,092,33*62
$GLGSV,3,2,10,77,27,203,35,71,20,036,32,79,18,331,37,65,12,144,26*60
$GLGSV,3,3,10,86,06,069,24,81,06,268,35,,,,,,,,*60
$GPGLL,4215.07740,N,08811.88526,W,203518.000,A,D*44
$PSTMCPU,54.48,-1,98*4E
$GPRMC,203519.000,A,4215.07741,N,08811.88525,W,0.0,0.0,160326,,,D*70
$GPGGA,203519.000,4215.07741,N,08811.88525,W,2,17,0.6,234.09,M,-34.1,M,,*53
$GPVTG,0.0,T,,M,0.0,N,0.1,K,D*09
$GNGSA,A,3,11,12,06,21,25,05,04,19,,,,,1.1,0.6,0.9*2B
$GNGSA,A,3,87,78,88,77,71,86,79,65,81,,,,1.1,0.6,0.9*2F
$GPGSV,4,1,13,11,75,290,50,12,59,272,50,06,51,048,32,21,42,175,41*73
$GPGSV,4,2,13,19,39,099,27,25,28,310,24,05,19,197,43,17,15,108,23*7C
$GPGSV,4,3,13,09,13,077,22,04,07,047,22,46,26,232,41,48,28,227,39*7C
$GPGSV,4,4,13,44,33,219,38,,,,,,,,,,,,*4A
$GLGSV,3,1,10,88,50,302,40,78,48,277,45,87,40,047,33,72,31,092,33*62
$GLGSV,3,2,10,77,27,203,35,71,20,036,32,79,18,331,36,65,12,144,25*62
$GLGSV,3,3,10,86,06,069,25,81,06,268,34,,,,,,,,*60
$GPGLL,4215.07741,N,08811.88525,W,203519.000,A,D*47
$PSTMCPU,56.47,-1,98*43
$GPRMC,203520.000,A,4215.07740,N,08811.88523,W,0.1,0.0,160326,,,D*7C
$GPGGA,203520.000,4215.07740,N,08811.88523,W,2,17,0.6,234.12,M,-34.1,M,,*54
$GPVTG,0.0,T,,M,0.1,N,0.1,K,D*08
$GNGSA,A,3,11,12,06,21,05,17,04,19,,,,,1.1,0.6,0.9*2A
$GNGSA,A,3,87,78,88,77,71,86,79,65,81,,,,1.1,0.6,0.9*2F
$GPGSV,4,1,13,11,75,290,50,12,59,272,50,06,51,048,31,21,42,175,41*70
$GPGSV,4,2,13,19,39,099,26,25,28,310,25,05,19,197,43,17,15,108,24*7B
$GPGSV,4,3,13,09,13,077,22,04,07,047,21,46,26,232,40,48,28,227,39*7E
$GPGSV,4,4,13,44,33,219,38,,,,,,,,,,,,*4A
$GLGSV,3,1,10,88,50,302,40,78,48,277,45,87,40,047,32,72,31,092,32*62
