# Name: ST Teseo-liv4f
# Chipset: ST microelectronic Teseo LIV4F
# Firmware: STA8041_LIV4F_PVT_STD_4_6_8_5_9_UPG.bin
# Submitter: Frederic Chatelain <frederic.chatelain@wabtec.com>
# Date: 2025-03-26
# Location: La ville aux dames, FR, 4722.99950,N,00045.88813,E
# Sample-Notes: One $GPGSV with bad checksum
#               hand crafted $PSTMANTEENNASTATUS with various values
$$GNGSA,A,3,44,34,25,11,19,23,38,,,,,,2.5,1.7,1.8,4*3E
$$GNGSA,A,3,27,08,,,,,,,,,,,2.5,1.7,1.8,1*34
$$GNGSA,A,3,24,16,25,,,,,,,,,,2.5,1.7,1.8,3*3D
$$GNGSA,A,3,34,25,23,38,,,,,,,,,2.5,1.7,1.8,4*36
$$GPGSV,3,1,09,16,71,196,27,27,64,299,35,23,44,092,23,26,44,172,26,1*69
$$GPGSV,3,2,09,18,35,054,23,10,33,146,21,08,27,286,38,07,14,316,42,1*68
$$GPGSV,3,3,09,15,05,057,32,,,,,,,,,,,,,1*5F
$$GAGSV,2,1,05,24,68,279,37,31,48,156,,16,43,305,41,25,20,312,36,7*7A
$$GAGSV,2,2,05,11,15,224,,,,,,,,,,,,,,7*46
$$BDGSV,4,1,14,12,81,342,22,44,61,062,27,34,57,269,41,25,45,271,45,1*72
$$PSTMVER,GNSSLIB_9749c549631df_ARM*09
$$GPTXT,DEFAULT PVT CONFIGURATION*2A
$$PSTMVER,FreeRTOS_V10.4.3_ARM*57
$$PSTMVER,BINIMG_STA8041_4.6.8.5.9_ARM*0D
$$PSTMVER,SWCFG_86065331*62
$$GPTXT,DEFAULT PVT CONFIGURATION*2A
$$PSTMANTENNASTATUS,0,0,0,0*51
$$GNRMC,135806.000,A,4723.00484,N,00045.88150,E,0.5,120.9,210325,,,A,C*11
$$GNGGA,135806.000,4723.00484,N,00045.88150,E,1,13,1.7,063.64,M,48.3,M,,*78
$$GNVTG,120.9,T,,M,0.5,N,0.8,K,A*14
$$GNGST,135806.000,6.1,4.0,4.0,61.0,4.6,4.4,4.8*4E
$$GNGBS,135806.000,4.6,4.4,4.8,,,,,,*68
$$GNGSA,A,3,27,08,07,,,,,,,,,,2.5,1.7,1.8,1*33
$$GNGSA,A,3,24,16,25,,,,,,,,,,2.5,1.7,1.8,3*3D
$$GNGSA,A,3,44,34,25,11,19,23,38,,,,,,2.5,1.7,1.8,4*3E
$$GNGSA,A,3,27,08,,,,,,,,,,,2.5,1.7,1.8,1*34
$$GNGSA,A,3,24,16,25,,,,,,,,,,2.5,1.7,1.8,3*3D
$$GNGSA,A,3,34,25,38,,,,,,,,,,2.5,1.7,1.8,4*37
$$GPGSV,3,1,09,16,71,196,26,27,64,299,34,23,44,092,23,26,44,172,26,1*69
$$GPGSV,3,2,09,18,35,054,24,10,33,146,21,08,27,286,38,07,14,316,42,1*6F
$$GPGSV,3,3,09,15,05,057,32,,,,,,,,,,,,,1*5F
$$GAGSV,1,1,04,24,68,279,38,16,43,305,42,25,20,312,36,11,15,224,,7*78
$$BDGSV,4,1,15,12,81,342,22,44,61,062,27,34,57,269,41,25,45,271,45,1*73
$$BDGSV,4,2,15,13,33,043,,11,33,259,32,24,32,198,,08,25,032,26,1*70
$$BDGSV,4,3,15,22,20,098,28,19,15,044,32,23,15,320,40,35,15,073,28,1*7E
$$BDGSV,4,4,15,05,13,114,,38,11,027,31,43,09,259,34,,,,,1*49
$$GPGSV,1,1,02,27,64,299,40,08,27,286,35,,,,,,,,,8*69
$$GAGSV,1,1,03,24,68,279,37,16,43,305,42,25,20,312,36,,,,,1*46
$$BDGSV,1,1,04,34,57,269,35,25,45,271,40,23,15,320,23,38,11,027,23,5*77
$$PSTMANTENNASTATUS,0,0,0,0*51
$$GNRMC,135807.000,A,4723.00476,N,00045.88162,E,0.3,146.6,210325,,,A,C*15
$$GNGGA,135807.000,4723.00476,N,00045.88162,E,1,15,1.4,063.51,M,48.3,M,,*76
$$GNVTG,146.6,T,,M,0.3,N,0.6,K,A*13
$$GNGST,135807.000,7.5,5.0,5.0,59.0,5.5,5.3,5.7*4B
$$GNGBS,135807.000,5.5,5.3,5.7,,,,,,*63
$$GNGSA,A,3,27,08,07,15,,,,,,,,,2.0,1.4,1.4,1*3D
$$GNGSA,A,3,24,16,25,,,,,,,,,,2.0,1.4,1.4,3*37
$$GNGSA,A,3,44,34,25,11,08,19,23,38,,,,,2.0,1.4,1.4,4*3C
$$GNGSA,A,3,27,08,,,,,,,,,,,2.0,1.4,1.4,1*3E
$$GNGSA,A,3,24,16,25,,,,,,,,,,2.0,1.4,1.4,3*37
$$GNGSA,A,3,34,25,38,,,,,,,,,,2.0,1.4,1.4,4*3D
$$GPGSV,3,1,10,16,71,196,25,27,64,299,34,23,44,092,22,26,44,172,26,1*63
$$GPGSV,3,2,10,18,35,054,24,10,33,146,21,08,27,286,38,07,14,316,42,1*67
$$GPGSV,3,3,10,15,05,057,32,02,,,,,,,,,,,,1*55
$$GAGSV,1,1,04,24,68,279,38,16,43,305,42,25,20,312,36,11,15,224,,7*78
$$BDGSV,4,1,13,12,81,342,22,44,61,062,28,34,57,269,41,25,45,271,45,1*7A
$$BDGSV,4,2,13,11,33,259,32,24,32,198,,08,25,032,26,22,20,098,28,1*7A
$$BDGSV,4,3,13,19,15,044,32,23,15,320,40,35,15,073,28,38,11,027,31,1*7D
$$BDGSV,4,4,13,43,09,259,34,,,,,,,,,,,,,1*40
$$GPGSV,1,1,02,27,64,299,40,08,27,286,35,,,,,,,,,8*69
$$GAGSV,1,1,03,24,68,279,37,16,43,305,42,25,20,312,36,,,,,1*46
$$BDGSV,1,1,04,34,57,269,35,25,45,271,40,23,15,320,22,38,11,027,23,5*76
$$PSTMANTENNASTATUS,0,0,0,0*51
$$GNRMC,135808.000,A,4723.00470,N,00045.88175,E,0.4,145.1,210325,,,A,C*19
$$GNGGA,135808.000,4723.00470,N,00045.88175,E,1,14,1.7,063.35,M,48.3,M,,*79
$$GNVTG,145.1,T,,M,0.4,N,0.8,K,A*1E
$$GNGST,135808.000,6.2,4.0,4.0,57.0,4.6,4.5,4.8*47
$$GNGBS,135808.000,4.6,4.5,4.8,,,,,,*67
$$GNGSA,A,3,27,08,07,,,,,,,,,,2.5,1.7,1.8,1*33
$$GNGSA,A,3,24,16,25,,,,,,,,,,2.5,1.7,1.8,3*3D
$$GNGSA,A,3,44,34,25,11,08,19,23,38,,,,,2.5,1.7,1.8,4*36
$$GNGSA,A,3,27,08,,,,,,,,,,,2.5,1.7,1.8,1*34
$$GNGSA,A,3,24,16,25,,,,,,,,,,2.5,1.7,1.8,3*3D
$$GNGSA,A,3,34,25,38,,,,,,,,,,2.5,1.7,1.8,4*37
$$GPGSV,3,1,10,16,71,196,25,27,64,299,34,23,44,092,22,26,44,172,25,1*60
$$GPGSV,3,2,10,18,35,054,23,10,33,146,,08,27,286,38,07,14,316,42,1*63
$$GPGSV,3,3,10,15,05,057,32,02,03,235,,,,,,,,,,1*62
$$GAGSV,2,1,05,24,68,279,38,16,43,305,42,10,42,222,,25,20,312,36,7*7F
$$GAGSV,2,2,05,11,15,224,,,,,,,,,,,,,,7*46
$$BDGSV,4,1,13,12,81,342,22,44,61,062,28,34,57,269,41,25,45,271,45,1*7A
$$BDGSV,4,2,13,11,33,259,32,24,32,198,,08,25,032,26,22,20,098,29,1*7B
$$BDGSV,4,3,13,19,15,044,32,23,15,320,39,35,15,073,28,38,11,027,31,1*73
$$BDGSV,4,4,13,43,09,259,35,,,,,,,,,,,,,1*41
$$GPGSV,1,1,02,27,64,299,40,08,27,286,35,,,,,,,,,8*69
$$GAGSV,1,1,03,24,68,279,37,16,43,305,42,25,20,312,36,,,,,1*46
$$BDGSV,1,1,04,34,57,269,35,25,45,271,40,23,15,320,22,38,11,027,23,5*76
$$PSTMANTENNASTATUS,0,0,0,0*51
$$GNRMC,135809.000,A,4723.00465,N,00045.88194,E,0.5,49.7,210325,,,A,C*29
$$GNGGA,135809.000,4723.00465,N,00045.88194,E,1,15,1.4,063.35,M,48.3,M,,*71
$$GNVTG,49.7,T,,M,0.5,N,1.0,K,A*2D
$$GNGST,135809.000,6.7,5.0,4.0,146.0,5.0,4.9,5.2*73
$$GNGBS,135809.000,5.0,4.9,5.2,,,,,,*66
$$GNGSA,A,3,27,08,07,15,,,,,,,,,2.0,1.4,1.4,1*3D
$$GNGSA,A,3,24,16,25,,,,,,,,,,2.0,1.4,1.4,3*37
$$GNGSA,A,3,44,34,25,11,08,19,23,38,,,,,2.0,1.4,1.4,4*3C
$$GNGSA,A,3,27,08,,,,,,,,,,,2.0,1.4,1.4,1*3E
$$GNGSA,A,3,24,16,25,,,,,,,,,,2.0,1.4,1.4,3*37
$$GNGSA,A,3,34,25,38,,,,,,,,,,2.0,1.4,1.4,4*3D
$$GPGSV,3,1,10,16,71,196,25,27,64,299,34,23,44,092,22,26,44,172,25,1*60
$$GPGSV,3,2,10,18,35,054,23,10,33,146,,08,27,286,38,07,14,316,42,1*63
$$GPGSV,3,3,10,15,05,057,32,02,04,235,,,,,,,,,,1*65
$$GAGSV,2,1,05,24,68,279,37,12,68,214,,16,43,305,42,25,20,312,36,7*7F
$$GAGSV,2,2,05,11,15,224,,,,,,,,,,,,,,7*46
$$BDGSV,4,1,13,12,81,342,23,44,61,062,28,34,57,269,41,25,45,271,44,1*7A
$$BDGSV,4,2,13,11,33,259,32,24,32,198,,08,25,032,26,22,20,098,29,1*7B
$$BDGSV,4,3,13,19,15,044,32,23,15,320,39,35,15,073,28,38,11,027,31,1*73
$$BDGSV,4,4,13,43,09,259,35,,,,,,,,,,,,,1*41
$$GPGSV,1,1,02,27,64,299,40,08,27,286,35,,,,,,,,,8*69
$$GAGSV,1,1,03,24,68,279,37,16,43,305,42,25,20,312,36,,,,,1*46
$$BDGSV,1,1,04,34,57,269,35,25,45,271,40,23,15,320,22,38,11,027,23,5*76
$$PSTMANTENNASTATUS,0,0,0,0*51
$$GNRMC,135810.000,A,4723.00468,N,00045.88209,E,0.4,110.0,210325,,,A,C*10
$$GNGGA,135810.000,4723.00468,N,00045.88209,E,1,15,1.4,063.29,M,48.3,M,,*7E
$$GNVTG,110.0,T,,M,0.4,N,0.7,K,A*10
$$GNGST,135810.000,6.5,4.0,4.0,54.0,4.8,4.7,5.0*4F
$$GNGBS,135810.000,4.8,4.7,5.0,,,,,,*6B
$$GNGSA,A,3,27,08,07,15,,,,,,,,,2.0,1.4,1.4,1*3D
$$GNGSA,A,3,24,16,25,,,,,,,,,,2.0,1.4,1.4,3*37
$$GNGSA,A,3,44,34,25,11,08,19,23,38,,,,,2.0,1.4,1.4,4*3C
$$GNGSA,A,3,27,08,,,,,,,,,,,2.0,1.4,1.4,1*3E
$$GNGSA,A,3,24,16,25,,,,,,,,,,2.0,1.4,1.4,3*37
$$GNGSA,A,3,34,25,38,,,,,,,,,,2.0,1.4,1.4,4*3D
$$GPGSV,3,1,10,16,71,196,25,27,64,299,34,23,44,092,21,26,44,172,25,1*63
$$GPGSV,3,2,10,18,35,054,23,10,33,146,,08,27,286,38,07,14,316,42,1*63
$$GPGSV,3,3,10,15,05,057,32,02,04,235,,,,,,,,,,1*65
$$GAGSV,2,1,05,24,68,279,38,31,48,156,,16,43,305,42,25,20,312,36,7*76
$$GAGSV,2,2,05,11,15,224,,,,,,,,,,,,,,7*46
$$BDGSV,4,1,13,12,81,342,23,44,61,062,28,34,57,269,41,25,45,271,44,1*7A
$$BDGSV,4,2,13,11,33,259,32,24,32,198,,08,25,032,26,22,20,098,29,1*7B
$$BDGSV,4,3,13,19,15,044,32,23,15,320,39,35,15,073,28,38,11,027,31,1*73
$$BDGSV,4,4,13,43,09,259,35,,,,,,,,,,,,,1*41
$$GPGSV,1,1,02,27,64,299,40,08,27,286,35,,,,,,,,,8*69
$$GAGSV,1,1,03,24,68,279,37,16,43,305,42,25,20,312,36,,,,,1*46
$$BDGSV,1,1,04,34,57,269,35,25,45,271,40,23,15,320,22,38,11,027,23,5*76
$$PSTMANTENNASTATUS,0,0,0,0*51
$$GNRMC,135811.000,A,4723.00461,N,00045.88222,E,0.5,136.1,210325,,,A,C*15
$$GNGGA,135811.000,4723.00461,N,00045.88222,E,1,15,1.4,062.98,M,48.3,M,,*74
$$GNVTG,136.1,T,,M,0.5,N,0.9,K,A*1A
$$GNGST,135811.000,3.9,4.0,4.0,53.0,4.7,4.6,5.0*4E
$$GNGBS,135811.000,4.7,4.6,5.0,,,,,,*64
$$GNGSA,A,3,27,08,07,15,,,,,,,,,2.0,1.4,1.4,1*3D
$$GNGSA,A,3,24,16,25,,,,,,,,,,2.0,1.4,1.4,3*37
$$GNGSA,A,3,44,34,25,11,08,19,23,38,,,,,2.0,1.4,1.4,4*3C
$$GNGSA,A,3,27,08,,,,,,,,,,,2.0,1.4,1.4,1*3E
$$GNGSA,A,3,24,16,25,,,,,,,,,,2.0,1.4,1.4,3*37
$$GNGSA,A,3,34,25,,,,,,,,,,,2.0,1.4,1.4,4*36
$$GPGSV,3,1,10,16,71,196,25,27,64,299,34,23,44,092,21,26,44,172,25,1*63
$$GPGSV,3,2,10,18,35,054,23,10,33,146,,08,27,286,38,07,14,316,42,1*63
$$GPGSV,3,3,10,15,05,057,32,02,04,235,,,,,,,,,,1*65
$$GAGSV,2,1,05,24,68,279,38,33,51,053,,16,43,305,42,25,20,312,36,7*78
$$GAGSV,2,2,05,11,15,224,,,,,,,,,,,,,,7*46
$$BDGSV,4,1,13,12,81,342,23,44,61,062,28,34,57,269,41,25,45,271,45,1*7B
$$BDGSV,4,2,13,11,33,259,32,24,32,198,,08,25,032,26,22,20,098,29,1*7B
$$BDGSV,4,3,13,19,15,044,32,23,15,320,40,35,15,073,28,38,11,027,31,1*7D
$$BDGSV,4,4,13,43,09,259,35,,,,,,,,,,,,,1*41
$$GPGSV,1,1,02,27,64,299,40,08,27,286,35,,,,,,,,,8*69
$$GAGSV,1,1,03,24,68,279,37,16,43,305,42,25,20,312,36,,,,,1*46
$$BDGSV,1,1,04,34,57,269,35,25,45,271,40,23,15,320,22,38,11,027,23,5*76
$$PSTMANTENNASTATUS,0,0,0,0*51
$$GNRMC,135812.000,A,4723.00449,N,00045.88244,E,0.8,111.1,210325,,,A,C*14
$$GNGGA,135812.000,4723.00449,N,00045.88244,E,1,15,1.4,062.76,M,48.3,M,,*7D
$$GNVTG,111.1,T,,M,0.8,N,1.5,K,A*1F
$$GNGST,135812.000,6.3,4.0,4.0,51.0,4.7,4.6,4.9*48
$$GNGBS,135812.000,4.7,4.6,4.9,,,,,,*6F
$$GNGSA,A,3,27,08,07,15,,,,,,,,,2.0,1.4,1.4,1*3D
$$GNGSA,A,3,24,16,25,,,,,,,,,,2.0,1.4,1.4,3*37
$$GNGSA,A,3,44,34,25,11,08,19,23,38,,,,,2.0,1.4,1.4,4*3C
$$GNGSA,A,3,27,08,,,,,,,,,,,2.0,1.4,1.4,1*3E
$$GNGSA,A,3,24,16,25,,,,,,,,,,2.0,1.4,1.4,3*37
$$GNGSA,A,3,34,25,38,,,,,,,,,,2.0,1.4,1.4,4*3D
$$GPGSV,3,1,10,16,71,196,24,27,64,299,33,23,44,092,21,26,44,172,25,1*65
$$GPGSV,3,2,10,18,35,054,23,10,33,146,,08,27,286,38,07,14,316,42,1*63
$$GPGSV,3,3,10,15,05,057,32,02,04,235,,,,,,,,,,1*65
$$GAGSV,1,1,03,24,68,279,38,16,43,305,42,25,20,312,36,,,,,7*4F
$$BDGSV,4,1,14,12,81,343,23,44,61,062,28,34,57,269,41,25,45,271,45,1*7D
$$BDGSV,4,2,14,13,33,043,,11,33,259,32,24,32,198,,08,25,032,26,1*71
$$BDGSV,4,3,14,22,20,098,29,19,15,044,32,23,15,320,40,35,15,073,28,1*7E
$$BDGSV,4,4,14,38,11,027,31,43,09,259,35,,,,,,,,,1*7A
$$GPGSV,1,1,02,27,64,299,40,08,27,286,35,,,,,,,,,8*69
$$GAGSV,1,1,03,24,68,279,37,16,43,305,42,25,20,312,36,,,,,1*46
$$BDGSV,1,1,04,34,57,269,35,25,45,271,40,23,15,320,22,38,11,027,22,5*77
$$PSTMANTENNASTATUS,0,0,0,0*51
$$GNRMC,135813.000,A,4723.00441,N,00045.88257,E,0.1,0.0,210325,,,A,C*16
$$GNGGA,135813.000,4723.00441,N,00045.88257,E,1,15,1.4,062.69,M,48.3,M,,*78
$$GNVTG,0.0,T,,M,0.1,N,0.3,K,A*11
$$GNGST,135813.000,6.3,4.0,4.0,50.0,4.7,4.6,4.9*48
$$GNGBS,135813.000,4.7,4.6,4.9,,,,,,*6E
$$GNGSA,A,3,27,08,07,15,,,,,,,,,2.0,1.4,1.4,1*3D
$$GNGSA,A,3,24,16,25,,,,,,,,,,2.0,1.4,1.4,3*37
$$GNGSA,A,3,44,34,25,11,08,19,23,38,,,,,2.0,1.4,1.4,4*3C
$$GNGSA,A,3,27,08,,,,,,,,,,,2.0,1.4,1.4,1*3E
$$GNGSA,A,3,24,16,25,,,,,,,,,,2.0,1.4,1.4,3*37
$$GNGSA,A,3,34,25,38,,,,,,,,,,2.0,1.4,1.4,4*3D
$$GPGSV,3,1,10,16,71,196,24,27,64,299,33,23,44,092,21,26,44,172,25,1*65
$$GPGSV,3,2,10,18,35,054,22,10,33,146,,08,27,286,38,07,14,316,42,1*62
$$GPGSV,3,3,10,15,05,057,32,02,04,235,,,,,,,,,,1*65
$$GAGSV,1,1,03,24,68,279,38,16,43,305,42,25,20,312,36,,,,,7*4F
$$BDGSV,4,1,14,12,81,343,23,44,61,062,28,34,57,269,41,25,45,271,44,1*7C
$$BDGSV,4,2,14,11,33,259,32,24,32,198,,08,25,032,26,22,20,098,30,1*74
$$BDGSV,4,3,14,19,15,044,32,23,15,320,40,35,15,073,28,05,13,114,,1*75
$$BDGSV,4,4,14,38,11,027,31,43,09,259,35,,,,,,,,,1*7A
$$GPGSV,1,1,02,27,64,299,40,08,27,286,35,,,,,,,,,8*69
$$GAGSV,1,1,03,24,68,279,37,16,43,305,42,25,20,312,37,,,,,1*47
$$BDGSV,1,1,04,34,57,269,35,25,45,271,40,23,15,320,22,38,11,027,23,5*76
$$PSTMANTENNASTATUS,0,0,0,0*51
$$GNRMC,135814.000,A,4723.00432,N,00045.88261,E,0.3,164.6,210325,,,A,C*17
$$GNGGA,135814.000,4723.00432,N,00045.88261,E,1,15,1.4,062.54,M,48.3,M,,*70
$$GNVTG,164.6,T,,M,0.3,N,0.6,K,A*13
$$GNGST,135814.000,6.3,4.0,4.0,49.0,4.6,4.6,4.9*46
$$GNGBS,135814.000,4.6,4.6,4.9,,,,,,*68
$$GNGSA,A,3,27,08,07,15,,,,,,,,,2.0,1.4,1.4,1*3D
$$GNGSA,A,3,24,16,25,,,,,,,,,,2.0,1.4,1.4,3*37
$$GNGSA,A,3,44,34,25,11,08,19,23,38,,,,,2.0,1.4,1.4,4*3C
$$GNGSA,A,3,27,08,,,,,,,,,,,2.0,1.4,1.4,1*3E
$$GNGSA,A,3,24,16,25,,,,,,,,,,2.0,1.4,1.4,3*37
$$GNGSA,A,3,34,25,38,,,,,,,,,,2.0,1.4,1.4,4*3D
$$GPGSV,3,1,10,16,71,196,24,27,64,299,33,23,44,092,20,26,44,172,25,1*64
$$GPGSV,3,2,10,18,35,054,22,10,33,146,21,08,27,286,38,07,14,316,42,1*61
$$GPGSV,3,3,10,15,05,057,32,02,04,235,,,,,,,,,,1*65
$$GAGSV,1,1,04,24,68,279,37,16,43,305,42,10,42,222,,25,20,312,36,7*72
$$BDGSV,4,1,13,12,81,343,24,44,61,062,28,34,57,269,41,25,45,271,45,1*7D
$$BDGSV,4,2,13,11,33,259,32,08,25,032,26,22,20,097,30,19,15,044,31,1*75
$$BDGSV,4,3,13,23,15,320,40,35,15,073,28,05,13,114,,38,11,027,31,1*73
$$BDGSV,4,4,13,43,09,259,35,,,,,,,,,,,,,1*41
$$GPGSV,1,1,02,27,64,299,40,08,27,286,36,,,,,,,,,8*6A
$$GAGSV,1,1,03,24,68,279,37,16,43,305,42,25,20,312,37,,,,,1*47
$$BDGSV,1,1,04,34,57,269,35,25,45,271,40,23,15,320,22,38,11,027,23,5*76
$$PSTMANTENNASTATUS,0,0,0,0*51
$$GNRMC,135815.000,A,4723.00436,N,00045.88255,E,0.2,303.6,210325,,,A,C*17
$$GNGGA,135815.000,4723.00436,N,00045.88255,E,1,16,1.1,062.66,M,48.3,M,,*75
$$GNVTG,303.6,T,,M,0.2,N,0.5,K,A*12
$$GNGST,135815.000,6.8,5.0,4.0,137.0,5.0,5.0,5.2*7F
$$GNGBS,135815.000,5.0,5.0,5.2,,,,,,*63
$$GNGSA,A,3,27,08,07,15,,,,,,,,,1.5,1.1,1.1,1*3B
$$GNGSA,A,3,24,16,25,,,,,,,,,,1.5,1.1,1.1,3*31
$$GNGSA,A,3,44,34,25,11,08,19,23,38,43,,,,1.5,1.1,1.1,4*3D
$$GNGSA,A,3,27,08,,,,,,,,,,,1.5,1.1,1.1,1*38
$$GNGSA,A,3,24,16,25,,,,,,,,,,1.5,1.1,1.1,3*31
$$GNGSA,A,3,34,25,38,,,,,,,,,,1.5,1.1,1.1,4*3B
$$GPGSV,3,1,10,16,71,196,24,27,64,299,33,23,44,092,19,26,44,172,24,1*6F
$$GPGSV,3,2,10,18,35,054,22,10,33,146,,08,27,286,38,07,14,316,42,1*62
$$GPGSV,3,3,10,15,05,057,32,02,04,235,,,,,,,,,,1*65
$$GAGSV,2,1,05,24,68,279,38,16,43,305,42,10,42,222,,25,20,312,36,7*7F
$$GAGSV,2,2,05,11,15,224,,,,,,,,,,,,,,7*46
$$BDGSV,4,1,13,12,81,343,24,44,61,062,28,34,57,269,41,25,45,271,45,1*7D
$$BDGSV,4,2,13,11,33,259,32,08,25,032,26,22,20,097,30,19,15,044,31,1*75
$$BDGSV,4,3,13,23,15,320,40,35,15,073,28,05,13,114,,38,11,027,31,1*73
$$BDGSV,4,4,13,43,09,259,35,,,,,,,,,,,,,1*41
$$GPGSV,1,1,02,27,64,299,40,08,27,286,36,,,,,,,,,8*6A
$$GAGSV,1,1,03,24,68,279,37,16,43,305,43,25,20,312,37,,,,,1*46
$$BDGSV,1,1,04,34,57,269,35,25,45,271,40,23,15,320,22,38,11,027,23,5*76
$$PSTMANTENNASTATUS,0,0,0,0*51
$$GNRMC,135816.000,A,4723.00444,N,00045.88255,E,0.4,91.7,210325,,,A,C*2E
$$GNGGA,135816.000,4723.00444,N,00045.88255,E,1,16,1.1,062.77,M,48.3,M,,*73
$$GNVTG,91.7,T,,M,0.4,N,0.7,K,A*2F
$$GNGST,135816.000,6.8,5.0,4.0,135.0,5.0,5.0,5.2*7E
$$GNGBS,135816.000,5.0,5.0,5.2,,,,,,*60
$$GNGSA,A,3,27,08,07,15,,,,,,,,,1.5,1.1,1.1,1*3B
$$GNGSA,A,3,24,16,25,,,,,,,,,,1.5,1.1,1.1,3*31
$$GNGSA,A,3,44,34,25,11,08,19,23,38,43,,,,1.5,1.1,1.1,4*3D
$$GNGSA,A,3,27,08,,,,,,,,,,,1.5,1.1,1.1,1*38
$$GNGSA,A,3,24,16,25,,,,,,,,,,1.5,1.1,1.1,3*31
$$GNGSA,A,3,34,25,38,,,,,,,,,,1.5,1.1,1.1,4*3B
$$GPGSV,3,1,10,16,71,196,24,27,64,299,33,23,44,092,19,26,44,172,24,1*6F
$$GPGSV,3,2,10,18,35,054,22,10,33,146,,08,27,286,38,07,14,316,42,1*62
$$GPGSV,3,3,10,15,05,057,32,02,04,235,,,,,,,,,,1*65
$$GAGSV,2,1,05,24,68,279,38,12,68,214,,16,43,305,42,25,20,312,35,7*73
$$GAGSV,2,2,05,11,15,224,,,,,,,,,,,,,,7*46
$$BDGSV,4,1,13,12,81,343,24,44,61,062,28,34,57,269,41,25,45,271,44,1*7C
$$BDGSV,4,2,13,11,33,259,32,08,25,032,26,22,20,097,30,19,15,044,31,1*75
$$BDGSV,4,3,13,23,15,320,40,35,15,073,28,05,13,114,,38,11,027,31,1*73
$$BDGSV,4,4,13,43,09,259,35,,,,,,,,,,,,,1*41
$$GPGSV,1,1,02,27,64,299,40,08,27,286,36,,,,,,,,,8*6A
$$GAGSV,1,1,03,24,68,279,37,16,43,305,43,25,20,312,37,,,,,1*46
$$BDGSV,1,1,04,34,57,269,35,25,45,271,40,23,15,320,22,38,11,027,23,5*76
$$PSTMANTENNASTATUS,0,0,0,0*51
$$GNRMC,135817.000,A,4723.00453,N,00045.88245,E,0.4,287.4,210325,,,A,C*1E
$$GNGGA,135817.000,4723.00453,N,00045.88245,E,1,16,1.1,062.89,M,48.3,M,,*74
$$GNVTG,287.4,T,,M,0.4,N,0.7,K,A*19
$$GNGST,135817.000,6.8,5.0,4.0,133.0,5.1,5.1,5.3*78
$$GNGBS,135817.000,5.1,5.1,5.3,,,,,,*60
$$GNGSA,A,3,27,08,07,15,,,,,,,,,1.5,1.1,1.1,1*3B
$$GNGSA,A,3,24,16,25,,,,,,,,,,1.5,1.1,1.1,3*31
$$GNGSA,A,3,44,34,25,11,08,19,23,38,43,,,,1.5,1.1,1.1,4*3D
$$GNGSA,A,3,27,08,,,,,,,,,,,1.5,1.1,1.1,1*38
$$GNGSA,A,3,24,16,25,,,,,,,,,,1.5,1.1,1.1,3*31
$$GNGSA,A,3,34,25,38,43,,,,,,,,,1.5,1.1,1.1,4*3C
$$GPGSV,3,1,09,16,71,196,24,27,64,299,32,23,44,092,18,26,44,172,24,1*67
$$GPGSV,3,2,09,18,35,054,22,10,33,146,,08,27,286,38,07,14,316,42,1*6A
$$GPGSV,3,3,09,15,05,057,32,,,,,,,,,,,,,1*5F
$$GAGSV,2,1,05,24,68,279,37,31,48,156,,16,43,305,42,25,20,312,36,7*79
$$GAGSV,2,2,05,11,15,224,,,,,,,,,,,,,,7*46
$$BDGSV,3,1,12,12,81,343,24,44,61,062,28,34,57,269,41,25,45,271,45,1*7B
$$BDGSV,3,2,12,11,33,259,32,08,25,032,27,22,20,097,30,19,15,044,30,1*73
$$BDGSV,3,3,12,23,15,320,39,35,15,073,29,38,11,027,31,43,09,259,35,1*7F
$$GPGSV,1,1,02,27,64,299,40,08,27,286,36,,,,,,,,,8*6A
$$GAGSV,1,1,03,24,68,279,37,16,43,305,43,25,20,312,37,,,,,1*46
$$BDGSV,2,1,06,44,61,062,10,34,57,269,35,25,45,271,40,23,15,320,22,5*7A
$$BDGSV,2,2,06,38,11,027,23,43,09,259,23,,,,,,,,,5*79
$$PSTMANTENNASTATUS,0,0,0,0*51
$$PSTMANTENNASTATUS,1,1,1,1*51
$$PSTMANTENNASTATUS,10,1,1,1*61
$$PSTMANTENNASTATUS,1,10,1,1*61
$$PSTMANTENNASTATUS,1,1,10,1*61
$$PSTMANTENNASTATUS,1,1,1,10*61
$$PSTMANTENNASTATUS,2,0,0,0*53
$$PSTMANTENNASTATUS,3,0,0,0*52
$$PSTMVER,GNSSLIB_9749c549631df_ARM*09
$$GPTXT,DEFAULT PVT CONFIGURATION*2A
$$PSTMVER,FreeRTOS_V10.4.3_ARM*57
$$PSTMVER,BINIMG_STA8041_4.6.8.5.9_ARM*0D
$$PSTMVER,SWCFG_86065331*62
$$GPTXT,DEFAULT PVT CONFIGURATION*2A
$$GPGSV,3,1,09,16,71,196,24,27,64,299,32,23,44,092,18,26,44,172,24,6*60
$$GPGSV,3,2,09,18,35,054,22,10,33,146,,08,27,286,38,07,14,316,42,6*6D
$$GPGSV,3,3,09,15,05,057,32,,,,,,,,,,,,,6*58
$$GPGSV,3,1,09,16,71,196,24,27,64,299,32,23,44,092,18,26,44,172,24,5*63
$$GPGSV,3,2,09,18,35,054,22,10,33,146,,08,27,286,38,07,14,316,42,5*6E
$$GPGSV,3,3,09,15,05,057,32,,,,,,,,,,,,,5*5B
$$GPGSV,3,1,09,16,71,196,24,27,64,299,32,23,44,092,18,26,44,172,24,7*61
$$GPGSV,3,2,09,18,35,054,22,10,33,146,,08,27,286,38,07,14,316,42,7*6E
$$GPGSV,3,3,09,15,05,057,32,,,,,,,,,,,,,7*59
$$GPGSV,3,1,09,16,71,196,24,27,64,299,32,23,44,092,18,26,44,172,24,8*6E
$$GPGSV,3,2,09,18,35,054,22,10,33,146,,08,27,286,38,07,14,316,42,8*63
$$GPGSV,3,3,09,15,05,057,32,,,,,,,,,,,,,8*56
$$GAGSV,1,1,03,24,68,279,37,16,43,305,43,25,20,312,37,,,,,2*45
$$BDGSV,2,1,06,44,61,062,10,34,57,269,35,25,45,271,40,23,15,320,22,B*0D
$$BDGSV,2,2,06,38,11,027,23,43,09,259,23,,,,,,,,,B*0E
$$BDGSV,2,1,06,44,61,062,10,34,57,269,35,25,45,271,40,23,15,320,22,3*7C
$$BDGSV,2,2,06,38,11,027,23,43,09,259,23,,,,,,,,,3*7F
