$GNGSA,A,3,44,34,25,11,19,23,38,,,,,,2.5,1.7,1.8,4*3E
{"class":"TPV","mode":3,"epv":41.400,"eph":32.300,"sep":47.500}
$GNGSA,A,3,27,08,,,,,,,,,,,2.5,1.7,1.8,1*34
{"class":"TPV","mode":3,"epv":41.400,"eph":32.300,"sep":47.500}
{"class":"SKY","hdop":1.70,"pdop":2.50,"vdop":1.80}
$GNGSA,A,3,24,16,25,,,,,,,,,,2.5,1.7,1.8,3*3D
{"class":"TPV","mode":3,"epv":41.400,"eph":32.300,"sep":47.500}
{"class":"SKY","hdop":1.70,"pdop":2.50,"vdop":1.80}
$GNGSA,A,3,34,25,23,38,,,,,,,,,2.5,1.7,1.8,4*36
{"class":"TPV","mode":3,"epv":41.400,"eph":32.300,"sep":47.500}
{"class":"SKY","hdop":1.70,"pdop":2.50,"vdop":1.80}
$GPGSV,3,1,09,16,71,196,27,27,64,299,35,23,44,092,23,26,44,172,26,1*69
$GPGSV,3,2,09,18,35,054,23,10,33,146,21,08,27,286,38,07,14,316,42,1*68
$GPGSV,3,3,09,15,05,057,32,,,,,,,,,,,,,1*5F
{"class":"SKY","hdop":1.70,"pdop":2.50,"vdop":1.80,"nSat":9,"uSat":2,"satellites":[{"PRN":16,"gnssid":0,"svid":16,"az":196.0,"el":71.0,"ss":27.0,"used":false},{"PRN":27,"gnssid":0,"svid":27,"az":299.0,"el":64.0,"ss":35.0,"used":true},{"PRN":23,"gnssid":0,"svid":23,"az":92.0,"el":44.0,"ss":23.0,"used":false},{"PRN":26,"gnssid":0,"svid":26,"az":172.0,"el":44.0,"ss":26.0,"used":false},{"PRN":18,"gnssid":0,"svid":18,"az":54.0,"el":35.0,"ss":23.0,"used":false},{"PRN":10,"gnssid":0,"svid":10,"az":146.0,"el":33.0,"ss":21.0,"used":false},{"PRN":8,"gnssid":0,"svid":8,"az":286.0,"el":27.0,"ss":38.0,"used":true},{"PRN":7,"gnssid":0,"svid":7,"az":316.0,"el":14.0,"ss":42.0,"used":false},{"PRN":15,"gnssid":0,"svid":15,"az":57.0,"el":5.0,"ss":32.0,"used":false}]}
$GAGSV,2,1,05,24,68,279,37,31,48,156,,16,43,305,41,25,20,312,36,7*7A
$GAGSV,2,2,05,11,15,224,,,,,,,,,,,,,,7*46
{"class":"SKY","gdop":16.98,"hdop":1.70,"pdop":2.50,"tdop":11.33,"xdop":7.89,"ydop":5.01,"vdop":1.80,"nSat":14,"uSat":5,"satellites":[{"PRN":16,"gnssid":0,"svid":16,"az":196.0,"el":71.0,"ss":27.0,"used":false},{"PRN":27,"gnssid":0,"svid":27,"az":299.0,"el":64.0,"ss":35.0,"used":true},{"PRN":23,"gnssid":0,"svid":23,"az":92.0,"el":44.0,"ss":23.0,"used":false},{"PRN":26,"gnssid":0,"svid":26,"az":172.0,"el":44.0,"ss":26.0,"used":false},{"PRN":18,"gnssid":0,"svid":18,"az":54.0,"el":35.0,"ss":23.0,"used":false},{"PRN":10,"gnssid":0,"svid":10,"az":146.0,"el":33.0,"ss":21.0,"used":false},{"PRN":8,"gnssid":0,"svid":8,"az":286.0,"el":27.0,"ss":38.0,"used":true},{"PRN":7,"gnssid":0,"svid":7,"az":316.0,"el":14.0,"ss":42.0,"used":false},{"PRN":15,"gnssid":0,"svid":15,"az":57.0,"el":5.0,"ss":32.0,"used":false},{"PRN":324,"gnssid":2,"svid":24,"sigid":4,"az":279.0,"el":68.0,"ss":37.0,"used":true},{"PRN":331,"gnssid":2,"svid":31,"sigid":4,"az":156.0,"el":48.0,"ss":0.0,"used":false},{"PRN":316,"gnssid":2,"svid":16,"sigid":4,"az":305.0,"el":43.0,"ss":41.0,"used":true},{"PRN":325,"gnssid":2,"svid":25,"sigid":4,"az":312.0,"el":20.0,"ss":36.0,"used":true},{"PRN":311,"gnssid":2,"svid":11,"sigid":4,"az":224.0,"el":15.0,"ss":0.0,"used":false}]}
$BDGSV,4,1,14,12,81,342,22,44,61,062,27,34,57,269,41,25,45,271,45,1*72
$PSTMVER,GNSSLIB_9749c549631df_ARM*09
$GPTXT,DEFAULT PVT CONFIGURATION*2A
$PSTMVER,FreeRTOS_V10.4.3_ARM*57
$PSTMVER,BINIMG_STA8041_4.6.8.5.9_ARM*0D
$PSTMVER,SWCFG_86065331*62
$GPTXT,DEFAULT PVT CONFIGURATION*2A
$PSTMANTENNASTATUS,0,0,0,0*51
$GNRMC,135806.000,A,4723.00484,N,00045.88150,E,0.5,120.9,210325,,,A,C*11
{"class":"TPV","mode":3,"time":"2025-03-21T13:58:06.000Z","ept":0.005,"lat":47.383414000,"lon":0.764691667,"track":120.9000,"magtrack":121.3433,"magvar":0.4,"speed":0.257,"geoidSep":46.386}
$GNGGA,135806.000,4723.00484,N,00045.88150,E,1,13,1.7,063.64,M,48.3,M,,*78
{"class":"TPV","mode":3,"time":"2025-03-21T13:58:06.000Z","ept":0.005,"lat":47.383414000,"lon":0.764691667,"altHAE":111.9400,"altMSL":63.6400,"alt":63.6400,"track":120.9000,"magtrack":121.3433,"magvar":0.4,"speed":0.257,"geoidSep":48.300,"eph":32.300}
{"class":"SKY","hdop":1.70,"uSat":13}
$GNVTG,120.9,T,,M,0.5,N,0.8,K,A*14
$GNGST,135806.000,6.1,4.0,4.0,61.0,4.6,4.4,4.8*4E
{"class":"GST","time":"2025-03-21T13:58:06.000Z","rms":6.100,"major":4.000,"minor":4.000,"orient":61.000,"lat":4.600,"lon":4.400,"alt":4.800}
$GNGBS,135806.000,4.6,4.4,4.8,,,,,,*68
$GNGSA,A,3,27,08,07,,,,,,,,,,2.5,1.7,1.8,1*33
{"class":"TPV","mode":3,"time":"2025-03-21T13:58:06.000Z","ept":0.005,"lat":47.383414000,"lon":0.764691667,"altHAE":111.9400,"altMSL":63.6400,"alt":63.6400,"epx":4.400,"epy":4.600,"epv":4.800,"track":120.9000,"magtrack":121.3433,"magvar":0.4,"speed":0.257,"geoidSep":48.300,"eph":32.300,"sep":47.500}
{"class":"GST","time":"2025-03-21T13:58:06.000Z","rms":6.100,"major":4.000,"minor":4.000,"orient":61.000,"lat":4.600,"lon":4.400,"alt":4.800}
$GNGSA,A,3,24,16,25,,,,,,,,,,2.5,1.7,1.8,3*3D
{"class":"TPV","mode":3,"time":"2025-03-21T13:58:06.000Z","ept":0.005,"lat":47.383414000,"lon":0.764691667,"altHAE":111.9400,"altMSL":63.6400,"alt":63.6400,"epx":4.400,"epy":4.600,"epv":4.800,"track":120.9000,"magtrack":121.3433,"magvar":0.4,"speed":0.257,"geoidSep":48.300,"eph":32.300,"sep":47.500}
{"class":"SKY","hdop":1.70,"pdop":2.50,"vdop":1.80,"uSat":13}
$GNGSA,A,3,44,34,25,11,19,23,38,,,,,,2.5,1.7,1.8,4*3E
{"class":"TPV","mode":3,"time":"2025-03-21T13:58:06.000Z","ept":0.005,"lat":47.383414000,"lon":0.764691667,"altHAE":111.9400,"altMSL":63.6400,"alt":63.6400,"epx":4.400,"epy":4.600,"epv":4.800,"track":120.9000,"magtrack":121.3433,"magvar":0.4,"speed":0.257,"geoidSep":48.300,"eph":32.300,"sep":47.500}
{"class":"SKY","hdop":1.70,"pdop":2.50,"vdop":1.80,"uSat":13}
$GNGSA,A,3,27,08,,,,,,,,,,,2.5,1.7,1.8,1*34
{"class":"TPV","mode":3,"time":"2025-03-21T13:58:06.000Z","ept":0.005,"lat":47.383414000,"lon":0.764691667,"altHAE":111.9400,"altMSL":63.6400,"alt":63.6400,"epx":4.400,"epy":4.600,"epv":4.800,"track":120.9000,"magtrack":121.3433,"magvar":0.4,"speed":0.257,"geoidSep":48.300,"eph":32.300,"sep":47.500}
{"class":"SKY","hdop":1.70,"pdop":2.50,"vdop":1.80,"uSat":13}
$GNGSA,A,3,24,16,25,,,,,,,,,,2.5,1.7,1.8,3*3D
{"class":"TPV","mode":3,"time":"2025-03-21T13:58:06.000Z","ept":0.005,"lat":47.383414000,"lon":0.764691667,"altHAE":111.9400,"altMSL":63.6400,"alt":63.6400,"epx":4.400,"epy":4.600,"epv":4.800,"track":120.9000,"magtrack":121.3433,"magvar":0.4,"speed":0.257,"geoidSep":48.300,"eph":32.300,"sep":47.500}
{"class":"SKY","hdop":1.70,"pdop":2.50,"vdop":1.80,"uSat":13}
$GNGSA,A,3,34,25,38,,,,,,,,,,2.5,1.7,1.8,4*37
{"class":"TPV","mode":3,"time":"2025-03-21T13:58:06.000Z","ept":0.005,"lat":47.383414000,"lon":0.764691667,"altHAE":111.9400,"altMSL":63.6400,"alt":63.6400,"epx":4.400,"epy":4.600,"epv":4.800,"track":120.9000,"magtrack":121.3433,"magvar":0.4,"speed":0.257,"geoidSep":48.300,"eph":32.300,"sep":47.500}
{"class":"SKY","hdop":1.70,"pdop":2.50,"vdop":1.80,"uSat":13}
$GPGSV,3,1,09,16,71,196,26,27,64,299,34,23,44,092,23,26,44,172,26,1*69
$GPGSV,3,2,09,18,35,054,24,10,33,146,21,08,27,286,38,07,14,316,42,1*6F
$GPGSV,3,3,09,15,05,057,32,,,,,,,,,,,,,1*5F
$GAGSV,1,1,04,24,68,279,38,16,43,305,42,25,20,312,36,11,15,224,,7*78
{"class":"SKY","gdop":13.15,"hdop":1.70,"pdop":2.50,"tdop":8.64,"xdop":5.89,"ydop":4.77,"vdop":1.80,"nSat":13,"uSat":6,"satellites":[{"PRN":16,"gnssid":0,"svid":16,"az":196.0,"el":71.0,"ss":26.0,"used":false},{"PRN":27,"gnssid":0,"svid":27,"az":299.0,"el":64.0,"ss":34.0,"used":true},{"PRN":23,"gnssid":0,"svid":23,"az":92.0,"el":44.0,"ss":23.0,"used":false},{"PRN":26,"gnssid":0,"svid":26,"az":172.0,"el":44.0,"ss":26.0,"used":false},{"PRN":18,"gnssid":0,"svid":18,"az":54.0,"el":35.0,"ss":24.0,"used":false},{"PRN":10,"gnssid":0,"svid":10,"az":146.0,"el":33.0,"ss":21.0,"used":false},{"PRN":8,"gnssid":0,"svid":8,"az":286.0,"el":27.0,"ss":38.0,"used":true},{"PRN":7,"gnssid":0,"svid":7,"az":316.0,"el":14.0,"ss":42.0,"used":true},{"PRN":15,"gnssid":0,"svid":15,"az":57.0,"el":5.0,"ss":32.0,"used":false},{"PRN":324,"gnssid":2,"svid":24,"sigid":4,"az":279.0,"el":68.0,"ss":38.0,"used":true},{"PRN":316,"gnssid":2,"svid":16,"sigid":4,"az":305.0,"el":43.0,"ss":42.0,"used":true},{"PRN":325,"gnssid":2,"svid":25,"sigid":4,"az":312.0,"el":20.0,"ss":36.0,"used":true},{"PRN":311,"gnssid":2,"svid":11,"sigid":4,"az":224.0,"el":15.0,"ss":0.0,"used":false}]}
$BDGSV,4,1,15,12,81,342,22,44,61,062,27,34,57,269,41,25,45,271,45,1*73
$BDGSV,4,2,15,13,33,043,,11,33,259,32,24,32,198,,08,25,032,26,1*70
$BDGSV,4,3,15,22,20,098,28,19,15,044,32,23,15,320,40,35,15,073,28,1*7E
$BDGSV,4,4,15,05,13,114,,38,11,027,31,43,09,259,34,,,,,1*49
{"class":"SKY","gdop":13.15,"hdop":1.70,"pdop":2.50,"tdop":8.64,"xdop":5.89,"ydop":4.77,"vdop":1.80,"nSat":28,"uSat":13,"satellites":[{"PRN":16,"gnssid":0,"svid":16,"az":196.0,"el":71.0,"ss":26.0,"used":false},{"PRN":27,"gnssid":0,"svid":27,"az":299.0,"el":64.0,"ss":34.0,"used":true},{"PRN":23,"gnssid":0,"svid":23,"az":92.0,"el":44.0,"ss":23.0,"used":false},{"PRN":26,"gnssid":0,"svid":26,"az":172.0,"el":44.0,"ss":26.0,"used":false},{"PRN":18,"gnssid":0,"svid":18,"az":54.0,"el":35.0,"ss":24.0,"used":false},{"PRN":10,"gnssid":0,"svid":10,"az":146.0,"el":33.0,"ss":21.0,"used":false},{"PRN":8,"gnssid":0,"svid":8,"az":286.0,"el":27.0,"ss":38.0,"used":true},{"PRN":7,"gnssid":0,"svid":7,"az":316.0,"el":14.0,"ss":42.0,"used":true},{"PRN":15,"gnssid":0,"svid":15,"az":57.0,"el":5.0,"ss":32.0,"used":false},{"PRN":324,"gnssid":2,"svid":24,"sigid":4,"az":279.0,"el":68.0,"ss":38.0,"used":true},{"PRN":316,"gnssid":2,"svid":16,"sigid":4,"az":305.0,"el":43.0,"ss":42.0,"used":true},{"PRN":325,"gnssid":2,"svid":25,"sigid":4,"az":312.0,"el":20.0,"ss":36.0,"used":true},{"PRN":311,"gnssid":2,"svid":11,"sigid":4,"az":224.0,"el":15.0,"ss":0.0,"used":false},{"PRN":412,"gnssid":3,"svid":12,"az":342.0,"el":81.0,"ss":22.0,"used":false},{"PRN":444,"gnssid":3,"svid":44,"az":62.0,"el":61.0,"ss":27.0,"used":true},{"PRN":434,"gnssid":3,"svid":34,"az":269.0,"el":57.0,"ss":41.0,"used":true},{"PRN":425,"gnssid":3,"svid":25,"az":271.0,"el":45.0,"ss":45.0,"used":true},{"PRN":413,"gnssid":3,"svid":13,"az":43.0,"el":33.0,"ss":0.0,"used":false},{"PRN":411,"gnssid":3,"svid":11,"az":259.0,"el":33.0,"ss":32.0,"used":true},{"PRN":424,"gnssid":3,"svid":24,"az":198.0,"el":32.0,"ss":0.0,"used":false},{"PRN":408,"gnssid":3,"svid":8,"az":32.0,"el":25.0,"ss":26.0,"used":false},{"PRN":422,"gnssid":3,"svid":22,"az":98.0,"el":20.0,"ss":28.0,"used":false},{"PRN":419,"gnssid":3,"svid":19,"az":44.0,"el":15.0,"ss":32.0,"used":true},{"PRN":423,"gnssid":3,"svid":23,"az":320.0,"el":15.0,"ss":40.0,"used":true},{"PRN":435,"gnssid":3,"svid":35,"az":73.0,"el":15.0,"ss":28.0,"used":false},{"PRN":405,"gnssid":3,"svid":5,"az":114.0,"el":13.0,"ss":0.0,"used":false},{"PRN":438,"gnssid":3,"svid":38,"az":27.0,"el":11.0,"ss":31.0,"used":true},{"PRN":443,"gnssid":3,"svid":43,"az":259.0,"el":9.0,"ss":34.0,"used":false}]}
$GPGSV,1,1,02,27,64,299,40,08,27,286,35,,,,,,,,,8*69
$GAGSV,1,1,03,24,68,279,37,16,43,305,42,25,20,312,36,,,,,1*46
{"class":"SKY","gdop":13.15,"hdop":1.70,"pdop":2.50,"tdop":8.64,"xdop":5.89,"ydop":4.77,"vdop":1.80,"nSat":33,"uSat":18,"satellites":[{"PRN":16,"gnssid":0,"svid":16,"az":196.0,"el":71.0,"ss":26.0,"used":false},{"PRN":27,"gnssid":0,"svid":27,"az":299.0,"el":64.0,"ss":34.0,"used":true},{"PRN":23,"gnssid":0,"svid":23,"az":92.0,"el":44.0,"ss":23.0,"used":false},{"PRN":26,"gnssid":0,"svid":26,"az":172.0,"el":44.0,"ss":26.0,"used":false},{"PRN":18,"gnssid":0,"svid":18,"az":54.0,"el":35.0,"ss":24.0,"used":false},{"PRN":10,"gnssid":0,"svid":10,"az":146.0,"el":33.0,"ss":21.0,"used":false},{"PRN":8,"gnssid":0,"svid":8,"az":286.0,"el":27.0,"ss":38.0,"used":true},{"PRN":7,"gnssid":0,"svid":7,"az":316.0,"el":14.0,"ss":42.0,"used":true},{"PRN":15,"gnssid":0,"svid":15,"az":57.0,"el":5.0,"ss":32.0,"used":false},{"PRN":324,"gnssid":2,"svid":24,"sigid":4,"az":279.0,"el":68.0,"ss":38.0,"used":true},{"PRN":316,"gnssid":2,"svid":16,"sigid":4,"az":305.0,"el":43.0,"ss":42.0,"used":true},{"PRN":325,"gnssid":2,"svid":25,"sigid":4,"az":312.0,"el":20.0,"ss":36.0,"used":true},{"PRN":311,"gnssid":2,"svid":11,"sigid":4,"az":224.0,"el":15.0,"ss":0.0,"used":false},{"PRN":412,"gnssid":3,"svid":12,"az":342.0,"el":81.0,"ss":22.0,"used":false},{"PRN":444,"gnssid":3,"svid":44,"az":62.0,"el":61.0,"ss":27.0,"used":true},{"PRN":434,"gnssid":3,"svid":34,"az":269.0,"el":57.0,"ss":41.0,"used":true},{"PRN":425,"gnssid":3,"svid":25,"az":271.0,"el":45.0,"ss":45.0,"used":true},{"PRN":413,"gnssid":3,"svid":13,"az":43.0,"el":33.0,"ss":0.0,"used":false},{"PRN":411,"gnssid":3,"svid":11,"az":259.0,"el":33.0,"ss":32.0,"used":true},{"PRN":424,"gnssid":3,"svid":24,"az":198.0,"el":32.0,"ss":0.0,"used":false},{"PRN":408,"gnssid":3,"svid":8,"az":32.0,"el":25.0,"ss":26.0,"used":false},{"PRN":422,"gnssid":3,"svid":22,"az":98.0,"el":20.0,"ss":28.0,"used":false},{"PRN":419,"gnssid":3,"svid":19,"az":44.0,"el":15.0,"ss":32.0,"used":true},{"PRN":423,"gnssid":3,"svid":23,"az":320.0,"el":15.0,"ss":40.0,"used":true},{"PRN":435,"gnssid":3,"svid":35,"az":73.0,"el":15.0,"ss":28.0,"used":false},{"PRN":405,"gnssid":3,"svid":5,"az":114.0,"el":13.0,"ss":0.0,"used":false},{"PRN":438,"gnssid":3,"svid":38,"az":27.0,"el":11.0,"ss":31.0,"used":true},{"PRN":443,"gnssid":3,"svid":43,"az":259.0,"el":9.0,"ss":34.0,"used":false},{"PRN":27,"gnssid":0,"svid":27,"sigid":7,"az":299.0,"el":64.0,"ss":40.0,"used":true},{"PRN":8,"gnssid":0,"svid":8,"sigid":7,"az":286.0,"el":27.0,"ss":35.0,"used":true},{"PRN":324,"gnssid":2,"svid":24,"sigid":3,"az":279.0,"el":68.0,"ss":37.0,"used":true},{"PRN":316,"gnssid":2,"svid":16,"sigid":3,"az":305.0,"el":43.0,"ss":42.0,"used":true},{"PRN":325,"gnssid":2,"svid":25,"sigid":3,"az":312.0,"el":20.0,"ss":36.0,"used":true}]}
$BDGSV,1,1,04,34,57,269,35,25,45,271,40,23,15,320,23,38,11,027,23,5*77
{"class":"SKY","gdop":13.15,"hdop":1.70,"pdop":2.50,"tdop":8.64,"xdop":5.89,"ydop":4.77,"vdop":1.80,"nSat":37,"uSat":22,"satellites":[{"PRN":16,"gnssid":0,"svid":16,"az":196.0,"el":71.0,"ss":26.0,"used":false},{"PRN":27,"gnssid":0,"svid":27,"az":299.0,"el":64.0,"ss":34.0,"used":true},{"PRN":23,"gnssid":0,"svid":23,"az":92.0,"el":44.0,"ss":23.0,"used":false},{"PRN":26,"gnssid":0,"svid":26,"az":172.0,"el":44.0,"ss":26.0,"used":false},{"PRN":18,"gnssid":0,"svid":18,"az":54.0,"el":35.0,"ss":24.0,"used":false},{"PRN":10,"gnssid":0,"svid":10,"az":146.0,"el":33.0,"ss":21.0,"used":false},{"PRN":8,"gnssid":0,"svid":8,"az":286.0,"el":27.0,"ss":38.0,"used":true},{"PRN":7,"gnssid":0,"svid":7,"az":316.0,"el":14.0,"ss":42.0,"used":true},{"PRN":15,"gnssid":0,"svid":15,"az":57.0,"el":5.0,"ss":32.0,"used":false},{"PRN":324,"gnssid":2,"svid":24,"sigid":4,"az":279.0,"el":68.0,"ss":38.0,"used":true},{"PRN":316,"gnssid":2,"svid":16,"sigid":4,"az":305.0,"el":43.0,"ss":42.0,"used":true},{"PRN":325,"gnssid":2,"svid":25,"sigid":4,"az":312.0,"el":20.0,"ss":36.0,"used":true},{"PRN":311,"gnssid":2,"svid":11,"sigid":4,"az":224.0,"el":15.0,"ss":0.0,"used":false},{"PRN":412,"gnssid":3,"svid":12,"az":342.0,"el":81.0,"ss":22.0,"used":false},{"PRN":444,"gnssid":3,"svid":44,"az":62.0,"el":61.0,"ss":27.0,"used":true},{"PRN":434,"gnssid":3,"svid":34,"az":269.0,"el":57.0,"ss":41.0,"used":true},{"PRN":425,"gnssid":3,"svid":25,"az":271.0,"el":45.0,"ss":45.0,"used":true},{"PRN":413,"gnssid":3,"svid":13,"az":43.0,"el":33.0,"ss":0.0,"used":false},{"PRN":411,"gnssid":3,"svid":11,"az":259.0,"el":33.0,"ss":32.0,"used":true},{"PRN":424,"gnssid":3,"svid":24,"az":198.0,"el":32.0,"ss":0.0,"used":false},{"PRN":408,"gnssid":3,"svid":8,"az":32.0,"el":25.0,"ss":26.0,"used":false},{"PRN":422,"gnssid":3,"svid":22,"az":98.0,"el":20.0,"ss":28.0,"used":false},{"PRN":419,"gnssid":3,"svid":19,"az":44.0,"el":15.0,"ss":32.0,"used":true},{"PRN":423,"gnssid":3,"svid":23,"az":320.0,"el":15.0,"ss":40.0,"used":true},{"PRN":435,"gnssid":3,"svid":35,"az":73.0,"el":15.0,"ss":28.0,"used":false},{"PRN":405,"gnssid":3,"svid":5,"az":114.0,"el":13.0,"ss":0.0,"used":false},{"PRN":438,"gnssid":3,"svid":38,"az":27.0,"el":11.0,"ss":31.0,"used":true},{"PRN":443,"gnssid":3,"svid":43,"az":259.0,"el":9.0,"ss":34.0,"used":false},{"PRN":27,"gnssid":0,"svid":27,"sigid":7,"az":299.0,"el":64.0,"ss":40.0,"used":true},{"PRN":8,"gnssid":0,"svid":8,"sigid":7,"az":286.0,"el":27.0,"ss":35.0,"used":true},{"PRN":324,"gnssid":2,"svid":24,"sigid":3,"az":279.0,"el":68.0,"ss":37.0,"used":true},{"PRN":316,"gnssid":2,"svid":16,"sigid":3,"az":305.0,"el":43.0,"ss":42.0,"used":true},{"PRN":325,"gnssid":2,"svid":25,"sigid":3,"az":312.0,"el":20.0,"ss":36.0,"used":true},{"PRN":434,"gnssid":3,"svid":34,"sigid":7,"az":269.0,"el":57.0,"ss":35.0,"used":true},{"PRN":425,"gnssid":3,"svid":25,"sigid":7,"az":271.0,"el":45.0,"ss":40.0,"used":true},{"PRN":423,"gnssid":3,"svid":23,"sigid":7,"az":320.0,"el":15.0,"ss":23.0,"used":true},{"PRN":438,"gnssid":3,"svid":38,"sigid":7,"az":27.0,"el":11.0,"ss":23.0,"used":true}]}
$PSTMANTENNASTATUS,0,0,0,0*51
$GNRMC,135807.000,A,4723.00476,N,00045.88162,E,0.3,146.6,210325,,,A,C*15
$GNGGA,135807.000,4723.00476,N,00045.88162,E,1,15,1.4,063.51,M,48.3,M,,*76
{"class":"SKY","hdop":1.40,"uSat":15}
$GNVTG,146.6,T,,M,0.3,N,0.6,K,A*13
$GNGST,135807.000,7.5,5.0,5.0,59.0,5.5,5.3,5.7*4B
{"class":"GST","time":"2025-03-21T13:58:07.000Z","rms":7.500,"major":5.000,"minor":5.000,"orient":59.000,"lat":5.500,"lon":5.300,"alt":5.700}
$GNGBS,135807.000,5.5,5.3,5.7,,,,,,*63
{"class":"TPV","mode":3,"time":"2025-03-21T13:58:07.000Z","ept":0.005,"lat":47.383412667,"lon":0.764693667,"altHAE":111.8100,"altMSL":63.5100,"alt":63.5100,"epx":5.300,"epy":5.500,"epv":5.700,"track":146.6000,"magtrack":147.0433,"magvar":0.4,"speed":0.154,"climb":-0.130,"eps":93.82,"epc":10.50,"geoidSep":48.300,"eph":26.600}
{"class":"GST","time":"2025-03-21T13:58:07.000Z","rms":7.500,"major":5.000,"minor":5.000,"orient":59.000,"lat":5.500,"lon":5.300,"alt":5.700}
{"class":"SKY","hdop":1.40,"uSat":15}
$GNGSA,A,3,27,08,07,15,,,,,,,,,2.0,1.4,1.4,1*3D
{"class":"TPV","mode":3,"time":"2025-03-21T13:58:07.000Z","ept":0.005,"lat":47.383412667,"lon":0.764693667,"altHAE":111.8100,"altMSL":63.5100,"alt":63.5100,"epx":5.300,"epy":5.500,"epv":5.700,"track":146.6000,"magtrack":147.0433,"magvar":0.4,"speed":0.154,"climb":-0.130,"eps":93.82,"epc":10.50,"geoidSep":48.300,"eph":26.600,"sep":38.000}
$GNGSA,A,3,24,16,25,,,,,,,,,,2.0,1.4,1.4,3*37
{"class":"TPV","mode":3,"time":"2025-03-21T13:58:07.000Z","ept":0.005,"lat":47.383412667,"lon":0.764693667,"altHAE":111.8100,"altMSL":63.5100,"alt":63.5100,"epx":5.300,"epy":5.500,"epv":5.700,"track":146.6000,"magtrack":147.0433,"magvar":0.4,"speed":0.154,"climb":-0.130,"eps":93.82,"epc":10.50,"geoidSep":48.300,"eph":26.600,"sep":38.000}
{"class":"SKY","hdop":1.40,"pdop":2.00,"vdop":1.40,"uSat":15}
$GNGSA,A,3,44,34,25,11,08,19,23,38,,,,,2.0,1.4,1.4,4*3C
{"class":"TPV","mode":3,"time":"2025-03-21T13:58:07.000Z","ept":0.005,"lat":47.383412667,"lon":0.764693667,"altHAE":111.8100,"altMSL":63.5100,"alt":63.5100,"epx":5.300,"epy":5.500,"epv":5.700,"track":146.6000,"magtrack":147.0433,"magvar":0.4,"speed":0.154,"climb":-0.130,"eps":93.82,"epc":10.50,"geoidSep":48.300,"eph":26.600,"sep":38.000}
{"class":"SKY","hdop":1.40,"pdop":2.00,"vdop":1.40,"uSat":15}
$GNGSA,A,3,27,08,,,,,,,,,,,2.0,1.4,1.4,1*3E
{"class":"TPV","mode":3,"time":"2025-03-21T13:58:07.000Z","ept":0.005,"lat":47.383412667,"lon":0.764693667,"altHAE":111.8100,"altMSL":63.5100,"alt":63.5100,"epx":5.300,"epy":5.500,"epv":5.700,"track":146.6000,"magtrack":147.0433,"magvar":0.4,"speed":0.154,"climb":-0.130,"eps":93.82,"epc":10.50,"geoidSep":48.300,"eph":26.600,"sep":38.000}
{"class":"SKY","hdop":1.40,"pdop":2.00,"vdop":1.40,"uSat":15}
$GNGSA,A,3,24,16,25,,,,,,,,,,2.0,1.4,1.4,3*37
{"class":"TPV","mode":3,"time":"2025-03-21T13:58:07.000Z","ept":0.005,"lat":47.383412667,"lon":0.764693667,"altHAE":111.8100,"altMSL":63.5100,"alt":63.5100,"epx":5.300,"epy":5.500,"epv":5.700,"track":146.6000,"magtrack":147.0433,"magvar":0.4,"speed":0.154,"climb":-0.130,"eps":93.82,"epc":10.50,"geoidSep":48.300,"eph":26.600,"sep":38.000}
{"class":"SKY","hdop":1.40,"pdop":2.00,"vdop":1.40,"uSat":15}
$GNGSA,A,3,34,25,38,,,,,,,,,,2.0,1.4,1.4,4*3D
{"class":"TPV","mode":3,"time":"2025-03-21T13:58:07.000Z","ept":0.005,"lat":47.383412667,"lon":0.764693667,"altHAE":111.8100,"altMSL":63.5100,"alt":63.5100,"epx":5.300,"epy":5.500,"epv":5.700,"track":146.6000,"magtrack":147.0433,"magvar":0.4,"speed":0.154,"climb":-0.130,"eps":93.82,"epc":10.50,"geoidSep":48.300,"eph":26.600,"sep":38.000}
{"class":"SKY","hdop":1.40,"pdop":2.00,"vdop":1.40,"uSat":15}
$GPGSV,3,1,10,16,71,196,25,27,64,299,34,23,44,092,22,26,44,172,26,1*63
$GPGSV,3,2,10,18,35,054,24,10,33,146,21,08,27,286,38,07,14,316,42,1*67
$GPGSV,3,3,10,15,05,057,32,02,,,,,,,,,,,,1*55
$GAGSV,1,1,04,24,68,279,38,16,43,305,42,25,20,312,36,11,15,224,,7*78
{"class":"TPV","mode":3,"time":"2025-03-21T13:58:07.000Z","ept":0.005,"lat":47.383412667,"lon":0.764693667,"altHAE":111.8100,"altMSL":63.5100,"alt":63.5100,"epx":12.323,"epy":48.898,"epv":5.700,"track":146.6000,"magtrack":147.0433,"magvar":0.4,"speed":0.154,"climb":-0.130,"eps":137.22,"epc":10.50,"geoidSep":48.300,"eph":26.600,"sep":38.000}
{"class":"SKY","gdop":4.85,"hdop":1.40,"pdop":2.00,"tdop":2.42,"xdop":0.82,"ydop":3.26,"vdop":1.40,"nSat":14,"uSat":7,"satellites":[{"PRN":16,"gnssid":0,"svid":16,"az":196.0,"el":71.0,"ss":25.0,"used":false},{"PRN":27,"gnssid":0,"svid":27,"az":299.0,"el":64.0,"ss":34.0,"used":true},{"PRN":23,"gnssid":0,"svid":23,"az":92.0,"el":44.0,"ss":22.0,"used":false},{"PRN":26,"gnssid":0,"svid":26,"az":172.0,"el":44.0,"ss":26.0,"used":false},{"PRN":18,"gnssid":0,"svid":18,"az":54.0,"el":35.0,"ss":24.0,"used":false},{"PRN":10,"gnssid":0,"svid":10,"az":146.0,"el":33.0,"ss":21.0,"used":false},{"PRN":8,"gnssid":0,"svid":8,"az":286.0,"el":27.0,"ss":38.0,"used":true},{"PRN":7,"gnssid":0,"svid":7,"az":316.0,"el":14.0,"ss":42.0,"used":true},{"PRN":15,"gnssid":0,"svid":15,"az":57.0,"el":5.0,"ss":32.0,"used":true},{"PRN":2,"gnssid":0,"svid":2,"az":0.0,"el":0.0,"ss":0.0,"used":false},{"PRN":324,"gnssid":2,"svid":24,"sigid":4,"az":279.0,"el":68.0,"ss":38.0,"used":true},{"PRN":316,"gnssid":2,"svid":16,"sigid":4,"az":305.0,"el":43.0,"ss":42.0,"used":true},{"PRN":325,"gnssid":2,"svid":25,"sigid":4,"az":312.0,"el":20.0,"ss":36.0,"used":true},{"PRN":311,"gnssid":2,"svid":11,"sigid":4,"az":224.0,"el":15.0,"ss":0.0,"used":false}]}
$BDGSV,4,1,13,12,81,342,22,44,61,062,28,34,57,269,41,25,45,271,45,1*7A
$BDGSV,4,2,13,11,33,259,32,24,32,198,,08,25,032,26,22,20,098,28,1*7A
$BDGSV,4,3,13,19,15,044,32,23,15,320,40,35,15,073,28,38,11,027,31,1*7D
$BDGSV,4,4,13,43,09,259,34,,,,,,,,,,,,,1*40
{"class":"TPV","mode":3,"time":"2025-03-21T13:58:07.000Z","ept":0.005,"lat":47.383412667,"lon":0.764693667,"altHAE":111.8100,"altMSL":63.5100,"alt":63.5100,"epx":12.323,"epy":48.898,"epv":5.700,"track":146.6000,"magtrack":147.0433,"magvar":0.4,"speed":0.154,"climb":-0.130,"eps":137.22,"epc":10.50,"geoidSep":48.300,"eph":26.600,"sep":38.000}
{"class":"SKY","gdop":4.85,"hdop":1.40,"pdop":2.00,"tdop":2.42,"xdop":0.82,"ydop":3.26,"vdop":1.40,"nSat":27,"uSat":15,"satellites":[{"PRN":16,"gnssid":0,"svid":16,"az":196.0,"el":71.0,"ss":25.0,"used":false},{"PRN":27,"gnssid":0,"svid":27,"az":299.0,"el":64.0,"ss":34.0,"used":true},{"PRN":23,"gnssid":0,"svid":23,"az":92.0,"el":44.0,"ss":22.0,"used":false},{"PRN":26,"gnssid":0,"svid":26,"az":172.0,"el":44.0,"ss":26.0,"used":false},{"PRN":18,"gnssid":0,"svid":18,"az":54.0,"el":35.0,"ss":24.0,"used":false},{"PRN":10,"gnssid":0,"svid":10,"az":146.0,"el":33.0,"ss":21.0,"used":false},{"PRN":8,"gnssid":0,"svid":8,"az":286.0,"el":27.0,"ss":38.0,"used":true},{"PRN":7,"gnssid":0,"svid":7,"az":316.0,"el":14.0,"ss":42.0,"used":true},{"PRN":15,"gnssid":0,"svid":15,"az":57.0,"el":5.0,"ss":32.0,"used":true},{"PRN":2,"gnssid":0,"svid":2,"az":0.0,"el":0.0,"ss":0.0,"used":false},{"PRN":324,"gnssid":2,"svid":24,"sigid":4,"az":279.0,"el":68.0,"ss":38.0,"used":true},{"PRN":316,"gnssid":2,"svid":16,"sigid":4,"az":305.0,"el":43.0,"ss":42.0,"used":true},{"PRN":325,"gnssid":2,"svid":25,"sigid":4,"az":312.0,"el":20.0,"ss":36.0,"used":true},{"PRN":311,"gnssid":2,"svid":11,"sigid":4,"az":224.0,"el":15.0,"ss":0.0,"used":false},{"PRN":412,"gnssid":3,"svid":12,"az":342.0,"el":81.0,"ss":22.0,"used":false},{"PRN":444,"gnssid":3,"svid":44,"az":62.0,"el":61.0,"ss":28.0,"used":true},{"PRN":434,"gnssid":3,"svid":34,"az":269.0,"el":57.0,"ss":41.0,"used":true},{"PRN":425,"gnssid":3,"svid":25,"az":271.0,"el":45.0,"ss":45.0,"used":true},{"PRN":411,"gnssid":3,"svid":11,"az":259.0,"el":33.0,"ss":32.0,"used":true},{"PRN":424,"gnssid":3,"svid":24,"az":198.0,"el":32.0,"ss":0.0,"used":false},{"PRN":408,"gnssid":3,"svid":8,"az":32.0,"el":25.0,"ss":26.0,"used":true},{"PRN":422,"gnssid":3,"svid":22,"az":98.0,"el":20.0,"ss":28.0,"used":false},{"PRN":419,"gnssid":3,"svid":19,"az":44.0,"el":15.0,"ss":32.0,"used":true},{"PRN":423,"gnssid":3,"svid":23,"az":320.0,"el":15.0,"ss":40.0,"used":true},{"PRN":435,"gnssid":3,"svid":35,"az":73.0,"el":15.0,"ss":28.0,"used":false},{"PRN":438,"gnssid":3,"svid":38,"az":27.0,"el":11.0,"ss":31.0,"used":true},{"PRN":443,"gnssid":3,"svid":43,"az":259.0,"el":9.0,"ss":34.0,"used":false}]}
$GPGSV,1,1,02,27,64,299,40,08,27,286,35,,,,,,,,,8*69
$GAGSV,1,1,03,24,68,279,37,16,43,305,42,25,20,312,36,,,,,1*46
{"class":"TPV","mode":3,"time":"2025-03-21T13:58:07.000Z","ept":0.005,"lat":47.383412667,"lon":0.764693667,"altHAE":111.8100,"altMSL":63.5100,"alt":63.5100,"epx":12.323,"epy":48.898,"epv":5.700,"track":146.6000,"magtrack":147.0433,"magvar":0.4,"speed":0.154,"climb":-0.130,"eps":137.22,"epc":10.50,"geoidSep":48.300,"eph":26.600,"sep":38.000}
{"class":"SKY","gdop":4.85,"hdop":1.40,"pdop":2.00,"tdop":2.42,"xdop":0.82,"ydop":3.26,"vdop":1.40,"nSat":32,"uSat":20,"satellites":[{"PRN":16,"gnssid":0,"svid":16,"az":196.0,"el":71.0,"ss":25.0,"used":false},{"PRN":27,"gnssid":0,"svid":27,"az":299.0,"el":64.0,"ss":34.0,"used":true},{"PRN":23,"gnssid":0,"svid":23,"az":92.0,"el":44.0,"ss":22.0,"used":false},{"PRN":26,"gnssid":0,"svid":26,"az":172.0,"el":44.0,"ss":26.0,"used":false},{"PRN":18,"gnssid":0,"svid":18,"az":54.0,"el":35.0,"ss":24.0,"used":false},{"PRN":10,"gnssid":0,"svid":10,"az":146.0,"el":33.0,"ss":21.0,"used":false},{"PRN":8,"gnssid":0,"svid":8,"az":286.0,"el":27.0,"ss":38.0,"used":true},{"PRN":7,"gnssid":0,"svid":7,"az":316.0,"el":14.0,"ss":42.0,"used":true},{"PRN":15,"gnssid":0,"svid":15,"az":57.0,"el":5.0,"ss":32.0,"used":true},{"PRN":2,"gnssid":0,"svid":2,"az":0.0,"el":0.0,"ss":0.0,"used":false},{"PRN":324,"gnssid":2,"svid":24,"sigid":4,"az":279.0,"el":68.0,"ss":38.0,"used":true},{"PRN":316,"gnssid":2,"svid":16,"sigid":4,"az":305.0,"el":43.0,"ss":42.0,"used":true},{"PRN":325,"gnssid":2,"svid":25,"sigid":4,"az":312.0,"el":20.0,"ss":36.0,"used":true},{"PRN":311,"gnssid":2,"svid":11,"sigid":4,"az":224.0,"el":15.0,"ss":0.0,"used":false},{"PRN":412,"gnssid":3,"svid":12,"az":342.0,"el":81.0,"ss":22.0,"used":false},{"PRN":444,"gnssid":3,"svid":44,"az":62.0,"el":61.0,"ss":28.0,"used":true},{"PRN":434,"gnssid":3,"svid":34,"az":269.0,"el":57.0,"ss":41.0,"used":true},{"PRN":425,"gnssid":3,"svid":25,"az":271.0,"el":45.0,"ss":45.0,"used":true},{"PRN":411,"gnssid":3,"svid":11,"az":259.0,"el":33.0,"ss":32.0,"used":true},{"PRN":424,"gnssid":3,"svid":24,"az":198.0,"el":32.0,"ss":0.0,"used":false},{"PRN":408,"gnssid":3,"svid":8,"az":32.0,"el":25.0,"ss":26.0,"used":true},{"PRN":422,"gnssid":3,"svid":22,"az":98.0,"el":20.0,"ss":28.0,"used":false},{"PRN":419,"gnssid":3,"svid":19,"az":44.0,"el":15.0,"ss":32.0,"used":true},{"PRN":423,"gnssid":3,"svid":23,"az":320.0,"el":15.0,"ss":40.0,"used":true},{"PRN":435,"gnssid":3,"svid":35,"az":73.0,"el":15.0,"ss":28.0,"used":false},{"PRN":438,"gnssid":3,"svid":38,"az":27.0,"el":11.0,"ss":31.0,"used":true},{"PRN":443,"gnssid":3,"svid":43,"az":259.0,"el":9.0,"ss":34.0,"used":false},{"PRN":27,"gnssid":0,"svid":27,"sigid":7,"az":299.0,"el":64.0,"ss":40.0,"used":true},{"PRN":8,"gnssid":0,"svid":8,"sigid":7,"az":286.0,"el":27.0,"ss":35.0,"used":true},{"PRN":324,"gnssid":2,"svid":24,"sigid":3,"az":279.0,"el":68.0,"ss":37.0,"used":true},{"PRN":316,"gnssid":2,"svid":16,"sigid":3,"az":305.0,"el":43.0,"ss":42.0,"used":true},{"PRN":325,"gnssid":2,"svid":25,"sigid":3,"az":312.0,"el":20.0,"ss":36.0,"used":true}]}
$BDGSV,1,1,04,34,57,269,35,25,45,271,40,23,15,320,22,38,11,027,23,5*76
{"class":"TPV","mode":3,"time":"2025-03-21T13:58:07.000Z","ept":0.005,"lat":47.383412667,"lon":0.764693667,"altHAE":111.8100,"altMSL":63.5100,"alt":63.5100,"epx":12.323,"epy":48.898,"epv":5.700,"track":146.6000,"magtrack":147.0433,"magvar":0.4,"speed":0.154,"climb":-0.130,"eps":137.22,"epc":10.50,"geoidSep":48.300,"eph":26.600,"sep":38.000}
{"class":"SKY","gdop":4.85,"hdop":1.40,"pdop":2.00,"tdop":2.42,"xdop":0.82,"ydop":3.26,"vdop":1.40,"nSat":36,"uSat":24,"satellites":[{"PRN":16,"gnssid":0,"svid":16,"az":196.0,"el":71.0,"ss":25.0,"used":false},{"PRN":27,"gnssid":0,"svid":27,"az":299.0,"el":64.0,"ss":34.0,"used":true},{"PRN":23,"gnssid":0,"svid":23,"az":92.0,"el":44.0,"ss":22.0,"used":false},{"PRN":26,"gnssid":0,"svid":26,"az":172.0,"el":44.0,"ss":26.0,"used":false},{"PRN":18,"gnssid":0,"svid":18,"az":54.0,"el":35.0,"ss":24.0,"used":false},{"PRN":10,"gnssid":0,"svid":10,"az":146.0,"el":33.0,"ss":21.0,"used":false},{"PRN":8,"gnssid":0,"svid":8,"az":286.0,"el":27.0,"ss":38.0,"used":true},{"PRN":7,"gnssid":0,"svid":7,"az":316.0,"el":14.0,"ss":42.0,"used":true},{"PRN":15,"gnssid":0,"svid":15,"az":57.0,"el":5.0,"ss":32.0,"used":true},{"PRN":2,"gnssid":0,"svid":2,"az":0.0,"el":0.0,"ss":0.0,"used":false},{"PRN":324,"gnssid":2,"svid":24,"sigid":4,"az":279.0,"el":68.0,"ss":38.0,"used":true},{"PRN":316,"gnssid":2,"svid":16,"sigid":4,"az":305.0,"el":43.0,"ss":42.0,"used":true},{"PRN":325,"gnssid":2,"svid":25,"sigid":4,"az":312.0,"el":20.0,"ss":36.0,"used":true},{"PRN":311,"gnssid":2,"svid":11,"sigid":4,"az":224.0,"el":15.0,"ss":0.0,"used":false},{"PRN":412,"gnssid":3,"svid":12,"az":342.0,"el":81.0,"ss":22.0,"used":false},{"PRN":444,"gnssid":3,"svid":44,"az":62.0,"el":61.0,"ss":28.0,"used":true},{"PRN":434,"gnssid":3,"svid":34,"az":269.0,"el":57.0,"ss":41.0,"used":true},{"PRN":425,"gnssid":3,"svid":25,"az":271.0,"el":45.0,"ss":45.0,"used":true},{"PRN":411,"gnssid":3,"svid":11,"az":259.0,"el":33.0,"ss":32.0,"used":true},{"PRN":424,"gnssid":3,"svid":24,"az":198.0,"el":32.0,"ss":0.0,"used":false},{"PRN":408,"gnssid":3,"svid":8,"az":32.0,"el":25.0,"ss":26.0,"used":true},{"PRN":422,"gnssid":3,"svid":22,"az":98.0,"el":20.0,"ss":28.0,"used":false},{"PRN":419,"gnssid":3,"svid":19,"az":44.0,"el":15.0,"ss":32.0,"used":true},{"PRN":423,"gnssid":3,"svid":23,"az":320.0,"el":15.0,"ss":40.0,"used":true},{"PRN":435,"gnssid":3,"svid":35,"az":73.0,"el":15.0,"ss":28.0,"used":false},{"PRN":438,"gnssid":3,"svid":38,"az":27.0,"el":11.0,"ss":31.0,"used":true},{"PRN":443,"gnssid":3,"svid":43,"az":259.0,"el":9.0,"ss":34.0,"used":false},{"PRN":27,"gnssid":0,"svid":27,"sigid":7,"az":299.0,"el":64.0,"ss":40.0,"used":true},{"PRN":8,"gnssid":0,"svid":8,"sigid":7,"az":286.0,"el":27.0,"ss":35.0,"used":true},{"PRN":324,"gnssid":2,"svid":24,"sigid":3,"az":279.0,"el":68.0,"ss":37.0,"used":true},{"PRN":316,"gnssid":2,"svid":16,"sigid":3,"az":305.0,"el":43.0,"ss":42.0,"used":true},{"PRN":325,"gnssid":2,"svid":25,"sigid":3,"az":312.0,"el":20.0,"ss":36.0,"used":true},{"PRN":434,"gnssid":3,"svid":34,"sigid":7,"az":269.0,"el":57.0,"ss":35.0,"used":true},{"PRN":425,"gnssid":3,"svid":25,"sigid":7,"az":271.0,"el":45.0,"ss":40.0,"used":true},{"PRN":423,"gnssid":3,"svid":23,"sigid":7,"az":320.0,"el":15.0,"ss":22.0,"used":true},{"PRN":438,"gnssid":3,"svid":38,"sigid":7,"az":27.0,"el":11.0,"ss":23.0,"used":true}]}
$PSTMANTENNASTATUS,0,0,0,0*51
{"class":"TPV","mode":3,"time":"2025-03-21T13:58:07.000Z","ept":0.005,"lat":47.383412667,"lon":0.764693667,"altHAE":111.8100,"altMSL":63.5100,"alt":63.5100,"epx":12.323,"epy":48.898,"epv":5.700,"track":146.6000,"magtrack":147.0433,"magvar":0.4,"speed":0.154,"climb":-0.130,"eps":137.22,"epc":10.50,"geoidSep":48.300,"eph":26.600,"sep":38.000}
$GNRMC,135808.000,A,4723.00470,N,00045.88175,E,0.4,145.1,210325,,,A,C*19
$GNGGA,135808.000,4723.00470,N,00045.88175,E,1,14,1.7,063.35,M,48.3,M,,*79
{"class":"SKY","hdop":1.70,"uSat":14}
$GNVTG,145.1,T,,M,0.4,N,0.8,K,A*1E
$GNGST,135808.000,6.2,4.0,4.0,57.0,4.6,4.5,4.8*47
{"class":"GST","time":"2025-03-21T13:58:08.000Z","rms":6.200,"major":4.000,"minor":4.000,"orient":57.000,"lat":4.600,"lon":4.500,"alt":4.800}
$GNGBS,135808.000,4.6,4.5,4.8,,,,,,*67
{"class":"TPV","mode":3,"time":"2025-03-21T13:58:08.000Z","ept":0.005,"lat":47.383411667,"lon":0.764695833,"altHAE":111.6500,"altMSL":63.3500,"alt":63.3500,"epx":4.500,"epy":4.600,"epv":4.800,"track":145.1000,"magtrack":145.5433,"magvar":0.4,"speed":0.206,"climb":-0.160,"eps":53.50,"epc":10.50,"geoidSep":48.300,"eph":32.300}
{"class":"GST","time":"2025-03-21T13:58:08.000Z","rms":6.200,"major":4.000,"minor":4.000,"orient":57.000,"lat":4.600,"lon":4.500,"alt":4.800}
{"class":"SKY","hdop":1.70,"uSat":14}
$GNGSA,A,3,27,08,07,,,,,,,,,,2.5,1.7,1.8,1*33
{"class":"TPV","mode":3,"time":"2025-03-21T13:58:08.000Z","ept":0.005,"lat":47.383411667,"lon":0.764695833,"altHAE":111.6500,"altMSL":63.3500,"alt":63.3500,"epx":4.500,"epy":4.600,"epv":4.800,"track":145.1000,"magtrack":145.5433,"magvar":0.4,"speed":0.206,"climb":-0.160,"eps":53.50,"epc":10.50,"geoidSep":48.300,"eph":32.300,"sep":47.500}
$GNGSA,A,3,24,16,25,,,,,,,,,,2.5,1.7,1.8,3*3D
{"class":"TPV","mode":3,"time":"2025-03-21T13:58:08.000Z","ept":0.005,"lat":47.383411667,"lon":0.764695833,"altHAE":111.6500,"altMSL":63.3500,"alt":63.3500,"epx":4.500,"epy":4.600,"epv":4.800,"track":145.1000,"magtrack":145.5433,"magvar":0.4,"speed":0.206,"climb":-0.160,"eps":53.50,"epc":10.50,"geoidSep":48.300,"eph":32.300,"sep":47.500}
{"class":"SKY","hdop":1.70,"pdop":2.50,"vdop":1.80,"uSat":14}
$GNGSA,A,3,44,34,25,11,08,19,23,38,,,,,2.5,1.7,1.8,4*36
{"class":"TPV","mode":3,"time":"2025-03-21T13:58:08.000Z","ept":0.005,"lat":47.383411667,"lon":0.764695833,"altHAE":111.6500,"altMSL":63.3500,"alt":63.3500,"epx":4.500,"epy":4.600,"epv":4.800,"track":145.1000,"magtrack":145.5433,"magvar":0.4,"speed":0.206,"climb":-0.160,"eps":53.50,"epc":10.50,"geoidSep":48.300,"eph":32.300,"sep":47.500}
{"class":"SKY","hdop":1.70,"pdop":2.50,"vdop":1.80,"uSat":14}
$GNGSA,A,3,27,08,,,,,,,,,,,2.5,1.7,1.8,1*34
{"class":"TPV","mode":3,"time":"2025-03-21T13:58:08.000Z","ept":0.005,"lat":47.383411667,"lon":0.764695833,"altHAE":111.6500,"altMSL":63.3500,"alt":63.3500,"epx":4.500,"epy":4.600,"epv":4.800,"track":145.1000,"magtrack":145.5433,"magvar":0.4,"speed":0.206,"climb":-0.160,"eps":53.50,"epc":10.50,"geoidSep":48.300,"eph":32.300,"sep":47.500}
{"class":"SKY","hdop":1.70,"pdop":2.50,"vdop":1.80,"uSat":14}
$GNGSA,A,3,24,16,25,,,,,,,,,,2.5,1.7,1.8,3*3D
{"class":"TPV","mode":3,"time":"2025-03-21T13:58:08.000Z","ept":0.005,"lat":47.383411667,"lon":0.764695833,"altHAE":111.6500,"altMSL":63.3500,"alt":63.3500,"epx":4.500,"epy":4.600,"epv":4.800,"track":145.1000,"magtrack":145.5433,"magvar":0.4,"speed":0.206,"climb":-0.160,"eps":53.50,"epc":10.50,"geoidSep":48.300,"eph":32.300,"sep":47.500}
{"class":"SKY","hdop":1.70,"pdop":2.50,"vdop":1.80,"uSat":14}
$GNGSA,A,3,34,25,38,,,,,,,,,,2.5,1.7,1.8,4*37
{"class":"TPV","mode":3,"time":"2025-03-21T13:58:08.000Z","ept":0.005,"lat":47.383411667,"lon":0.764695833,"altHAE":111.6500,"altMSL":63.3500,"alt":63.3500,"epx":4.500,"epy":4.600,"epv":4.800,"track":145.1000,"magtrack":145.5433,"magvar":0.4,"speed":0.206,"climb":-0.160,"eps":53.50,"epc":10.50,"geoidSep":48.300,"eph":32.300,"sep":47.500}
{"class":"SKY","hdop":1.70,"pdop":2.50,"vdop":1.80,"uSat":14}
$GPGSV,3,1,10,16,71,196,25,27,64,299,34,23,44,092,22,26,44,172,25,1*60
$GPGSV,3,2,10,18,35,054,23,10,33,146,,08,27,286,38,07,14,316,42,1*63
$GPGSV,3,3,10,15,05,057,32,02,03,235,,,,,,,,,,1*62
$GAGSV,2,1,05,24,68,279,38,16,43,305,42,10,42,222,,25,20,312,36,7*7F
$GAGSV,2,2,05,11,15,224,,,,,,,,,,,,,,7*46
{"class":"TPV","mode":3,"time":"2025-03-21T13:58:08.000Z","ept":0.005,"lat":47.383411667,"lon":0.764695833,"altHAE":111.6500,"altMSL":63.3500,"alt":63.3500,"epx":88.318,"epy":71.538,"epv":4.800,"track":145.1000,"magtrack":145.5433,"magvar":0.4,"speed":0.206,"climb":-0.160,"eps":137.22,"epc":10.50,"geoidSep":48.300,"eph":32.300,"sep":47.500}
{"class":"SKY","gdop":13.15,"hdop":1.70,"pdop":2.50,"tdop":8.64,"xdop":5.89,"ydop":4.77,"vdop":1.80,"nSat":15,"uSat":6,"satellites":[{"PRN":16,"gnssid":0,"svid":16,"az":196.0,"el":71.0,"ss":25.0,"used":false},{"PRN":27,"gnssid":0,"svid":27,"az":299.0,"el":64.0,"ss":34.0,"used":true},{"PRN":23,"gnssid":0,"svid":23,"az":92.0,"el":44.0,"ss":22.0,"used":false},{"PRN":26,"gnssid":0,"svid":26,"az":172.0,"el":44.0,"ss":25.0,"used":false},{"PRN":18,"gnssid":0,"svid":18,"az":54.0,"el":35.0,"ss":23.0,"used":false},{"PRN":10,"gnssid":0,"svid":10,"az":146.0,"el":33.0,"ss":0.0,"used":false},{"PRN":8,"gnssid":0,"svid":8,"az":286.0,"el":27.0,"ss":38.0,"used":true},{"PRN":7,"gnssid":0,"svid":7,"az":316.0,"el":14.0,"ss":42.0,"used":true},{"PRN":15,"gnssid":0,"svid":15,"az":57.0,"el":5.0,"ss":32.0,"used":false},{"PRN":2,"gnssid":0,"svid":2,"az":235.0,"el":3.0,"ss":0.0,"used":false},{"PRN":324,"gnssid":2,"svid":24,"sigid":4,"az":279.0,"el":68.0,"ss":38.0,"used":true},{"PRN":316,"gnssid":2,"svid":16,"sigid":4,"az":305.0,"el":43.0,"ss":42.0,"used":true},{"PRN":310,"gnssid":2,"svid":10,"sigid":4,"az":222.0,"el":42.0,"ss":0.0,"used":false},{"PRN":325,"gnssid":2,"svid":25,"sigid":4,"az":312.0,"el":20.0,"ss":36.0,"used":true},{"PRN":311,"gnssid":2,"svid":11,"sigid":4,"az":224.0,"el":15.0,"ss":0.0,"used":false}]}
$BDGSV,4,1,13,12,81,342,22,44,61,062,28,34,57,269,41,25,45,271,45,1*7A
$BDGSV,4,2,13,11,33,259,32,24,32,198,,08,25,032,26,22,20,098,29,1*7B
$BDGSV,4,3,13,19,15,044,32,23,15,320,39,35,15,073,28,38,11,027,31,1*73
$BDGSV,4,4,13,43,09,259,35,,,,,,,,,,,,,1*41
{"class":"TPV","mode":3,"time":"2025-03-21T13:58:08.000Z","ept":0.005,"lat":47.383411667,"lon":0.764695833,"altHAE":111.6500,"altMSL":63.3500,"alt":63.3500,"epx":88.318,"epy":71.538,"epv":4.800,"track":145.1000,"magtrack":145.5433,"magvar":0.4,"speed":0.206,"climb":-0.160,"eps":137.22,"epc":10.50,"geoidSep":48.300,"eph":32.300,"sep":47.500}
{"class":"SKY","gdop":13.15,"hdop":1.70,"pdop":2.50,"tdop":8.64,"xdop":5.89,"ydop":4.77,"vdop":1.80,"nSat":28,"uSat":14,"satellites":[{"PRN":16,"gnssid":0,"svid":16,"az":196.0,"el":71.0,"ss":25.0,"used":false},{"PRN":27,"gnssid":0,"svid":27,"az":299.0,"el":64.0,"ss":34.0,"used":true},{"PRN":23,"gnssid":0,"svid":23,"az":92.0,"el":44.0,"ss":22.0,"used":false},{"PRN":26,"gnssid":0,"svid":26,"az":172.0,"el":44.0,"ss":25.0,"used":false},{"PRN":18,"gnssid":0,"svid":18,"az":54.0,"el":35.0,"ss":23.0,"used":false},{"PRN":10,"gnssid":0,"svid":10,"az":146.0,"el":33.0,"ss":0.0,"used":false},{"PRN":8,"gnssid":0,"svid":8,"az":286.0,"el":27.0,"ss":38.0,"used":true},{"PRN":7,"gnssid":0,"svid":7,"az":316.0,"el":14.0,"ss":42.0,"used":true},{"PRN":15,"gnssid":0,"svid":15,"az":57.0,"el":5.0,"ss":32.0,"used":false},{"PRN":2,"gnssid":0,"svid":2,"az":235.0,"el":3.0,"ss":0.0,"used":false},{"PRN":324,"gnssid":2,"svid":24,"sigid":4,"az":279.0,"el":68.0,"ss":38.0,"used":true},{"PRN":316,"gnssid":2,"svid":16,"sigid":4,"az":305.0,"el":43.0,"ss":42.0,"used":true},{"PRN":310,"gnssid":2,"svid":10,"sigid":4,"az":222.0,"el":42.0,"ss":0.0,"used":false},{"PRN":325,"gnssid":2,"svid":25,"sigid":4,"az":312.0,"el":20.0,"ss":36.0,"used":true},{"PRN":311,"gnssid":2,"svid":11,"sigid":4,"az":224.0,"el":15.0,"ss":0.0,"used":false},{"PRN":412,"gnssid":3,"svid":12,"az":342.0,"el":81.0,"ss":22.0,"used":false},{"PRN":444,"gnssid":3,"svid":44,"az":62.0,"el":61.0,"ss":28.0,"used":true},{"PRN":434,"gnssid":3,"svid":34,"az":269.0,"el":57.0,"ss":41.0,"used":true},{"PRN":425,"gnssid":3,"svid":25,"az":271.0,"el":45.0,"ss":45.0,"used":true},{"PRN":411,"gnssid":3,"svid":11,"az":259.0,"el":33.0,"ss":32.0,"used":true},{"PRN":424,"gnssid":3,"svid":24,"az":198.0,"el":32.0,"ss":0.0,"used":false},{"PRN":408,"gnssid":3,"svid":8,"az":32.0,"el":25.0,"ss":26.0,"used":true},{"PRN":422,"gnssid":3,"svid":22,"az":98.0,"el":20.0,"ss":29.0,"used":false},{"PRN":419,"gnssid":3,"svid":19,"az":44.0,"el":15.0,"ss":32.0,"used":true},{"PRN":423,"gnssid":3,"svid":23,"az":320.0,"el":15.0,"ss":39.0,"used":true},{"PRN":435,"gnssid":3,"svid":35,"az":73.0,"el":15.0,"ss":28.0,"used":false},{"PRN":438,"gnssid":3,"svid":38,"az":27.0,"el":11.0,"ss":31.0,"used":true},{"PRN":443,"gnssid":3,"svid":43,"az":259.0,"el":9.0,"ss":35.0,"used":false}]}
$GPGSV,1,1,02,27,64,299,40,08,27,286,35,,,,,,,,,8*69
$GAGSV,1,1,03,24,68,279,37,16,43,305,42,25,20,312,36,,,,,1*46
{"class":"TPV","mode":3,"time":"2025-03-21T13:58:08.000Z","ept":0.005,"lat":47.383411667,"lon":0.764695833,"altHAE":111.6500,"altMSL":63.3500,"alt":63.3500,"epx":88.318,"epy":71.538,"epv":4.800,"track":145.1000,"magtrack":145.5433,"magvar":0.4,"speed":0.206,"climb":-0.160,"eps":137.22,"epc":10.50,"geoidSep":48.300,"eph":32.300,"sep":47.500}
{"class":"SKY","gdop":13.15,"hdop":1.70,"pdop":2.50,"tdop":8.64,"xdop":5.89,"ydop":4.77,"vdop":1.80,"nSat":33,"uSat":19,"satellites":[{"PRN":16,"gnssid":0,"svid":16,"az":196.0,"el":71.0,"ss":25.0,"used":false},{"PRN":27,"gnssid":0,"svid":27,"az":299.0,"el":64.0,"ss":34.0,"used":true},{"PRN":23,"gnssid":0,"svid":23,"az":92.0,"el":44.0,"ss":22.0,"used":false},{"PRN":26,"gnssid":0,"svid":26,"az":172.0,"el":44.0,"ss":25.0,"used":false},{"PRN":18,"gnssid":0,"svid":18,"az":54.0,"el":35.0,"ss":23.0,"used":false},{"PRN":10,"gnssid":0,"svid":10,"az":146.0,"el":33.0,"ss":0.0,"used":false},{"PRN":8,"gnssid":0,"svid":8,"az":286.0,"el":27.0,"ss":38.0,"used":true},{"PRN":7,"gnssid":0,"svid":7,"az":316.0,"el":14.0,"ss":42.0,"used":true},{"PRN":15,"gnssid":0,"svid":15,"az":57.0,"el":5.0,"ss":32.0,"used":false},{"PRN":2,"gnssid":0,"svid":2,"az":235.0,"el":3.0,"ss":0.0,"used":false},{"PRN":324,"gnssid":2,"svid":24,"sigid":4,"az":279.0,"el":68.0,"ss":38.0,"used":true},{"PRN":316,"gnssid":2,"svid":16,"sigid":4,"az":305.0,"el":43.0,"ss":42.0,"used":true},{"PRN":310,"gnssid":2,"svid":10,"sigid":4,"az":222.0,"el":42.0,"ss":0.0,"used":false},{"PRN":325,"gnssid":2,"svid":25,"sigid":4,"az":312.0,"el":20.0,"ss":36.0,"used":true},{"PRN":311,"gnssid":2,"svid":11,"sigid":4,"az":224.0,"el":15.0,"ss":0.0,"used":false},{"PRN":412,"gnssid":3,"svid":12,"az":342.0,"el":81.0,"ss":22.0,"used":false},{"PRN":444,"gnssid":3,"svid":44,"az":62.0,"el":61.0,"ss":28.0,"used":true},{"PRN":434,"gnssid":3,"svid":34,"az":269.0,"el":57.0,"ss":41.0,"used":true},{"PRN":425,"gnssid":3,"svid":25,"az":271.0,"el":45.0,"ss":45.0,"used":true},{"PRN":411,"gnssid":3,"svid":11,"az":259.0,"el":33.0,"ss":32.0,"used":true},{"PRN":424,"gnssid":3,"svid":24,"az":198.0,"el":32.0,"ss":0.0,"used":false},{"PRN":408,"gnssid":3,"svid":8,"az":32.0,"el":25.0,"ss":26.0,"used":true},{"PRN":422,"gnssid":3,"svid":22,"az":98.0,"el":20.0,"ss":29.0,"used":false},{"PRN":419,"gnssid":3,"svid":19,"az":44.0,"el":15.0,"ss":32.0,"used":true},{"PRN":423,"gnssid":3,"svid":23,"az":320.0,"el":15.0,"ss":39.0,"used":true},{"PRN":435,"gnssid":3,"svid":35,"az":73.0,"el":15.0,"ss":28.0,"used":false},{"PRN":438,"gnssid":3,"svid":38,"az":27.0,"el":11.0,"ss":31.0,"used":true},{"PRN":443,"gnssid":3,"svid":43,"az":259.0,"el":9.0,"ss":35.0,"used":false},{"PRN":27,"gnssid":0,"svid":27,"sigid":7,"az":299.0,"el":64.0,"ss":40.0,"used":true},{"PRN":8,"gnssid":0,"svid":8,"sigid":7,"az":286.0,"el":27.0,"ss":35.0,"used":true},{"PRN":324,"gnssid":2,"svid":24,"sigid":3,"az":279.0,"el":68.0,"ss":37.0,"used":true},{"PRN":316,"gnssid":2,"svid":16,"sigid":3,"az":305.0,"el":43.0,"ss":42.0,"used":true},{"PRN":325,"gnssid":2,"svid":25,"sigid":3,"az":312.0,"el":20.0,"ss":36.0,"used":true}]}
$BDGSV,1,1,04,34,57,269,35,25,45,271,40,23,15,320,22,38,11,027,23,5*76
{"class":"TPV","mode":3,"time":"2025-03-21T13:58:08.000Z","ept":0.005,"lat":47.383411667,"lon":0.764695833,"altHAE":111.6500,"altMSL":63.3500,"alt":63.3500,"epx":88.318,"epy":71.538,"epv":4.800,"track":145.1000,"magtrack":145.5433,"magvar":0.4,"speed":0.206,"climb":-0.160,"eps":137.22,"epc":10.50,"geoidSep":48.300,"eph":32.300,"sep":47.500}
{"class":"SKY","gdop":13.15,"hdop":1.70,"pdop":2.50,"tdop":8.64,"xdop":5.89,"ydop":4.77,"vdop":1.80,"nSat":37,"uSat":23,"satellites":[{"PRN":16,"gnssid":0,"svid":16,"az":196.0,"el":71.0,"ss":25.0,"used":false},{"PRN":27,"gnssid":0,"svid":27,"az":299.0,"el":64.0,"ss":34.0,"used":true},{"PRN":23,"gnssid":0,"svid":23,"az":92.0,"el":44.0,"ss":22.0,"used":false},{"PRN":26,"gnssid":0,"svid":26,"az":172.0,"el":44.0,"ss":25.0,"used":false},{"PRN":18,"gnssid":0,"svid":18,"az":54.0,"el":35.0,"ss":23.0,"used":false},{"PRN":10,"gnssid":0,"svid":10,"az":146.0,"el":33.0,"ss":0.0,"used":false},{"PRN":8,"gnssid":0,"svid":8,"az":286.0,"el":27.0,"ss":38.0,"used":true},{"PRN":7,"gnssid":0,"svid":7,"az":316.0,"el":14.0,"ss":42.0,"used":true},{"PRN":15,"gnssid":0,"svid":15,"az":57.0,"el":5.0,"ss":32.0,"used":false},{"PRN":2,"gnssid":0,"svid":2,"az":235.0,"el":3.0,"ss":0.0,"used":false},{"PRN":324,"gnssid":2,"svid":24,"sigid":4,"az":279.0,"el":68.0,"ss":38.0,"used":true},{"PRN":316,"gnssid":2,"svid":16,"sigid":4,"az":305.0,"el":43.0,"ss":42.0,"used":true},{"PRN":310,"gnssid":2,"svid":10,"sigid":4,"az":222.0,"el":42.0,"ss":0.0,"used":false},{"PRN":325,"gnssid":2,"svid":25,"sigid":4,"az":312.0,"el":20.0,"ss":36.0,"used":true},{"PRN":311,"gnssid":2,"svid":11,"sigid":4,"az":224.0,"el":15.0,"ss":0.0,"used":false},{"PRN":412,"gnssid":3,"svid":12,"az":342.0,"el":81.0,"ss":22.0,"used":false},{"PRN":444,"gnssid":3,"svid":44,"az":62.0,"el":61.0,"ss":28.0,"used":true},{"PRN":434,"gnssid":3,"svid":34,"az":269.0,"el":57.0,"ss":41.0,"used":true},{"PRN":425,"gnssid":3,"svid":25,"az":271.0,"el":45.0,"ss":45.0,"used":true},{"PRN":411,"gnssid":3,"svid":11,"az":259.0,"el":33.0,"ss":32.0,"used":true},{"PRN":424,"gnssid":3,"svid":24,"az":198.0,"el":32.0,"ss":0.0,"used":false},{"PRN":408,"gnssid":3,"svid":8,"az":32.0,"el":25.0,"ss":26.0,"used":true},{"PRN":422,"gnssid":3,"svid":22,"az":98.0,"el":20.0,"ss":29.0,"used":false},{"PRN":419,"gnssid":3,"svid":19,"az":44.0,"el":15.0,"ss":32.0,"used":true},{"PRN":423,"gnssid":3,"svid":23,"az":320.0,"el":15.0,"ss":39.0,"used":true},{"PRN":435,"gnssid":3,"svid":35,"az":73.0,"el":15.0,"ss":28.0,"used":false},{"PRN":438,"gnssid":3,"svid":38,"az":27.0,"el":11.0,"ss":31.0,"used":true},{"PRN":443,"gnssid":3,"svid":43,"az":259.0,"el":9.0,"ss":35.0,"used":false},{"PRN":27,"gnssid":0,"svid":27,"sigid":7,"az":299.0,"el":64.0,"ss":40.0,"used":true},{"PRN":8,"gnssid":0,"svid":8,"sigid":7,"az":286.0,"el":27.0,"ss":35.0,"used":true},{"PRN":324,"gnssid":2,"svid":24,"sigid":3,"az":279.0,"el":68.0,"ss":37.0,"used":true},{"PRN":316,"gnssid":2,"svid":16,"sigid":3,"az":305.0,"el":43.0,"ss":42.0,"used":true},{"PRN":325,"gnssid":2,"svid":25,"sigid":3,"az":312.0,"el":20.0,"ss":36.0,"used":true},{"PRN":434,"gnssid":3,"svid":34,"sigid":7,"az":269.0,"el":57.0,"ss":35.0,"used":true},{"PRN":425,"gnssid":3,"svid":25,"sigid":7,"az":271.0,"el":45.0,"ss":40.0,"used":true},{"PRN":423,"gnssid":3,"svid":23,"sigid":7,"az":320.0,"el":15.0,"ss":22.0,"used":true},{"PRN":438,"gnssid":3,"svid":38,"sigid":7,"az":27.0,"el":11.0,"ss":23.0,"used":true}]}
$PSTMANTENNASTATUS,0,0,0,0*51
{"class":"TPV","mode":3,"time":"2025-03-21T13:58:08.000Z","ept":0.005,"lat":47.383411667,"lon":0.764695833,"altHAE":111.6500,"altMSL":63.3500,"alt":63.3500,"epx":88.318,"epy":71.538,"epv":4.800,"track":145.1000,"magtrack":145.5433,"magvar":0.4,"speed":0.206,"climb":-0.160,"eps":137.22,"epc":10.50,"geoidSep":48.300,"eph":32.300,"sep":47.500}
$GNRMC,135809.000,A,4723.00465,N,00045.88194,E,0.5,49.7,210325,,,A,C*29
$GNGGA,135809.000,4723.00465,N,00045.88194,E,1,15,1.4,063.35,M,48.3,M,,*71
{"class":"SKY","hdop":1.40,"uSat":15}
$GNVTG,49.7,T,,M,0.5,N,1.0,K,A*2D
$GNGST,135809.000,6.7,5.0,4.0,146.0,5.0,4.9,5.2*73
{"class":"GST","time":"2025-03-21T13:58:09.000Z","rms":6.700,"major":5.000,"minor":4.000,"orient":146.000,"lat":5.000,"lon":4.900,"alt":5.200}
$GNGBS,135809.000,5.0,4.9,5.2,,,,,,*66
{"class":"TPV","mode":3,"time":"2025-03-21T13:58:09.000Z","ept":0.005,"lat":47.383410833,"lon":0.764699000,"altHAE":111.6500,"altMSL":63.3500,"alt":63.3500,"epx":4.900,"epy":5.000,"epv":5.200,"track":49.7000,"magtrack":50.1433,"magvar":0.4,"speed":0.257,"climb":0.000,"eps":93.32,"epc":10.00,"geoidSep":48.300,"eph":26.600}
{"class":"GST","time":"2025-03-21T13:58:09.000Z","rms":6.700,"major":5.000,"minor":4.000,"orient":146.000,"lat":5.000,"lon":4.900,"alt":5.200}
{"class":"SKY","hdop":1.40,"uSat":15}
$GNGSA,A,3,27,08,07,15,,,,,,,,,2.0,1.4,1.4,1*3D
{"class":"TPV","mode":3,"time":"2025-03-21T13:58:09.000Z","ept":0.005,"lat":47.383410833,"lon":0.764699000,"altHAE":111.6500,"altMSL":63.3500,"alt":63.3500,"epx":4.900,"epy":5.000,"epv":5.200,"track":49.7000,"magtrack":50.1433,"magvar":0.4,"speed":0.257,"climb":0.000,"eps":93.32,"epc":10.00,"geoidSep":48.300,"eph":26.600,"sep":38.000}
$GNGSA,A,3,24,16,25,,,,,,,,,,2.0,1.4,1.4,3*37
{"class":"TPV","mode":3,"time":"2025-03-21T13:58:09.000Z","ept":0.005,"lat":47.383410833,"lon":0.764699000,"altHAE":111.6500,"altMSL":63.3500,"alt":63.3500,"epx":4.900,"epy":5.000,"epv":5.200,"track":49.7000,"magtrack":50.1433,"magvar":0.4,"speed":0.257,"climb":0.000,"eps":93.32,"epc":10.00,"geoidSep":48.300,"eph":26.600,"sep":38.000}
{"class":"SKY","hdop":1.40,"pdop":2.00,"vdop":1.40,"uSat":15}
$GNGSA,A,3,44,34,25,11,08,19,23,38,,,,,2.0,1.4,1.4,4*3C
{"class":"TPV","mode":3,"time":"2025-03-21T13:58:09.000Z","ept":0.005,"lat":47.383410833,"lon":0.764699000,"altHAE":111.6500,"altMSL":63.3500,"alt":63.3500,"epx":4.900,"epy":5.000,"epv":5.200,"track":49.7000,"magtrack":50.1433,"magvar":0.4,"speed":0.257,"climb":0.000,"eps":93.32,"epc":10.00,"geoidSep":48.300,"eph":26.600,"sep":38.000}
{"class":"SKY","hdop":1.40,"pdop":2.00,"vdop":1.40,"uSat":15}
$GNGSA,A,3,27,08,,,,,,,,,,,2.0,1.4,1.4,1*3E
{"class":"TPV","mode":3,"time":"2025-03-21T13:58:09.000Z","ept":0.005,"lat":47.383410833,"lon":0.764699000,"altHAE":111.6500,"altMSL":63.3500,"alt":63.3500,"epx":4.900,"epy":5.000,"epv":5.200,"track":49.7000,"magtrack":50.1433,"magvar":0.4,"speed":0.257,"climb":0.000,"eps":93.32,"epc":10.00,"geoidSep":48.300,"eph":26.600,"sep":38.000}
{"class":"SKY","hdop":1.40,"pdop":2.00,"vdop":1.40,"uSat":15}
$GNGSA,A,3,24,16,25,,,,,,,,,,2.0,1.4,1.4,3*37
{"class":"TPV","mode":3,"time":"2025-03-21T13:58:09.000Z","ept":0.005,"lat":47.383410833,"lon":0.764699000,"altHAE":111.6500,"altMSL":63.3500,"alt":63.3500,"epx":4.900,"epy":5.000,"epv":5.200,"track":49.7000,"magtrack":50.1433,"magvar":0.4,"speed":0.257,"climb":0.000,"eps":93.32,"epc":10.00,"geoidSep":48.300,"eph":26.600,"sep":38.000}
{"class":"SKY","hdop":1.40,"pdop":2.00,"vdop":1.40,"uSat":15}
$GNGSA,A,3,34,25,38,,,,,,,,,,2.0,1.4,1.4,4*3D
{"class":"TPV","mode":3,"time":"2025-03-21T13:58:09.000Z","ept":0.005,"lat":47.383410833,"lon":0.764699000,"altHAE":111.6500,"altMSL":63.3500,"alt":63.3500,"epx":4.900,"epy":5.000,"epv":5.200,"track":49.7000,"magtrack":50.1433,"magvar":0.4,"speed":0.257,"climb":0.000,"eps":93.32,"epc":10.00,"geoidSep":48.300,"eph":26.600,"sep":38.000}
{"class":"SKY","hdop":1.40,"pdop":2.00,"vdop":1.40,"uSat":15}
$GPGSV,3,1,10,16,71,196,25,27,64,299,34,23,44,092,22,26,44,172,25,1*60
$GPGSV,3,2,10,18,35,054,23,10,33,146,,08,27,286,38,07,14,316,42,1*63
$GPGSV,3,3,10,15,05,057,32,02,04,235,,,,,,,,,,1*65
$GAGSV,2,1,05,24,68,279,37,12,68,214,,16,43,305,42,25,20,312,36,7*7F
$GAGSV,2,2,05,11,15,224,,,,,,,,,,,,,,7*46
{"class":"TPV","mode":3,"time":"2025-03-21T13:58:09.000Z","ept":0.005,"lat":47.383410833,"lon":0.764699000,"altHAE":111.6500,"altMSL":63.3500,"alt":63.3500,"epx":12.323,"epy":48.898,"epv":5.200,"track":49.7000,"magtrack":50.1433,"magvar":0.4,"speed":0.257,"climb":0.000,"eps":137.22,"epc":10.00,"geoidSep":48.300,"eph":26.600,"sep":38.000}
{"class":"SKY","gdop":4.85,"hdop":1.40,"pdop":2.00,"tdop":2.42,"xdop":0.82,"ydop":3.26,"vdop":1.40,"nSat":15,"uSat":7,"satellites":[{"PRN":16,"gnssid":0,"svid":16,"az":196.0,"el":71.0,"ss":25.0,"used":false},{"PRN":27,"gnssid":0,"svid":27,"az":299.0,"el":64.0,"ss":34.0,"used":true},{"PRN":23,"gnssid":0,"svid":23,"az":92.0,"el":44.0,"ss":22.0,"used":false},{"PRN":26,"gnssid":0,"svid":26,"az":172.0,"el":44.0,"ss":25.0,"used":false},{"PRN":18,"gnssid":0,"svid":18,"az":54.0,"el":35.0,"ss":23.0,"used":false},{"PRN":10,"gnssid":0,"svid":10,"az":146.0,"el":33.0,"ss":0.0,"used":false},{"PRN":8,"gnssid":0,"svid":8,"az":286.0,"el":27.0,"ss":38.0,"used":true},{"PRN":7,"gnssid":0,"svid":7,"az":316.0,"el":14.0,"ss":42.0,"used":true},{"PRN":15,"gnssid":0,"svid":15,"az":57.0,"el":5.0,"ss":32.0,"used":true},{"PRN":2,"gnssid":0,"svid":2,"az":235.0,"el":4.0,"ss":0.0,"used":false},{"PRN":324,"gnssid":2,"svid":24,"sigid":4,"az":279.0,"el":68.0,"ss":37.0,"used":true},{"PRN":312,"gnssid":2,"svid":12,"sigid":4,"az":214.0,"el":68.0,"ss":0.0,"used":false},{"PRN":316,"gnssid":2,"svid":16,"sigid":4,"az":305.0,"el":43.0,"ss":42.0,"used":true},{"PRN":325,"gnssid":2,"svid":25,"sigid":4,"az":312.0,"el":20.0,"ss":36.0,"used":true},{"PRN":311,"gnssid":2,"svid":11,"sigid":4,"az":224.0,"el":15.0,"ss":0.0,"used":false}]}
$BDGSV,4,1,13,12,81,342,23,44,61,062,28,34,57,269,41,25,45,271,44,1*7A
$BDGSV,4,2,13,11,33,259,32,24,32,198,,08,25,032,26,22,20,098,29,1*7B
$BDGSV,4,3,13,19,15,044,32,23,15,320,39,35,15,073,28,38,11,027,31,1*73
$BDGSV,4,4,13,43,09,259,35,,,,,,,,,,,,,1*41
{"class":"TPV","mode":3,"time":"2025-03-21T13:58:09.000Z","ept":0.005,"lat":47.383410833,"lon":0.764699000,"altHAE":111.6500,"altMSL":63.3500,"alt":63.3500,"epx":12.323,"epy":48.898,"epv":5.200,"track":49.7000,"magtrack":50.1433,"magvar":0.4,"speed":0.257,"climb":0.000,"eps":137.22,"epc":10.00,"geoidSep":48.300,"eph":26.600,"sep":38.000}
{"class":"SKY","gdop":4.85,"hdop":1.40,"pdop":2.00,"tdop":2.42,"xdop":0.82,"ydop":3.26,"vdop":1.40,"nSat":28,"uSat":15,"satellites":[{"PRN":16,"gnssid":0,"svid":16,"az":196.0,"el":71.0,"ss":25.0,"used":false},{"PRN":27,"gnssid":0,"svid":27,"az":299.0,"el":64.0,"ss":34.0,"used":true},{"PRN":23,"gnssid":0,"svid":23,"az":92.0,"el":44.0,"ss":22.0,"used":false},{"PRN":26,"gnssid":0,"svid":26,"az":172.0,"el":44.0,"ss":25.0,"used":false},{"PRN":18,"gnssid":0,"svid":18,"az":54.0,"el":35.0,"ss":23.0,"used":false},{"PRN":10,"gnssid":0,"svid":10,"az":146.0,"el":33.0,"ss":0.0,"used":false},{"PRN":8,"gnssid":0,"svid":8,"az":286.0,"el":27.0,"ss":38.0,"used":true},{"PRN":7,"gnssid":0,"svid":7,"az":316.0,"el":14.0,"ss":42.0,"used":true},{"PRN":15,"gnssid":0,"svid":15,"az":57.0,"el":5.0,"ss":32.0,"used":true},{"PRN":2,"gnssid":0,"svid":2,"az":235.0,"el":4.0,"ss":0.0,"used":false},{"PRN":324,"gnssid":2,"svid":24,"sigid":4,"az":279.0,"el":68.0,"ss":37.0,"used":true},{"PRN":312,"gnssid":2,"svid":12,"sigid":4,"az":214.0,"el":68.0,"ss":0.0,"used":false},{"PRN":316,"gnssid":2,"svid":16,"sigid":4,"az":305.0,"el":43.0,"ss":42.0,"used":true},{"PRN":325,"gnssid":2,"svid":25,"sigid":4,"az":312.0,"el":20.0,"ss":36.0,"used":true},{"PRN":311,"gnssid":2,"svid":11,"sigid":4,"az":224.0,"el":15.0,"ss":0.0,"used":false},{"PRN":412,"gnssid":3,"svid":12,"az":342.0,"el":81.0,"ss":23.0,"used":false},{"PRN":444,"gnssid":3,"svid":44,"az":62.0,"el":61.0,"ss":28.0,"used":true},{"PRN":434,"gnssid":3,"svid":34,"az":269.0,"el":57.0,"ss":41.0,"used":true},{"PRN":425,"gnssid":3,"svid":25,"az":271.0,"el":45.0,"ss":44.0,"used":true},{"PRN":411,"gnssid":3,"svid":11,"az":259.0,"el":33.0,"ss":32.0,"used":true},{"PRN":424,"gnssid":3,"svid":24,"az":198.0,"el":32.0,"ss":0.0,"used":false},{"PRN":408,"gnssid":3,"svid":8,"az":32.0,"el":25.0,"ss":26.0,"used":true},{"PRN":422,"gnssid":3,"svid":22,"az":98.0,"el":20.0,"ss":29.0,"used":false},{"PRN":419,"gnssid":3,"svid":19,"az":44.0,"el":15.0,"ss":32.0,"used":true},{"PRN":423,"gnssid":3,"svid":23,"az":320.0,"el":15.0,"ss":39.0,"used":true},{"PRN":435,"gnssid":3,"svid":35,"az":73.0,"el":15.0,"ss":28.0,"used":false},{"PRN":438,"gnssid":3,"svid":38,"az":27.0,"el":11.0,"ss":31.0,"used":true},{"PRN":443,"gnssid":3,"svid":43,"az":259.0,"el":9.0,"ss":35.0,"used":false}]}
$GPGSV,1,1,02,27,64,299,40,08,27,286,35,,,,,,,,,8*69
$GAGSV,1,1,03,24,68,279,37,16,43,305,42,25,20,312,36,,,,,1*46
{"class":"TPV","mode":3,"time":"2025-03-21T13:58:09.000Z","ept":0.005,"lat":47.383410833,"lon":0.764699000,"altHAE":111.6500,"altMSL":63.3500,"alt":63.3500,"epx":12.323,"epy":48.898,"epv":5.200,"track":49.7000,"magtrack":50.1433,"magvar":0.4,"speed":0.257,"climb":0.000,"eps":137.22,"epc":10.00,"geoidSep":48.300,"eph":26.600,"sep":38.000}
{"class":"SKY","gdop":4.85,"hdop":1.40,"pdop":2.00,"tdop":2.42,"xdop":0.82,"ydop":3.26,"vdop":1.40,"nSat":33,"uSat":20,"satellites":[{"PRN":16,"gnssid":0,"svid":16,"az":196.0,"el":71.0,"ss":25.0,"used":false},{"PRN":27,"gnssid":0,"svid":27,"az":299.0,"el":64.0,"ss":34.0,"used":true},{"PRN":23,"gnssid":0,"svid":23,"az":92.0,"el":44.0,"ss":22.0,"used":false},{"PRN":26,"gnssid":0,"svid":26,"az":172.0,"el":44.0,"ss":25.0,"used":false},{"PRN":18,"gnssid":0,"svid":18,"az":54.0,"el":35.0,"ss":23.0,"used":false},{"PRN":10,"gnssid":0,"svid":10,"az":146.0,"el":33.0,"ss":0.0,"used":false},{"PRN":8,"gnssid":0,"svid":8,"az":286.0,"el":27.0,"ss":38.0,"used":true},{"PRN":7,"gnssid":0,"svid":7,"az":316.0,"el":14.0,"ss":42.0,"used":true},{"PRN":15,"gnssid":0,"svid":15,"az":57.0,"el":5.0,"ss":32.0,"used":true},{"PRN":2,"gnssid":0,"svid":2,"az":235.0,"el":4.0,"ss":0.0,"used":false},{"PRN":324,"gnssid":2,"svid":24,"sigid":4,"az":279.0,"el":68.0,"ss":37.0,"used":true},{"PRN":312,"gnssid":2,"svid":12,"sigid":4,"az":214.0,"el":68.0,"ss":0.0,"used":false},{"PRN":316,"gnssid":2,"svid":16,"sigid":4,"az":305.0,"el":43.0,"ss":42.0,"used":true},{"PRN":325,"gnssid":2,"svid":25,"sigid":4,"az":312.0,"el":20.0,"ss":36.0,"used":true},{"PRN":311,"gnssid":2,"svid":11,"sigid":4,"az":224.0,"el":15.0,"ss":0.0,"used":false},{"PRN":412,"gnssid":3,"svid":12,"az":342.0,"el":81.0,"ss":23.0,"used":false},{"PRN":444,"gnssid":3,"svid":44,"az":62.0,"el":61.0,"ss":28.0,"used":true},{"PRN":434,"gnssid":3,"svid":34,"az":269.0,"el":57.0,"ss":41.0,"used":true},{"PRN":425,"gnssid":3,"svid":25,"az":271.0,"el":45.0,"ss":44.0,"used":true},{"PRN":411,"gnssid":3,"svid":11,"az":259.0,"el":33.0,"ss":32.0,"used":true},{"PRN":424,"gnssid":3,"svid":24,"az":198.0,"el":32.0,"ss":0.0,"used":false},{"PRN":408,"gnssid":3,"svid":8,"az":32.0,"el":25.0,"ss":26.0,"used":true},{"PRN":422,"gnssid":3,"svid":22,"az":98.0,"el":20.0,"ss":29.0,"used":false},{"PRN":419,"gnssid":3,"svid":19,"az":44.0,"el":15.0,"ss":32.0,"used":true},{"PRN":423,"gnssid":3,"svid":23,"az":320.0,"el":15.0,"ss":39.0,"used":true},{"PRN":435,"gnssid":3,"svid":35,"az":73.0,"el":15.0,"ss":28.0,"used":false},{"PRN":438,"gnssid":3,"svid":38,"az":27.0,"el":11.0,"ss":31.0,"used":true},{"PRN":443,"gnssid":3,"svid":43,"az":259.0,"el":9.0,"ss":35.0,"used":false},{"PRN":27,"gnssid":0,"svid":27,"sigid":7,"az":299.0,"el":64.0,"ss":40.0,"used":true},{"PRN":8,"gnssid":0,"svid":8,"sigid":7,"az":286.0,"el":27.0,"ss":35.0,"used":true},{"PRN":324,"gnssid":2,"svid":24,"sigid":3,"az":279.0,"el":68.0,"ss":37.0,"used":true},{"PRN":316,"gnssid":2,"svid":16,"sigid":3,"az":305.0,"el":43.0,"ss":42.0,"used":true},{"PRN":325,"gnssid":2,"svid":25,"sigid":3,"az":312.0,"el":20.0,"ss":36.0,"used":true}]}
$BDGSV,1,1,04,34,57,269,35,25,45,271,40,23,15,320,22,38,11,027,23,5*76
{"class":"TPV","mode":3,"time":"2025-03-21T13:58:09.000Z","ept":0.005,"lat":47.383410833,"lon":0.764699000,"altHAE":111.6500,"altMSL":63.3500,"alt":63.3500,"epx":12.323,"epy":48.898,"epv":5.200,"track":49.7000,"magtrack":50.1433,"magvar":0.4,"speed":0.257,"climb":0.000,"eps":137.22,"epc":10.00,"geoidSep":48.300,"eph":26.600,"sep":38.000}
