$GPGSV,3,1,12,01,76,110,50,11,67,212,50,29,55,030,39,03,41,063,36*7C
$GPGSV,3,2,12,28,22,023,37,09,18,156,00,30,15,073,00,23,14,223,00*72
$GPGSV,3,3,12,22,06,031,00,08,01,208,00,137,28,172,00,134,26,203,00*75
{"class":"SKY","gdop":6.31,"hdop":3.16,"pdop":5.20,"tdop":3.58,"xdop":2.10,"ydop":2.37,"vdop":4.13,"nSat":12,"uSat":5,"satellites":[{"PRN":1,"az":110.0,"el":76.0,"ss":50.0,"used":true},{"PRN":11,"az":212.0,"el":67.0,"ss":50.0,"used":true},{"PRN":29,"az":30.0,"el":55.0,"ss":39.0,"used":true},{"PRN":3,"az":63.0,"el":41.0,"ss":36.0,"used":true},{"PRN":28,"az":23.0,"el":22.0,"ss":37.0,"used":true},{"PRN":9,"az":156.0,"el":18.0,"ss":0.0,"used":false},{"PRN":30,"az":73.0,"el":15.0,"ss":0.0,"used":false},{"PRN":23,"az":223.0,"el":14.0,"ss":0.0,"used":false},{"PRN":22,"az":31.0,"el":6.0,"ss":0.0,"used":false},{"PRN":8,"az":208.0,"el":1.0,"ss":0.0,"used":false},{"PRN":137,"az":172.0,"el":28.0,"ss":0.0,"used":false},{"PRN":134,"az":203.0,"el":26.0,"ss":0.0,"used":false}]}
$GPZDA,055055.00,04,07,2009,00,00*6E
$GPGGA,055055.00,5333.7867279,N,11326.3742959,W,1,05,3.10,650.76,M,-18.954,M,,*53
$GPRMC,055055.00,A,5333.7867279,N,11326.3742959,W,0.0000,0.000,040709,13.9,E*4F
$GPGSA,A,3,29,11,1,3,28,,,,,,,,5.2,3.1,3.3*34
$GPGBS,055055.00,31.470,35.543,75.900,,,,*7F
{"class":"TPV","mode":3,"time":"2009-07-04T05:50:55.000Z","ept":0.005,"lat":53.563112132,"lon":-113.439571599,"altHAE":631.8009,"altMSL":650.7552,"alt":650.7552,"epx":31.470,"epy":35.543,"epv":75.900,"track":0.0000,"magtrack":13.9113,"magvar":13.9,"speed":0.000,"climb":0.000,"geoidSep":-18.954,"eph":58.900,"sep":98.787}
{"class":"SKY","gdop":6.31,"hdop":3.10,"pdop":5.20,"tdop":3.58,"xdop":2.10,"ydop":2.37,"vdop":3.30}
$GPGSV,3,1,12,01,76,110,50,11,67,212,50,29,55,030,39,03,41,063,36*7C
$GPGSV,3,2,12,28,22,023,37,09,18,156,00,30,15,073,00,23,14,223,00*72
$GPGSV,3,3,12,22,06,031,00,08,01,208,00,137,28,172,00,134,26,203,00*75
{"class":"SKY","gdop":6.31,"hdop":3.10,"pdop":5.20,"tdop":3.58,"xdop":2.10,"ydop":2.37,"vdop":3.30,"nSat":12,"uSat":5,"satellites":[{"PRN":1,"az":110.0,"el":76.0,"ss":50.0,"used":true},{"PRN":11,"az":212.0,"el":67.0,"ss":50.0,"used":true},{"PRN":29,"az":30.0,"el":55.0,"ss":39.0,"used":true},{"PRN":3,"az":63.0,"el":41.0,"ss":36.0,"used":true},{"PRN":28,"az":23.0,"el":22.0,"ss":37.0,"used":true},{"PRN":9,"az":156.0,"el":18.0,"ss":0.0,"used":false},{"PRN":30,"az":73.0,"el":15.0,"ss":0.0,"used":false},{"PRN":23,"az":223.0,"el":14.0,"ss":0.0,"used":false},{"PRN":22,"az":31.0,"el":6.0,"ss":0.0,"used":false},{"PRN":8,"az":208.0,"el":1.0,"ss":0.0,"used":false},{"PRN":137,"az":172.0,"el":28.0,"ss":0.0,"used":false},{"PRN":134,"az":203.0,"el":26.0,"ss":0.0,"used":false}]}
$GPZDA,055056.00,04,07,2009,00,00*6D
$GPGGA,055056.00,5333.7867153,N,11326.3743283,W,1,05,3.10,650.82,M,-18.954,M,,*5D
$GPRMC,055056.00,A,5333.7867153,N,11326.3743283,W,0.0000,0.000,040709,13.9,E*4A
$GPGSA,A,3,1,11,29,3,28,,,,,,,,5.2,3.1,3.3*34
$GPGBS,055056.00,31.470,35.543,75.900,,,,*7C
{"class":"TPV","mode":3,"time":"2009-07-04T05:50:56.000Z","ept":0.005,"lat":53.563111922,"lon":-113.439572138,"altHAE":631.8672,"altMSL":650.8214,"alt":650.8214,"epx":31.470,"epy":35.543,"epv":75.900,"track":0.0000,"magtrack":13.9113,"magvar":13.9,"speed":0.000,"climb":0.000,"eps":71.09,"epc":151.80,"geoidSep":-18.954,"eph":58.900,"sep":98.787}
{"class":"SKY","gdop":6.31,"hdop":3.10,"pdop":5.20,"tdop":3.58,"xdop":2.10,"ydop":2.37,"vdop":3.30}
$GPGSV,3,1,12,01,76,110,50,11,67,212,50,29,55,030,39,03,41,063,36*7C
$GPGSV,3,2,12,28,22,023,37,09,18,156,00,30,15,073,00,23,14,223,00*72
$GPGSV,3,3,12,22,06,031,00,08,01,208,00,137,28,172,00,134,26,203,00*75
{"class":"SKY","gdop":6.31,"hdop":3.10,"pdop":5.20,"tdop":3.58,"xdop":2.10,"ydop":2.37,"vdop":3.30,"nSat":12,"uSat":5,"satellites":[{"PRN":1,"az":110.0,"el":76.0,"ss":50.0,"used":true},{"PRN":11,"az":212.0,"el":67.0,"ss":50.0,"used":true},{"PRN":29,"az":30.0,"el":55.0,"ss":39.0,"used":true},{"PRN":3,"az":63.0,"el":41.0,"ss":36.0,"used":true},{"PRN":28,"az":23.0,"el":22.0,"ss":37.0,"used":true},{"PRN":9,"az":156.0,"el":18.0,"ss":0.0,"used":false},{"PRN":30,"az":73.0,"el":15.0,"ss":0.0,"used":false},{"PRN":23,"az":223.0,"el":14.0,"ss":0.0,"used":false},{"PRN":22,"az":31.0,"el":6.0,"ss":0.0,"used":false},{"PRN":8,"az":208.0,"el":1.0,"ss":0.0,"used":false},{"PRN":137,"az":172.0,"el":28.0,"ss":0.0,"used":false},{"PRN":134,"az":203.0,"el":26.0,"ss":0.0,"used":false}]}
$GPZDA,055057.00,04,07,2009,00,00*6C
$GPGGA,055057.00,5333.7866987,N,11326.3743550,W,1,05,3.10,650.90,M,-18.954,M,,*56
$GPRMC,055057.00,A,5333.7866987,N,11326.3743550,W,0.0000,0.000,040709,13.9,E*42
$GPGSA,A,3,1,11,29,3,28,,,,,,,,5.2,3.1,3.3*34
$GPGBS,055057.00,31.470,35.543,75.900,,,,*7D
{"class":"TPV","mode":3,"time":"2009-07-04T05:50:57.000Z","ept":0.005,"lat":53.563111644,"lon":-113.439572583,"altHAE":631.9435,"altMSL":650.8977,"alt":650.8977,"epx":31.470,"epy":35.543,"epv":75.900,"track":0.0000,"magtrack":13.9113,"magvar":13.9,"speed":0.000,"climb":0.000,"eps":71.09,"epc":151.80,"geoidSep":-18.954,"eph":58.900,"sep":98.787}
{"class":"SKY","gdop":6.31,"hdop":3.10,"pdop":5.20,"tdop":3.58,"xdop":2.10,"ydop":2.37,"vdop":3.30}
$GPGSV,3,1,12,01,76,110,50,11,67,212,50,29,55,030,40,03,41,063,36*72
$GPGSV,3,2,12,28,22,023,37,09,18,156,00,30,15,073,00,23,14,223,00*72
$GPGSV,3,3,12,22,06,031,00,08,01,208,00,137,28,172,00,134,26,203,00*75
{"class":"SKY","gdop":6.31,"hdop":3.10,"pdop":5.20,"tdop":3.58,"xdop":2.10,"ydop":2.37,"vdop":3.30,"nSat":12,"uSat":5,"satellites":[{"PRN":1,"az":110.0,"el":76.0,"ss":50.0,"used":true},{"PRN":11,"az":212.0,"el":67.0,"ss":50.0,"used":true},{"PRN":29,"az":30.0,"el":55.0,"ss":40.0,"used":true},{"PRN":3,"az":63.0,"el":41.0,"ss":36.0,"used":true},{"PRN":28,"az":23.0,"el":22.0,"ss":37.0,"used":true},{"PRN":9,"az":156.0,"el":18.0,"ss":0.0,"used":false},{"PRN":30,"az":73.0,"el":15.0,"ss":0.0,"used":false},{"PRN":23,"az":223.0,"el":14.0,"ss":0.0,"used":false},{"PRN":22,"az":31.0,"el":6.0,"ss":0.0,"used":false},{"PRN":8,"az":208.0,"el":1.0,"ss":0.0,"used":false},{"PRN":137,"az":172.0,"el":28.0,"ss":0.0,"used":false},{"PRN":134,"az":203.0,"el":26.0,"ss":0.0,"used":false}]}
$GPZDA,055058.00,04,07,2009,00,00*63
$GPGGA,055058.00,5333.7866660,N,11326.3743856,W,1,05,3.10,650.96,M,-18.954,M,,*52
$GPRMC,055058.00,A,5333.7866660,N,11326.3743856,W,0.0000,0.000,040709,13.9,E*40
$GPGSA,A,3,1,11,29,3,28,,,,,,,,5.2,3.1,3.3*34
$GPGBS,055058.00,31.470,35.543,75.900,,,,*72
{"class":"TPV","mode":3,"time":"2009-07-04T05:50:58.000Z","ept":0.005,"lat":53.563111100,"lon":-113.439573094,"altHAE":632.0020,"altMSL":650.9563,"alt":650.9563,"epx":31.470,"epy":35.543,"epv":75.900,"track":0.0000,"magtrack":13.9113,"magvar":13.9,"speed":0.000,"climb":0.000,"eps":71.09,"epc":151.80,"geoidSep":-18.954,"eph":58.900,"sep":98.787}
{"class":"SKY","gdop":6.31,"hdop":3.10,"pdop":5.20,"tdop":3.58,"xdop":2.10,"ydop":2.37,"vdop":3.30}
$GPGSV,3,1,12,01,76,110,50,11,67,212,50,29,55,030,40,03,41,063,36*72
$GPGSV,3,2,12,28,22,023,36,09,18,156,00,30,15,073,00,23,14,223,00*73
$GPGSV,3,3,12,22,06,031,00,08,01,208,00,137,28,172,00,134,26,203,00*75
{"class":"SKY","gdop":6.31,"hdop":3.10,"pdop":5.20,"tdop":3.58,"xdop":2.10,"ydop":2.37,"vdop":3.30,"nSat":12,"uSat":5,"satellites":[{"PRN":1,"az":110.0,"el":76.0,"ss":50.0,"used":true},{"PRN":11,"az":212.0,"el":67.0,"ss":50.0,"used":true},{"PRN":29,"az":30.0,"el":55.0,"ss":40.0,"used":true},{"PRN":3,"az":63.0,"el":41.0,"ss":36.0,"used":true},{"PRN":28,"az":23.0,"el":22.0,"ss":36.0,"used":true},{"PRN":9,"az":156.0,"el":18.0,"ss":0.0,"used":false},{"PRN":30,"az":73.0,"el":15.0,"ss":0.0,"used":false},{"PRN":23,"az":223.0,"el":14.0,"ss":0.0,"used":false},{"PRN":22,"az":31.0,"el":6.0,"ss":0.0,"used":false},{"PRN":8,"az":208.0,"el":1.0,"ss":0.0,"used":false},{"PRN":137,"az":172.0,"el":28.0,"ss":0.0,"used":false},{"PRN":134,"az":203.0,"el":26.0,"ss":0.0,"used":false}]}
$GPZDA,055059.00,04,07,2009,00,00*62
$GPGGA,055059.00,5333.7866396,N,11326.3744285,W,1,05,3.10,651.05,M,-18.954,M,,*57
$GPRMC,055059.00,A,5333.7866396,N,11326.3744285,W,0.0000,0.000,040709,13.9,E*4E
$GPGSA,A,3,1,11,29,3,28,,,,,,,,5.2,3.1,3.3*34
$GPGBS,055059.00,31.470,35.543,75.900,,,,*73
{"class":"TPV","mode":3,"time":"2009-07-04T05:50:59.000Z","ept":0.005,"lat":53.563110659,"lon":-113.439573808,"altHAE":632.0927,"altMSL":651.0470,"alt":651.0470,"epx":31.470,"epy":35.543,"epv":75.900,"track":0.0000,"magtrack":13.9113,"magvar":13.9,"speed":0.000,"climb":0.000,"eps":71.09,"epc":151.80,"geoidSep":-18.954,"eph":58.900,"sep":98.787}
{"class":"SKY","gdop":6.31,"hdop":3.10,"pdop":5.20,"tdop":3.58,"xdop":2.10,"ydop":2.37,"vdop":3.30}
$GPGSV,3,1,12,01,76,110,50,11,67,212,50,29,55,030,39,03,41,063,36*7C
$GPGSV,3,2,12,28,22,023,37,09,18,156,00,30,15,073,00,23,14,223,00*72
$GPGSV,3,3,12,22,06,031,00,08,01,208,00,137,28,172,00,134,26,203,00*75
{"class":"SKY","gdop":6.31,"hdop":3.10,"pdop":5.20,"tdop":3.58,"xdop":2.10,"ydop":2.37,"vdop":3.30,"nSat":12,"uSat":5,"satellites":[{"PRN":1,"az":110.0,"el":76.0,"ss":50.0,"used":true},{"PRN":11,"az":212.0,"el":67.0,"ss":50.0,"used":true},{"PRN":29,"az":30.0,"el":55.0,"ss":39.0,"used":true},{"PRN":3,"az":63.0,"el":41.0,"ss":36.0,"used":true},{"PRN":28,"az":23.0,"el":22.0,"ss":37.0,"used":true},{"PRN":9,"az":156.0,"el":18.0,"ss":0.0,"used":false},{"PRN":30,"az":73.0,"el":15.0,"ss":0.0,"used":false},{"PRN":23,"az":223.0,"el":14.0,"ss":0.0,"used":false},{"PRN":22,"az":31.0,"el":6.0,"ss":0.0,"used":false},{"PRN":8,"az":208.0,"el":1.0,"ss":0.0,"used":false},{"PRN":137,"az":172.0,"el":28.0,"ss":0.0,"used":false},{"PRN":134,"az":203.0,"el":26.0,"ss":0.0,"used":false}]}
$GPZDA,055100.00,04,07,2009,00,00*6F
$GPGGA,055100.00,5333.7866185,N,11326.3744783,W,1,05,3.10,651.16,M,-18.954,M,,*5B
$GPRMC,055100.00,A,5333.7866185,N,11326.3744783,W,0.0000,0.000,040709,13.9,E*40
$GPGSA,A,3,1,11,29,3,28,,,,,,,,5.2,3.1,3.3*34
$GPGBS,055100.00,31.470,35.543,75.900,,,,*7E
{"class":"TPV","mode":3,"time":"2009-07-04T05:51:00.000Z","ept":0.005,"lat":53.563110309,"lon":-113.439574638,"altHAE":632.2041,"altMSL":651.1584,"alt":651.1584,"epx":31.470,"epy":35.543,"epv":75.900,"track":0.0000,"magtrack":13.9113,"magvar":13.9,"speed":0.000,"climb":0.000,"eps":71.09,"epc":151.80,"geoidSep":-18.954,"eph":58.900,"sep":98.787}
{"class":"SKY","gdop":6.31,"hdop":3.10,"pdop":5.20,"tdop":3.58,"xdop":2.10,"ydop":2.37,"vdop":3.30}
$GPGSV,3,1,12,01,76,110,50,11,67,212,50,29,55,030,40,03,41,063,36*72
$GPGSV,3,2,12,28,22,023,36,09,18,156,00,30,15,073,00,23,14,223,00*73
$GPGSV,3,3,12,22,06,031,00,08,01,208,00,137,28,172,00,134,26,203,00*75
{"class":"SKY","gdop":6.31,"hdop":3.10,"pdop":5.20,"tdop":3.58,"xdop":2.10,"ydop":2.37,"vdop":3.30,"nSat":12,"uSat":5,"satellites":[{"PRN":1,"az":110.0,"el":76.0,"ss":50.0,"used":true},{"PRN":11,"az":212.0,"el":67.0,"ss":50.0,"used":true},{"PRN":29,"az":30.0,"el":55.0,"ss":40.0,"used":true},{"PRN":3,"az":63.0,"el":41.0,"ss":36.0,"used":true},{"PRN":28,"az":23.0,"el":22.0,"ss":36.0,"used":true},{"PRN":9,"az":156.0,"el":18.0,"ss":0.0,"used":false},{"PRN":30,"az":73.0,"el":15.0,"ss":0.0,"used":false},{"PRN":23,"az":223.0,"el":14.0,"ss":0.0,"used":false},{"PRN":22,"az":31.0,"el":6.0,"ss":0.0,"used":false},{"PRN":8,"az":208.0,"el":1.0,"ss":0.0,"used":false},{"PRN":137,"az":172.0,"el":28.0,"ss":0.0,"used":false},{"PRN":134,"az":203.0,"el":26.0,"ss":0.0,"used":false}]}
$GPZDA,055101.00,04,07,2009,00,00*6E
$GPGGA,055101.00,5333.7865902,N,11326.3745162,W,1,05,3.10,651.22,M,-18.954,M,,*51
$GPRMC,055101.00,A,5333.7865902,N,11326.3745162,W,0.0000,0.000,040709,13.9,E*4D
$GPGSA,A,3,1,11,29,3,28,,,,,,,,5.2,3.1,3.3*34
$GPGBS,055101.00,31.470,35.543,75.900,,,,*7F
{"class":"TPV","mode":3,"time":"2009-07-04T05:51:01.000Z","ept":0.005,"lat":53.563109836,"lon":-113.439575270,"altHAE":632.2665,"altMSL":651.2207,"alt":651.2207,"epx":31.470,"epy":35.543,"epv":75.900,"track":0.0000,"magtrack":13.9113,"magvar":13.9,"speed":0.000,"climb":0.000,"eps":71.09,"epc":151.80,"geoidSep":-18.954,"eph":58.900,"sep":98.787}
{"class":"SKY","gdop":6.31,"hdop":3.10,"pdop":5.20,"tdop":3.58,"xdop":2.10,"ydop":2.37,"vdop":3.30}
$GPGSV,3,1,12,01,76,110,50,11,67,212,50,29,55,030,40,03,41,063,36*72
$GPGSV,3,2,12,28,22,023,36,09,18,156,00,30,15,073,00,23,14,223,00*73
$GPGSV,3,3,12,22,06,031,00,08,01,208,00,137,28,172,00,134,26,203,00*75
{"class":"SKY","gdop":6.31,"hdop":3.10,"pdop":5.20,"tdop":3.58,"xdop":2.10,"ydop":2.37,"vdop":3.30,"nSat":12,"uSat":5,"satellites":[{"PRN":1,"az":110.0,"el":76.0,"ss":50.0,"used":true},{"PRN":11,"az":212.0,"el":67.0,"ss":50.0,"used":true},{"PRN":29,"az":30.0,"el":55.0,"ss":40.0,"used":true},{"PRN":3,"az":63.0,"el":41.0,"ss":36.0,"used":true},{"PRN":28,"az":23.0,"el":22.0,"ss":36.0,"used":true},{"PRN":9,"az":156.0,"el":18.0,"ss":0.0,"used":false},{"PRN":30,"az":73.0,"el":15.0,"ss":0.0,"used":false},{"PRN":23,"az":223.0,"el":14.0,"ss":0.0,"used":false},{"PRN":22,"az":31.0,"el":6.0,"ss":0.0,"used":false},{"PRN":8,"az":208.0,"el":1.0,"ss":0.0,"used":false},{"PRN":137,"az":172.0,"el":28.0,"ss":0.0,"used":false},{"PRN":134,"az":203.0,"el":26.0,"ss":0.0,"used":false}]}
