$GPGGA,043539.00,4333.190206,N,00127.618380,E,1,05,1.3,250.8,M,50.0,M,,*62
{"class":"TPV","mode":3,"lat":43.553170100,"lon":1.460306333,"altHAE":300.8000,"altMSL":250.8000,"alt":250.8000,"magvar":0.8,"geoidSep":50.000,"eph":24.700}
{"class":"SKY","hdop":1.30,"uSat":5}
$GAGGA,043539.00,4333.190206,N,00127.618380,E,1,01,1.3,250.8,M,50.0,M,,*77
{"class":"TPV","mode":2,"lat":43.553170100,"lon":1.460306333,"altHAE":300.8000,"altMSL":250.8000,"alt":250.8000,"magvar":0.8,"eph":24.700}
{"class":"SKY","hdop":1.30,"uSat":1}
$GNGNS,043539.00,4333.190206,N,00127.618380,E,AAAAN,14,1.3,250.8,50.0,,,V*62
$GPVTG,,T,1.7,M,0.0,N,0.0,K,A*0B
$GAVTG,,T,1.7,M,0.0,N,0.0,K,A*1A
$GPRMC,043539.00,A,4333.190206,N,00127.618380,E,0.0,,040925,1.7,W,A,V*7C
{"class":"TPV","mode":3,"time":"2025-09-04T04:35:39.000Z","ept":0.005,"lat":43.553170100,"lon":1.460306333,"altHAE":300.8000,"altMSL":250.8000,"alt":250.8000,"magvar":-1.7,"speed":0.000,"geoidSep":50.000,"eph":24.700}
$GARMC,043539.00,A,4333.190206,N,00127.618380,E,0.0,,040925,1.7,W,A,V*6D
{"class":"TPV","mode":3,"time":"2025-09-04T04:35:39.000Z","ept":0.005,"lat":43.553170100,"lon":1.460306333,"altHAE":300.8000,"altMSL":250.8000,"alt":250.8000,"magvar":-1.7,"speed":0.000,"geoidSep":50.000,"eph":24.700}
$GNGSA,A,2,02,08,10,23,27,,,,,,,,1.6,1.3,0.9,1*33
{"class":"TPV","mode":3,"time":"2025-09-04T04:35:39.000Z","ept":0.005,"lat":43.553170100,"lon":1.460306333,"altHAE":300.8000,"altMSL":250.8000,"alt":250.8000,"epv":20.700,"magvar":-1.7,"speed":0.000,"geoidSep":50.000,"eph":24.700,"sep":30.400}
$GNGSA,A,2,65,66,73,81,82,,,,,,,,1.6,1.3,0.9,2*3B
{"class":"TPV","mode":3,"time":"2025-09-04T04:35:39.000Z","ept":0.005,"lat":43.553170100,"lon":1.460306333,"altHAE":300.8000,"altMSL":250.8000,"alt":250.8000,"epv":20.700,"magvar":-1.7,"speed":0.000,"geoidSep":50.000,"eph":24.700,"sep":30.400}
{"class":"SKY","hdop":1.30,"pdop":1.60,"vdop":0.90,"uSat":1}
$GNGSA,A,2,33,,,,,,,,,,,,1.6,1.3,0.9,3*3E
{"class":"TPV","mode":3,"time":"2025-09-04T04:35:39.000Z","ept":0.005,"lat":43.553170100,"lon":1.460306333,"altHAE":300.8000,"altMSL":250.8000,"alt":250.8000,"epv":20.700,"magvar":-1.7,"speed":0.000,"geoidSep":50.000,"eph":24.700,"sep":30.400}
{"class":"SKY","hdop":1.30,"pdop":1.60,"vdop":0.90,"uSat":1}
$GNGSA,A,2,208,211,213,,,,,,,,,,1.6,1.3,0.9,4*01
{"class":"TPV","mode":3,"time":"2025-09-04T04:35:39.000Z","ept":0.005,"lat":43.553170100,"lon":1.460306333,"altHAE":300.8000,"altMSL":250.8000,"alt":250.8000,"epv":20.700,"magvar":-1.7,"speed":0.000,"geoidSep":50.000,"eph":24.700,"sep":30.400}
{"class":"SKY","hdop":1.30,"pdop":1.60,"vdop":0.90,"uSat":1}
$GNGSA,A,2,,,,,,,,,,,,,1.6,1.3,0.9,5*38
{"class":"TPV","mode":3,"time":"2025-09-04T04:35:39.000Z","ept":0.005,"lat":43.553170100,"lon":1.460306333,"altHAE":300.8000,"altMSL":250.8000,"alt":250.8000,"epv":20.700,"magvar":-1.7,"speed":0.000,"geoidSep":50.000,"eph":24.700,"sep":30.400}
{"class":"SKY","hdop":1.30,"pdop":1.60,"vdop":0.90,"uSat":1}
$GLGSV,3,1,10,66,40,075,48,82,56,327,48,73,22,320,34,80,37,257,18,1*75
$GLGSV,3,2,10,79,12,205,20,65,16,026,43,83,16,281,17,81,45,054,46,1*7D
$GLGSV,3,3,10,67,23,143,22,88,00,084,,1*73
{"class":"SKY","gdop":6.85,"hdop":1.30,"pdop":1.60,"tdop":4.11,"xdop":1.05,"ydop":3.77,"vdop":0.90,"nSat":10,"uSat":5,"satellites":[{"PRN":66,"gnssid":6,"svid":2,"az":75.0,"el":40.0,"ss":48.0,"used":true},{"PRN":82,"gnssid":6,"svid":18,"az":327.0,"el":56.0,"ss":48.0,"used":true},{"PRN":73,"gnssid":6,"svid":9,"az":320.0,"el":22.0,"ss":34.0,"used":true},{"PRN":80,"gnssid":6,"svid":16,"az":257.0,"el":37.0,"ss":18.0,"used":false},{"PRN":79,"gnssid":6,"svid":15,"az":205.0,"el":12.0,"ss":20.0,"used":false},{"PRN":65,"gnssid":6,"svid":1,"az":26.0,"el":16.0,"ss":43.0,"used":true},{"PRN":83,"gnssid":6,"svid":19,"az":281.0,"el":16.0,"ss":17.0,"used":false},{"PRN":81,"gnssid":6,"svid":17,"az":54.0,"el":45.0,"ss":46.0,"used":true},{"PRN":67,"gnssid":6,"svid":3,"az":143.0,"el":23.0,"ss":22.0,"used":false},{"PRN":88,"gnssid":6,"svid":24,"az":84.0,"el":0.0,"ss":0.0,"used":false}]}
$BDGSV,2,1,05,08,09,030,39,11,40,081,42,13,17,036,43,21,,,49,4*4D
$BDGSV,2,2,05,14,39,136,,4*4E
{"class":"SKY","gdop":6.85,"hdop":1.30,"pdop":1.60,"tdop":4.11,"xdop":1.05,"ydop":3.77,"vdop":0.90,"nSat":15,"uSat":8,"satellites":[{"PRN":66,"gnssid":6,"svid":2,"az":75.0,"el":40.0,"ss":48.0,"used":true},{"PRN":82,"gnssid":6,"svid":18,"az":327.0,"el":56.0,"ss":48.0,"used":true},{"PRN":73,"gnssid":6,"svid":9,"az":320.0,"el":22.0,"ss":34.0,"used":true},{"PRN":80,"gnssid":6,"svid":16,"az":257.0,"el":37.0,"ss":18.0,"used":false},{"PRN":79,"gnssid":6,"svid":15,"az":205.0,"el":12.0,"ss":20.0,"used":false},{"PRN":65,"gnssid":6,"svid":1,"az":26.0,"el":16.0,"ss":43.0,"used":true},{"PRN":83,"gnssid":6,"svid":19,"az":281.0,"el":16.0,"ss":17.0,"used":false},{"PRN":81,"gnssid":6,"svid":17,"az":54.0,"el":45.0,"ss":46.0,"used":true},{"PRN":67,"gnssid":6,"svid":3,"az":143.0,"el":23.0,"ss":22.0,"used":false},{"PRN":88,"gnssid":6,"svid":24,"az":84.0,"el":0.0,"ss":0.0,"used":false},{"PRN":408,"gnssid":3,"svid":8,"az":30.0,"el":9.0,"ss":39.0,"used":true},{"PRN":411,"gnssid":3,"svid":11,"az":81.0,"el":40.0,"ss":42.0,"used":true},{"PRN":413,"gnssid":3,"svid":13,"az":36.0,"el":17.0,"ss":43.0,"used":true},{"PRN":421,"gnssid":3,"svid":21,"az":0.0,"el":0.0,"ss":49.0,"used":false},{"PRN":414,"gnssid":3,"svid":14,"az":136.0,"el":39.0,"ss":0.0,"used":false}]}
$GAGSV,4,1,13,33,53,047,47,07,08,039,,10,36,258,,11,10,251,,7*7B
$GAGSV,4,2,13,12,60,272,,16,33,306,,19,04,133,,23,01,161,,7*7C
$GAGSV,4,3,13,24,51,278,,25,13,320,,26,06,063,,29,14,090,,7*7D
$GAGSV,4,4,13,31,41,192,,7*4C
{"class":"SKY","gdop":6.85,"hdop":1.30,"pdop":1.60,"tdop":4.11,"xdop":1.05,"ydop":3.77,"vdop":0.90,"nSat":28,"uSat":9,"satellites":[{"PRN":66,"gnssid":6,"svid":2,"az":75.0,"el":40.0,"ss":48.0,"used":true},{"PRN":82,"gnssid":6,"svid":18,"az":327.0,"el":56.0,"ss":48.0,"used":true},{"PRN":73,"gnssid":6,"svid":9,"az":320.0,"el":22.0,"ss":34.0,"used":true},{"PRN":80,"gnssid":6,"svid":16,"az":257.0,"el":37.0,"ss":18.0,"used":false},{"PRN":79,"gnssid":6,"svid":15,"az":205.0,"el":12.0,"ss":20.0,"used":false},{"PRN":65,"gnssid":6,"svid":1,"az":26.0,"el":16.0,"ss":43.0,"used":true},{"PRN":83,"gnssid":6,"svid":19,"az":281.0,"el":16.0,"ss":17.0,"used":false},{"PRN":81,"gnssid":6,"svid":17,"az":54.0,"el":45.0,"ss":46.0,"used":true},{"PRN":67,"gnssid":6,"svid":3,"az":143.0,"el":23.0,"ss":22.0,"used":false},{"PRN":88,"gnssid":6,"svid":24,"az":84.0,"el":0.0,"ss":0.0,"used":false},{"PRN":408,"gnssid":3,"svid":8,"az":30.0,"el":9.0,"ss":39.0,"used":true},{"PRN":411,"gnssid":3,"svid":11,"az":81.0,"el":40.0,"ss":42.0,"used":true},{"PRN":413,"gnssid":3,"svid":13,"az":36.0,"el":17.0,"ss":43.0,"used":true},{"PRN":421,"gnssid":3,"svid":21,"az":0.0,"el":0.0,"ss":49.0,"used":false},{"PRN":414,"gnssid":3,"svid":14,"az":136.0,"el":39.0,"ss":0.0,"used":false},{"PRN":333,"gnssid":2,"svid":33,"sigid":4,"az":47.0,"el":53.0,"ss":47.0,"used":true},{"PRN":307,"gnssid":2,"svid":7,"sigid":4,"az":39.0,"el":8.0,"ss":0.0,"used":false},{"PRN":310,"gnssid":2,"svid":10,"sigid":4,"az":258.0,"el":36.0,"ss":0.0,"used":false},{"PRN":311,"gnssid":2,"svid":11,"sigid":4,"az":251.0,"el":10.0,"ss":0.0,"used":false},{"PRN":312,"gnssid":2,"svid":12,"sigid":4,"az":272.0,"el":60.0,"ss":0.0,"used":false},{"PRN":316,"gnssid":2,"svid":16,"sigid":4,"az":306.0,"el":33.0,"ss":0.0,"used":false},{"PRN":319,"gnssid":2,"svid":19,"sigid":4,"az":133.0,"el":4.0,"ss":0.0,"used":false},{"PRN":323,"gnssid":2,"svid":23,"sigid":4,"az":161.0,"el":1.0,"ss":0.0,"used":false},{"PRN":324,"gnssid":2,"svid":24,"sigid":4,"az":278.0,"el":51.0,"ss":0.0,"used":false},{"PRN":325,"gnssid":2,"svid":25,"sigid":4,"az":320.0,"el":13.0,"ss":0.0,"used":false},{"PRN":326,"gnssid":2,"svid":26,"sigid":4,"az":63.0,"el":6.0,"ss":0.0,"used":false},{"PRN":329,"gnssid":2,"svid":29,"sigid":4,"az":90.0,"el":14.0,"ss":0.0,"used":false},{"PRN":331,"gnssid":2,"svid":31,"sigid":4,"az":192.0,"el":41.0,"ss":0.0,"used":false}]}
$GPGSV,3,1,10,02,51,278,26,07,00,274,18,08,77,310,32,10,52,060,50,1*69
$GPGSV,3,2,10,14,,,30,23,13,040,43,27,62,118,24,32,17,111,20,1*59
$GPGSV,3,3,10,16,24,180,,30,00,300,,1*6D
$GPGGA,043540.00,4333.190199,N,00127.618384,E,1,05,1.3,250.8,M,50.0,M,,*6D
{"class":"SKY","gdop":6.85,"hdop":1.30,"pdop":1.60,"tdop":4.11,"xdop":1.05,"ydop":3.77,"vdop":0.90,"uSat":5}
$GAGGA,043540.00,4333.190199,N,00127.618384,E,1,01,1.3,250.8,M,50.0,M,,*78
{"class":"SKY","gdop":6.85,"hdop":1.30,"pdop":1.60,"tdop":4.11,"xdop":1.05,"ydop":3.77,"vdop":0.90,"uSat":1}
$GNGNS,043540.00,4333.190199,N,00127.618384,E,AAAAN,14,1.3,250.8,50.0,,,V*6D
$GPVTG,,T,1.7,M,0.0,N,0.0,K,A*0B
$GAVTG,,T,1.7,M,0.0,N,0.0,K,A*1A
$GPRMC,043540.00,A,4333.190199,N,00127.618384,E,0.0,,040925,1.7,W,A,V*73
{"class":"TPV","mode":3,"time":"2025-09-04T04:35:40.000Z","ept":0.005,"lat":43.553169983,"lon":1.460306400,"altHAE":300.8000,"altMSL":250.8000,"alt":250.8000,"epx":15.788,"epy":56.561,"epv":20.700,"magvar":-1.7,"speed":0.000,"climb":0.000,"eps":113.12,"epc":41.40,"geoidSep":50.000,"eph":24.700,"sep":30.400}
{"class":"SKY","gdop":6.85,"hdop":1.30,"pdop":1.60,"tdop":4.11,"xdop":1.05,"ydop":3.77,"vdop":0.90,"uSat":1}
$GARMC,043540.00,A,4333.190199,N,00127.618384,E,0.0,,040925,1.7,W,A,V*62
{"class":"TPV","mode":3,"time":"2025-09-04T04:35:40.000Z","ept":0.005,"lat":43.553169983,"lon":1.460306400,"altHAE":300.8000,"altMSL":250.8000,"alt":250.8000,"epx":15.788,"epy":56.561,"epv":20.700,"magvar":-1.7,"speed":0.000,"climb":0.000,"eps":113.12,"epc":41.40,"geoidSep":50.000,"eph":24.700,"sep":30.400}
$GNGSA,A,2,02,08,10,23,27,,,,,,,,1.6,1.3,0.9,1*33
{"class":"TPV","mode":3,"time":"2025-09-04T04:35:40.000Z","ept":0.005,"lat":43.553169983,"lon":1.460306400,"altHAE":300.8000,"altMSL":250.8000,"alt":250.8000,"epx":15.788,"epy":56.561,"epv":20.700,"magvar":-1.7,"speed":0.000,"climb":0.000,"eps":113.12,"epc":41.40,"geoidSep":50.000,"eph":24.700,"sep":30.400}
$GNGSA,A,2,65,66,73,81,82,,,,,,,,1.6,1.3,0.9,2*3B
{"class":"TPV","mode":3,"time":"2025-09-04T04:35:40.000Z","ept":0.005,"lat":43.553169983,"lon":1.460306400,"altHAE":300.8000,"altMSL":250.8000,"alt":250.8000,"epx":15.788,"epy":56.561,"epv":20.700,"magvar":-1.7,"speed":0.000,"climb":0.000,"eps":113.12,"epc":41.40,"geoidSep":50.000,"eph":24.700,"sep":30.400}
{"class":"SKY","gdop":6.85,"hdop":1.30,"pdop":1.60,"tdop":4.11,"xdop":1.05,"ydop":3.77,"vdop":0.90,"uSat":1}
$GNGSA,A,2,33,,,,,,,,,,,,1.6,1.3,0.9,3*3E
{"class":"TPV","mode":3,"time":"2025-09-04T04:35:40.000Z","ept":0.005,"lat":43.553169983,"lon":1.460306400,"altHAE":300.8000,"altMSL":250.8000,"alt":250.8000,"epx":15.788,"epy":56.561,"epv":20.700,"magvar":-1.7,"speed":0.000,"climb":0.000,"eps":113.12,"epc":41.40,"geoidSep":50.000,"eph":24.700,"sep":30.400}
{"class":"SKY","gdop":6.85,"hdop":1.30,"pdop":1.60,"tdop":4.11,"xdop":1.05,"ydop":3.77,"vdop":0.90,"uSat":1}
$GNGSA,A,2,208,211,213,,,,,,,,,,1.6,1.3,0.9,4*01
{"class":"TPV","mode":3,"time":"2025-09-04T04:35:40.000Z","ept":0.005,"lat":43.553169983,"lon":1.460306400,"altHAE":300.8000,"altMSL":250.8000,"alt":250.8000,"epx":15.788,"epy":56.561,"epv":20.700,"magvar":-1.7,"speed":0.000,"climb":0.000,"eps":113.12,"epc":41.40,"geoidSep":50.000,"eph":24.700,"sep":30.400}
{"class":"SKY","gdop":6.85,"hdop":1.30,"pdop":1.60,"tdop":4.11,"xdop":1.05,"ydop":3.77,"vdop":0.90,"uSat":1}
$GNGSA,A,2,,,,,,,,,,,,,1.6,1.3,0.9,5*38
{"class":"TPV","mode":3,"time":"2025-09-04T04:35:40.000Z","ept":0.005,"lat":43.553169983,"lon":1.460306400,"altHAE":300.8000,"altMSL":250.8000,"alt":250.8000,"epx":15.788,"epy":56.561,"epv":20.700,"magvar":-1.7,"speed":0.000,"climb":0.000,"eps":113.12,"epc":41.40,"geoidSep":50.000,"eph":24.700,"sep":30.400}
{"class":"SKY","gdop":6.85,"hdop":1.30,"pdop":1.60,"tdop":4.11,"xdop":1.05,"ydop":3.77,"vdop":0.90,"uSat":1}
$GLGSV,3,1,10,66,40,075,48,82,56,327,48,73,22,320,34,80,37,257,18,1*75
$GLGSV,3,2,10,79,12,205,20,65,16,026,43,83,16,281,17,81,45,054,46,1*7D
$GLGSV,3,3,10,67,23,143,21,88,00,084,,1*70
{"class":"TPV","mode":3,"time":"2025-09-04T04:35:40.000Z","ept":0.005,"lat":43.553169983,"lon":1.460306400,"altHAE":300.8000,"altMSL":250.8000,"alt":250.8000,"epx":15.788,"epy":56.561,"epv":20.700,"magvar":-1.7,"speed":0.000,"climb":0.000,"eps":113.12,"epc":41.40,"geoidSep":50.000,"eph":24.700,"sep":30.400}
{"class":"SKY","gdop":6.85,"hdop":1.30,"pdop":1.60,"tdop":4.11,"xdop":1.05,"ydop":3.77,"vdop":0.90,"nSat":10,"uSat":5,"satellites":[{"PRN":66,"gnssid":6,"svid":2,"az":75.0,"el":40.0,"ss":48.0,"used":true},{"PRN":82,"gnssid":6,"svid":18,"az":327.0,"el":56.0,"ss":48.0,"used":true},{"PRN":73,"gnssid":6,"svid":9,"az":320.0,"el":22.0,"ss":34.0,"used":true},{"PRN":80,"gnssid":6,"svid":16,"az":257.0,"el":37.0,"ss":18.0,"used":false},{"PRN":79,"gnssid":6,"svid":15,"az":205.0,"el":12.0,"ss":20.0,"used":false},{"PRN":65,"gnssid":6,"svid":1,"az":26.0,"el":16.0,"ss":43.0,"used":true},{"PRN":83,"gnssid":6,"svid":19,"az":281.0,"el":16.0,"ss":17.0,"used":false},{"PRN":81,"gnssid":6,"svid":17,"az":54.0,"el":45.0,"ss":46.0,"used":true},{"PRN":67,"gnssid":6,"svid":3,"az":143.0,"el":23.0,"ss":21.0,"used":false},{"PRN":88,"gnssid":6,"svid":24,"az":84.0,"el":0.0,"ss":0.0,"used":false}]}
$BDGSV,1,1,04,08,09,030,39,11,40,081,42,13,17,036,43,21,,,49,4*4F
{"class":"TPV","mode":3,"time":"2025-09-04T04:35:40.000Z","ept":0.005,"lat":43.553169983,"lon":1.460306400,"altHAE":300.8000,"altMSL":250.8000,"alt":250.8000,"epx":15.788,"epy":56.561,"epv":20.700,"magvar":-1.7,"speed":0.000,"climb":0.000,"eps":113.12,"epc":41.40,"geoidSep":50.000,"eph":24.700,"sep":30.400}
{"class":"SKY","gdop":6.85,"hdop":1.30,"pdop":1.60,"tdop":4.11,"xdop":1.05,"ydop":3.77,"vdop":0.90,"nSat":14,"uSat":8,"satellites":[{"PRN":66,"gnssid":6,"svid":2,"az":75.0,"el":40.0,"ss":48.0,"used":true},{"PRN":82,"gnssid":6,"svid":18,"az":327.0,"el":56.0,"ss":48.0,"used":true},{"PRN":73,"gnssid":6,"svid":9,"az":320.0,"el":22.0,"ss":34.0,"used":true},{"PRN":80,"gnssid":6,"svid":16,"az":257.0,"el":37.0,"ss":18.0,"used":false},{"PRN":79,"gnssid":6,"svid":15,"az":205.0,"el":12.0,"ss":20.0,"used":false},{"PRN":65,"gnssid":6,"svid":1,"az":26.0,"el":16.0,"ss":43.0,"used":true},{"PRN":83,"gnssid":6,"svid":19,"az":281.0,"el":16.0,"ss":17.0,"used":false},{"PRN":81,"gnssid":6,"svid":17,"az":54.0,"el":45.0,"ss":46.0,"used":true},{"PRN":67,"gnssid":6,"svid":3,"az":143.0,"el":23.0,"ss":21.0,"used":false},{"PRN":88,"gnssid":6,"svid":24,"az":84.0,"el":0.0,"ss":0.0,"used":false},{"PRN":408,"gnssid":3,"svid":8,"az":30.0,"el":9.0,"ss":39.0,"used":true},{"PRN":411,"gnssid":3,"svid":11,"az":81.0,"el":40.0,"ss":42.0,"used":true},{"PRN":413,"gnssid":3,"svid":13,"az":36.0,"el":17.0,"ss":43.0,"used":true},{"PRN":421,"gnssid":3,"svid":21,"az":0.0,"el":0.0,"ss":49.0,"used":false}]}
$GAGSV,4,1,13,33,53,047,47,07,08,039,,10,36,258,,11,10,251,,7*7B
$GAGSV,4,2,13,12,60,272,,16,33,306,,19,04,133,,23,01,161,,7*7C
$GAGSV,4,3,13,24,51,278,,25,13,320,,26,06,063,,29,14,090,,7*7D
$GAGSV,4,4,13,31,41,192,,7*4C
{"class":"TPV","mode":3,"time":"2025-09-04T04:35:40.000Z","ept":0.005,"lat":43.553169983,"lon":1.460306400,"altHAE":300.8000,"altMSL":250.8000,"alt":250.8000,"epx":15.788,"epy":56.561,"epv":20.700,"magvar":-1.7,"speed":0.000,"climb":0.000,"eps":113.12,"epc":41.40,"geoidSep":50.000,"eph":24.700,"sep":30.400}
{"class":"SKY","gdop":6.85,"hdop":1.30,"pdop":1.60,"tdop":4.11,"xdop":1.05,"ydop":3.77,"vdop":0.90,"nSat":27,"uSat":9,"satellites":[{"PRN":66,"gnssid":6,"svid":2,"az":75.0,"el":40.0,"ss":48.0,"used":true},{"PRN":82,"gnssid":6,"svid":18,"az":327.0,"el":56.0,"ss":48.0,"used":true},{"PRN":73,"gnssid":6,"svid":9,"az":320.0,"el":22.0,"ss":34.0,"used":true},{"PRN":80,"gnssid":6,"svid":16,"az":257.0,"el":37.0,"ss":18.0,"used":false},{"PRN":79,"gnssid":6,"svid":15,"az":205.0,"el":12.0,"ss":20.0,"used":false},{"PRN":65,"gnssid":6,"svid":1,"az":26.0,"el":16.0,"ss":43.0,"used":true},{"PRN":83,"gnssid":6,"svid":19,"az":281.0,"el":16.0,"ss":17.0,"used":false},{"PRN":81,"gnssid":6,"svid":17,"az":54.0,"el":45.0,"ss":46.0,"used":true},{"PRN":67,"gnssid":6,"svid":3,"az":143.0,"el":23.0,"ss":21.0,"used":false},{"PRN":88,"gnssid":6,"svid":24,"az":84.0,"el":0.0,"ss":0.0,"used":false},{"PRN":408,"gnssid":3,"svid":8,"az":30.0,"el":9.0,"ss":39.0,"used":true},{"PRN":411,"gnssid":3,"svid":11,"az":81.0,"el":40.0,"ss":42.0,"used":true},{"PRN":413,"gnssid":3,"svid":13,"az":36.0,"el":17.0,"ss":43.0,"used":true},{"PRN":421,"gnssid":3,"svid":21,"az":0.0,"el":0.0,"ss":49.0,"used":false},{"PRN":333,"gnssid":2,"svid":33,"sigid":4,"az":47.0,"el":53.0,"ss":47.0,"used":true},{"PRN":307,"gnssid":2,"svid":7,"sigid":4,"az":39.0,"el":8.0,"ss":0.0,"used":false},{"PRN":310,"gnssid":2,"svid":10,"sigid":4,"az":258.0,"el":36.0,"ss":0.0,"used":false},{"PRN":311,"gnssid":2,"svid":11,"sigid":4,"az":251.0,"el":10.0,"ss":0.0,"used":false},{"PRN":312,"gnssid":2,"svid":12,"sigid":4,"az":272.0,"el":60.0,"ss":0.0,"used":false},{"PRN":316,"gnssid":2,"svid":16,"sigid":4,"az":306.0,"el":33.0,"ss":0.0,"used":false},{"PRN":319,"gnssid":2,"svid":19,"sigid":4,"az":133.0,"el":4.0,"ss":0.0,"used":false},{"PRN":323,"gnssid":2,"svid":23,"sigid":4,"az":161.0,"el":1.0,"ss":0.0,"used":false},{"PRN":324,"gnssid":2,"svid":24,"sigid":4,"az":278.0,"el":51.0,"ss":0.0,"used":false},{"PRN":325,"gnssid":2,"svid":25,"sigid":4,"az":320.0,"el":13.0,"ss":0.0,"used":false},{"PRN":326,"gnssid":2,"svid":26,"sigid":4,"az":63.0,"el":6.0,"ss":0.0,"used":false},{"PRN":329,"gnssid":2,"svid":29,"sigid":4,"az":90.0,"el":14.0,"ss":0.0,"used":false},{"PRN":331,"gnssid":2,"svid":31,"sigid":4,"az":192.0,"el":41.0,"ss":0.0,"used":false}]}
$GPGSV,3,1,10,02,51,278,26,07,00,274,19,08,77,310,33,10,52,060,50,1*69
$GPGSV,3,2,10,14,,,30,23,13,040,43,27,62,118,24,32,17,111,19,1*53
$GPGSV,3,3,10,16,24,180,,30,00,300,,1*6D
{"class":"TPV","mode":3,"time":"2025-09-04T04:35:40.000Z","ept":0.005,"lat":43.553169983,"lon":1.460306400,"altHAE":300.8000,"altMSL":250.8000,"alt":250.8000,"epx":15.788,"epy":56.561,"epv":20.700,"magvar":-1.7,"speed":0.000,"climb":0.000,"eps":113.12,"epc":41.40,"geoidSep":50.000,"eph":24.700,"sep":30.400}
{"class":"SKY","gdop":6.85,"hdop":1.30,"pdop":1.60,"tdop":4.11,"xdop":1.05,"ydop":3.77,"vdop":0.90,"nSat":37,"uSat":14,"satellites":[{"PRN":66,"gnssid":6,"svid":2,"az":75.0,"el":40.0,"ss":48.0,"used":true},{"PRN":82,"gnssid":6,"svid":18,"az":327.0,"el":56.0,"ss":48.0,"used":true},{"PRN":73,"gnssid":6,"svid":9,"az":320.0,"el":22.0,"ss":34.0,"used":true},{"PRN":80,"gnssid":6,"svid":16,"az":257.0,"el":37.0,"ss":18.0,"used":false},{"PRN":79,"gnssid":6,"svid":15,"az":205.0,"el":12.0,"ss":20.0,"used":false},{"PRN":65,"gnssid":6,"svid":1,"az":26.0,"el":16.0,"ss":43.0,"used":true},{"PRN":83,"gnssid":6,"svid":19,"az":281.0,"el":16.0,"ss":17.0,"used":false},{"PRN":81,"gnssid":6,"svid":17,"az":54.0,"el":45.0,"ss":46.0,"used":true},{"PRN":67,"gnssid":6,"svid":3,"az":143.0,"el":23.0,"ss":21.0,"used":false},{"PRN":88,"gnssid":6,"svid":24,"az":84.0,"el":0.0,"ss":0.0,"used":false},{"PRN":408,"gnssid":3,"svid":8,"az":30.0,"el":9.0,"ss":39.0,"used":true},{"PRN":411,"gnssid":3,"svid":11,"az":81.0,"el":40.0,"ss":42.0,"used":true},{"PRN":413,"gnssid":3,"svid":13,"az":36.0,"el":17.0,"ss":43.0,"used":true},{"PRN":421,"gnssid":3,"svid":21,"az":0.0,"el":0.0,"ss":49.0,"used":false},{"PRN":333,"gnssid":2,"svid":33,"sigid":4,"az":47.0,"el":53.0,"ss":47.0,"used":true},{"PRN":307,"gnssid":2,"svid":7,"sigid":4,"az":39.0,"el":8.0,"ss":0.0,"used":false},{"PRN":310,"gnssid":2,"svid":10,"sigid":4,"az":258.0,"el":36.0,"ss":0.0,"used":false},{"PRN":311,"gnssid":2,"svid":11,"sigid":4,"az":251.0,"el":10.0,"ss":0.0,"used":false},{"PRN":312,"gnssid":2,"svid":12,"sigid":4,"az":272.0,"el":60.0,"ss":0.0,"used":false},{"PRN":316,"gnssid":2,"svid":16,"sigid":4,"az":306.0,"el":33.0,"ss":0.0,"used":false},{"PRN":319,"gnssid":2,"svid":19,"sigid":4,"az":133.0,"el":4.0,"ss":0.0,"used":false},{"PRN":323,"gnssid":2,"svid":23,"sigid":4,"az":161.0,"el":1.0,"ss":0.0,"used":false},{"PRN":324,"gnssid":2,"svid":24,"sigid":4,"az":278.0,"el":51.0,"ss":0.0,"used":false},{"PRN":325,"gnssid":2,"svid":25,"sigid":4,"az":320.0,"el":13.0,"ss":0.0,"used":false},{"PRN":326,"gnssid":2,"svid":26,"sigid":4,"az":63.0,"el":6.0,"ss":0.0,"used":false},{"PRN":329,"gnssid":2,"svid":29,"sigid":4,"az":90.0,"el":14.0,"ss":0.0,"used":false},{"PRN":331,"gnssid":2,"svid":31,"sigid":4,"az":192.0,"el":41.0,"ss":0.0,"used":false},{"PRN":2,"gnssid":0,"svid":2,"az":278.0,"el":51.0,"ss":26.0,"used":true},{"PRN":7,"gnssid":0,"svid":7,"az":274.0,"el":0.0,"ss":19.0,"used":false},{"PRN":8,"gnssid":0,"svid":8,"az":310.0,"el":77.0,"ss":33.0,"used":true},{"PRN":10,"gnssid":0,"svid":10,"az":60.0,"el":52.0,"ss":50.0,"used":true},{"PRN":14,"gnssid":0,"svid":14,"az":0.0,"el":0.0,"ss":30.0,"used":false},{"PRN":23,"gnssid":0,"svid":23,"az":40.0,"el":13.0,"ss":43.0,"used":true},{"PRN":27,"gnssid":0,"svid":27,"az":118.0,"el":62.0,"ss":24.0,"used":true},{"PRN":32,"gnssid":0,"svid":32,"az":111.0,"el":17.0,"ss":19.0,"used":false},{"PRN":16,"gnssid":0,"svid":16,"az":180.0,"el":24.0,"ss":0.0,"used":false},{"PRN":30,"gnssid":0,"svid":30,"az":300.0,"el":0.0,"ss":0.0,"used":false}]}
$GPGGA,043541.00,4333.190190,N,00127.618388,E,1,05,1.3,250.8,M,50.0,M,,*69
{"class":"SKY","gdop":6.85,"hdop":1.30,"pdop":1.60,"tdop":4.11,"xdop":1.05,"ydop":3.77,"vdop":0.90,"uSat":5}
$GAGGA,043541.00,4333.190190,N,00127.618388,E,1,01,1.3,250.8,M,50.0,M,,*7C
{"class":"SKY","gdop":6.85,"hdop":1.30,"pdop":1.60,"tdop":4.11,"xdop":1.05,"ydop":3.77,"vdop":0.90,"uSat":1}
$GNGNS,043541.00,4333.190190,N,00127.618388,E,AAAAN,14,1.3,250.8,50.0,,,V*69
$GPVTG,,T,1.7,M,0.0,N,0.0,K,A*0B
$GAVTG,,T,1.7,M,0.0,N,0.0,K,A*1A
$GPRMC,043541.00,A,4333.190190,N,00127.618388,E,0.0,,040925,1.7,W,A,V*77
{"class":"TPV","mode":3,"time":"2025-09-04T04:35:41.000Z","ept":0.005,"lat":43.553169833,"lon":1.460306467,"altHAE":300.8000,"altMSL":250.8000,"alt":250.8000,"epx":15.788,"epy":56.561,"epv":20.700,"magvar":-1.7,"speed":0.000,"climb":0.000,"eps":113.12,"epc":41.40,"geoidSep":50.000,"eph":24.700,"sep":30.400}
{"class":"SKY","gdop":6.85,"hdop":1.30,"pdop":1.60,"tdop":4.11,"xdop":1.05,"ydop":3.77,"vdop":0.90,"uSat":1}
$GARMC,043541.00,A,4333.190190,N,00127.618388,E,0.0,,040925,1.7,W,A,V*66
{"class":"TPV","mode":3,"time":"2025-09-04T04:35:41.000Z","ept":0.005,"lat":43.553169833,"lon":1.460306467,"altHAE":300.8000,"altMSL":250.8000,"alt":250.8000,"epx":15.788,"epy":56.561,"epv":20.700,"magvar":-1.7,"speed":0.000,"climb":0.000,"eps":113.12,"epc":41.40,"geoidSep":50.000,"eph":24.700,"sep":30.400}
$GNGSA,A,2,02,08,10,23,27,,,,,,,,1.6,1.3,0.9,1*33
{"class":"TPV","mode":3,"time":"2025-09-04T04:35:41.000Z","ept":0.005,"lat":43.553169833,"lon":1.460306467,"altHAE":300.8000,"altMSL":250.8000,"alt":250.8000,"epx":15.788,"epy":56.561,"epv":20.700,"magvar":-1.7,"speed":0.000,"climb":0.000,"eps":113.12,"epc":41.40,"geoidSep":50.000,"eph":24.700,"sep":30.400}
$GNGSA,A,2,65,66,73,81,82,,,,,,,,1.6,1.3,0.9,2*3B
{"class":"TPV","mode":3,"time":"2025-09-04T04:35:41.000Z","ept":0.005,"lat":43.553169833,"lon":1.460306467,"altHAE":300.8000,"altMSL":250.8000,"alt":250.8000,"epx":15.788,"epy":56.561,"epv":20.700,"magvar":-1.7,"speed":0.000,"climb":0.000,"eps":113.12,"epc":41.40,"geoidSep":50.000,"eph":24.700,"sep":30.400}
{"class":"SKY","gdop":6.85,"hdop":1.30,"pdop":1.60,"tdop":4.11,"xdop":1.05,"ydop":3.77,"vdop":0.90,"uSat":1}
$GNGSA,A,2,33,,,,,,,,,,,,1.6,1.3,0.9,3*3E
{"class":"TPV","mode":3,"time":"2025-09-04T04:35:41.000Z","ept":0.005,"lat":43.553169833,"lon":1.460306467,"altHAE":300.8000,"altMSL":250.8000,"alt":250.8000,"epx":15.788,"epy":56.561,"epv":20.700,"magvar":-1.7,"speed":0.000,"climb":0.000,"eps":113.12,"epc":41.40,"geoidSep":50.000,"eph":24.700,"sep":30.400}
{"class":"SKY","gdop":6.85,"hdop":1.30,"pdop":1.60,"tdop":4.11,"xdop":1.05,"ydop":3.77,"vdop":0.90,"uSat":1}
$GNGSA,A,2,208,211,213,,,,,,,,,,1.6,1.3,0.9,4*01
{"class":"TPV","mode":3,"time":"2025-09-04T04:35:41.000Z","ept":0.005,"lat":43.553169833,"lon":1.460306467,"altHAE":300.8000,"altMSL":250.8000,"alt":250.8000,"epx":15.788,"epy":56.561,"epv":20.700,"magvar":-1.7,"speed":0.000,"climb":0.000,"eps":113.12,"epc":41.40,"geoidSep":50.000,"eph":24.700,"sep":30.400}
{"class":"SKY","gdop":6.85,"hdop":1.30,"pdop":1.60,"tdop":4.11,"xdop":1.05,"ydop":3.77,"vdop":0.90,"uSat":1}
$GNGSA,A,2,,,,,,,,,,,,,1.6,1.3,0.9,5*38
{"class":"TPV","mode":3,"time":"2025-09-04T04:35:41.000Z","ept":0.005,"lat":43.553169833,"lon":1.460306467,"altHAE":300.8000,"altMSL":250.8000,"alt":250.8000,"epx":15.788,"epy":56.561,"epv":20.700,"magvar":-1.7,"speed":0.000,"climb":0.000,"eps":113.12,"epc":41.40,"geoidSep":50.000,"eph":24.700,"sep":30.400}
{"class":"SKY","gdop":6.85,"hdop":1.30,"pdop":1.60,"tdop":4.11,"xdop":1.05,"ydop":3.77,"vdop":0.90,"uSat":1}
$GLGSV,3,1,10,66,40,075,48,82,56,327,48,73,22,320,33,80,37,257,17,1*7D
$GLGSV,3,2,10,79,12,205,19,65,16,026,43,83,16,281,17,81,45,054,46,1*77
$GLGSV,3,3,10,67,23,143,21,88,00,084,,1*70
{"class":"TPV","mode":3,"time":"2025-09-04T04:35:41.000Z","ept":0.005,"lat":43.553169833,"lon":1.460306467,"altHAE":300.8000,"altMSL":250.8000,"alt":250.8000,"epx":15.788,"epy":56.561,"epv":20.700,"magvar":-1.7,"speed":0.000,"climb":0.000,"eps":113.12,"epc":41.40,"geoidSep":50.000,"eph":24.700,"sep":30.400}
{"class":"SKY","gdop":6.85,"hdop":1.30,"pdop":1.60,"tdop":4.11,"xdop":1.05,"ydop":3.77,"vdop":0.90,"nSat":10,"uSat":5,"satellites":[{"PRN":66,"gnssid":6,"svid":2,"az":75.0,"el":40.0,"ss":48.0,"used":true},{"PRN":82,"gnssid":6,"svid":18,"az":327.0,"el":56.0,"ss":48.0,"used":true},{"PRN":73,"gnssid":6,"svid":9,"az":320.0,"el":22.0,"ss":33.0,"used":true},{"PRN":80,"gnssid":6,"svid":16,"az":257.0,"el":37.0,"ss":17.0,"used":false},{"PRN":79,"gnssid":6,"svid":15,"az":205.0,"el":12.0,"ss":19.0,"used":false},{"PRN":65,"gnssid":6,"svid":1,"az":26.0,"el":16.0,"ss":43.0,"used":true},{"PRN":83,"gnssid":6,"svid":19,"az":281.0,"el":16.0,"ss":17.0,"used":false},{"PRN":81,"gnssid":6,"svid":17,"az":54.0,"el":45.0,"ss":46.0,"used":true},{"PRN":67,"gnssid":6,"svid":3,"az":143.0,"el":23.0,"ss":21.0,"used":false},{"PRN":88,"gnssid":6,"svid":24,"az":84.0,"el":0.0,"ss":0.0,"used":false}]}
$BDGSV,2,1,05,08,09,030,40,11,40,081,42,13,17,036,44,21,,,49,4*44
$BDGSV,2,2,05,05,15,112,,4*46
{"class":"TPV","mode":3,"time":"2025-09-04T04:35:41.000Z","ept":0.005,"lat":43.553169833,"lon":1.460306467,"altHAE":300.8000,"altMSL":250.8000,"alt":250.8000,"epx":15.788,"epy":56.561,"epv":20.700,"magvar":-1.7,"speed":0.000,"climb":0.000,"eps":113.12,"epc":41.40,"geoidSep":50.000,"eph":24.700,"sep":30.400}
{"class":"SKY","gdop":6.85,"hdop":1.30,"pdop":1.60,"tdop":4.11,"xdop":1.05,"ydop":3.77,"vdop":0.90,"nSat":15,"uSat":8,"satellites":[{"PRN":66,"gnssid":6,"svid":2,"az":75.0,"el":40.0,"ss":48.0,"used":true},{"PRN":82,"gnssid":6,"svid":18,"az":327.0,"el":56.0,"ss":48.0,"used":true},{"PRN":73,"gnssid":6,"svid":9,"az":320.0,"el":22.0,"ss":33.0,"used":true},{"PRN":80,"gnssid":6,"svid":16,"az":257.0,"el":37.0,"ss":17.0,"used":false},{"PRN":79,"gnssid":6,"svid":15,"az":205.0,"el":12.0,"ss":19.0,"used":false},{"PRN":65,"gnssid":6,"svid":1,"az":26.0,"el":16.0,"ss":43.0,"used":true},{"PRN":83,"gnssid":6,"svid":19,"az":281.0,"el":16.0,"ss":17.0,"used":false},{"PRN":81,"gnssid":6,"svid":17,"az":54.0,"el":45.0,"ss":46.0,"used":true},{"PRN":67,"gnssid":6,"svid":3,"az":143.0,"el":23.0,"ss":21.0,"used":false},{"PRN":88,"gnssid":6,"svid":24,"az":84.0,"el":0.0,"ss":0.0,"used":false},{"PRN":408,"gnssid":3,"svid":8,"az":30.0,"el":9.0,"ss":40.0,"used":true},{"PRN":411,"gnssid":3,"svid":11,"az":81.0,"el":40.0,"ss":42.0,"used":true},{"PRN":413,"gnssid":3,"svid":13,"az":36.0,"el":17.0,"ss":44.0,"used":true},{"PRN":421,"gnssid":3,"svid":21,"az":0.0,"el":0.0,"ss":49.0,"used":false},{"PRN":405,"gnssid":3,"svid":5,"az":112.0,"el":15.0,"ss":0.0,"used":false}]}
$GAGSV,4,1,13,33,53,047,47,07,08,039,,10,36,258,,11,10,251,,7*7B
$GAGSV,4,2,13,12,60,272,,16,33,306,,19,04,133,,23,01,161,,7*7C
$GAGSV,4,3,13,24,51,278,,25,13,320,,26,06,063,,29,14,090,,7*7D
$GAGSV,4,4,13,31,41,192,,7*4C
{"class":"TPV","mode":3,"time":"2025-09-04T04:35:41.000Z","ept":0.005,"lat":43.553169833,"lon":1.460306467,"altHAE":300.8000,"altMSL":250.8000,"alt":250.8000,"epx":15.788,"epy":56.561,"epv":20.700,"magvar":-1.7,"speed":0.000,"climb":0.000,"eps":113.12,"epc":41.40,"geoidSep":50.000,"eph":24.700,"sep":30.400}
{"class":"SKY","gdop":6.85,"hdop":1.30,"pdop":1.60,"tdop":4.11,"xdop":1.05,"ydop":3.77,"vdop":0.90,"nSat":28,"uSat":9,"satellites":[{"PRN":66,"gnssid":6,"svid":2,"az":75.0,"el":40.0,"ss":48.0,"used":true},{"PRN":82,"gnssid":6,"svid":18,"az":327.0,"el":56.0,"ss":48.0,"used":true},{"PRN":73,"gnssid":6,"svid":9,"az":320.0,"el":22.0,"ss":33.0,"used":true},{"PRN":80,"gnssid":6,"svid":16,"az":257.0,"el":37.0,"ss":17.0,"used":false},{"PRN":79,"gnssid":6,"svid":15,"az":205.0,"el":12.0,"ss":19.0,"used":false},{"PRN":65,"gnssid":6,"svid":1,"az":26.0,"el":16.0,"ss":43.0,"used":true},{"PRN":83,"gnssid":6,"svid":19,"az":281.0,"el":16.0,"ss":17.0,"used":false},{"PRN":81,"gnssid":6,"svid":17,"az":54.0,"el":45.0,"ss":46.0,"used":true},{"PRN":67,"gnssid":6,"svid":3,"az":143.0,"el":23.0,"ss":21.0,"used":false},{"PRN":88,"gnssid":6,"svid":24,"az":84.0,"el":0.0,"ss":0.0,"used":false},{"PRN":408,"gnssid":3,"svid":8,"az":30.0,"el":9.0,"ss":40.0,"used":true},{"PRN":411,"gnssid":3,"svid":11,"az":81.0,"el":40.0,"ss":42.0,"used":true},{"PRN":413,"gnssid":3,"svid":13,"az":36.0,"el":17.0,"ss":44.0,"used":true},{"PRN":421,"gnssid":3,"svid":21,"az":0.0,"el":0.0,"ss":49.0,"used":false},{"PRN":405,"gnssid":3,"svid":5,"az":112.0,"el":15.0,"ss":0.0,"used":false},{"PRN":333,"gnssid":2,"svid":33,"sigid":4,"az":47.0,"el":53.0,"ss":47.0,"used":true},{"PRN":307,"gnssid":2,"svid":7,"sigid":4,"az":39.0,"el":8.0,"ss":0.0,"used":false},{"PRN":310,"gnssid":2,"svid":10,"sigid":4,"az":258.0,"el":36.0,"ss":0.0,"used":false},{"PRN":311,"gnssid":2,"svid":11,"sigid":4,"az":251.0,"el":10.0,"ss":0.0,"used":false},{"PRN":312,"gnssid":2,"svid":12,"sigid":4,"az":272.0,"el":60.0,"ss":0.0,"used":false},{"PRN":316,"gnssid":2,"svid":16,"sigid":4,"az":306.0,"el":33.0,"ss":0.0,"used":false},{"PRN":319,"gnssid":2,"svid":19,"sigid":4,"az":133.0,"el":4.0,"ss":0.0,"used":false},{"PRN":323,"gnssid":2,"svid":23,"sigid":4,"az":161.0,"el":1.0,"ss":0.0,"used":false},{"PRN":324,"gnssid":2,"svid":24,"sigid":4,"az":278.0,"el":51.0,"ss":0.0,"used":false},{"PRN":325,"gnssid":2,"svid":25,"sigid":4,"az":320.0,"el":13.0,"ss":0.0,"used":false},{"PRN":326,"gnssid":2,"svid":26,"sigid":4,"az":63.0,"el":6.0,"ss":0.0,"used":false},{"PRN":329,"gnssid":2,"svid":29,"sigid":4,"az":90.0,"el":14.0,"ss":0.0,"used":false},{"PRN":331,"gnssid":2,"svid":31,"sigid":4,"az":192.0,"el":41.0,"ss":0.0,"used":false}]}
$GPGSV,3,1,10,02,51,278,25,07,00,274,19,08,77,310,32,10,52,060,50,1*6B
$GPGSV,3,2,10,14,,,29,23,13,040,43,27,62,118,25,32,17,111,19,1*5A
$GPGSV,3,3,10,16,24,180,,30,00,300,,1*6D
{"class":"TPV","mode":3,"time":"2025-09-04T04:35:41.000Z","ept":0.005,"lat":43.553169833,"lon":1.460306467,"altHAE":300.8000,"altMSL":250.8000,"alt":250.8000,"epx":15.788,"epy":56.561,"epv":20.700,"magvar":-1.7,"speed":0.000,"climb":0.000,"eps":113.12,"epc":41.40,"geoidSep":50.000,"eph":24.700,"sep":30.400}
{"class":"SKY","gdop":6.85,"hdop":1.30,"pdop":1.60,"tdop":4.11,"xdop":1.05,"ydop":3.77,"vdop":0.90,"nSat":38,"uSat":14,"satellites":[{"PRN":66,"gnssid":6,"svid":2,"az":75.0,"el":40.0,"ss":48.0,"used":true},{"PRN":82,"gnssid":6,"svid":18,"az":327.0,"el":56.0,"ss":48.0,"used":true},{"PRN":73,"gnssid":6,"svid":9,"az":320.0,"el":22.0,"ss":33.0,"used":true},{"PRN":80,"gnssid":6,"svid":16,"az":257.0,"el":37.0,"ss":17.0,"used":false},{"PRN":79,"gnssid":6,"svid":15,"az":205.0,"el":12.0,"ss":19.0,"used":false},{"PRN":65,"gnssid":6,"svid":1,"az":26.0,"el":16.0,"ss":43.0,"used":true},{"PRN":83,"gnssid":6,"svid":19,"az":281.0,"el":16.0,"ss":17.0,"used":false},{"PRN":81,"gnssid":6,"svid":17,"az":54.0,"el":45.0,"ss":46.0,"used":true},{"PRN":67,"gnssid":6,"svid":3,"az":143.0,"el":23.0,"ss":21.0,"used":false},{"PRN":88,"gnssid":6,"svid":24,"az":84.0,"el":0.0,"ss":0.0,"used":false},{"PRN":408,"gnssid":3,"svid":8,"az":30.0,"el":9.0,"ss":40.0,"used":true},{"PRN":411,"gnssid":3,"svid":11,"az":81.0,"el":40.0,"ss":42.0,"used":true},{"PRN":413,"gnssid":3,"svid":13,"az":36.0,"el":17.0,"ss":44.0,"used":true},{"PRN":421,"gnssid":3,"svid":21,"az":0.0,"el":0.0,"ss":49.0,"used":false},{"PRN":405,"gnssid":3,"svid":5,"az":112.0,"el":15.0,"ss":0.0,"used":false},{"PRN":333,"gnssid":2,"svid":33,"sigid":4,"az":47.0,"el":53.0,"ss":47.0,"used":true},{"PRN":307,"gnssid":2,"svid":7,"sigid":4,"az":39.0,"el":8.0,"ss":0.0,"used":false},{"PRN":310,"gnssid":2,"svid":10,"sigid":4,"az":258.0,"el":36.0,"ss":0.0,"used":false},{"PRN":311,"gnssid":2,"svid":11,"sigid":4,"az":251.0,"el":10.0,"ss":0.0,"used":false},{"PRN":312,"gnssid":2,"svid":12,"sigid":4,"az":272.0,"el":60.0,"ss":0.0,"used":false},{"PRN":316,"gnssid":2,"svid":16,"sigid":4,"az":306.0,"el":33.0,"ss":0.0,"used":false},{"PRN":319,"gnssid":2,"svid":19,"sigid":4,"az":133.0,"el":4.0,"ss":0.0,"used":false},{"PRN":323,"gnssid":2,"svid":23,"sigid":4,"az":161.0,"el":1.0,"ss":0.0,"used":false},{"PRN":324,"gnssid":2,"svid":24,"sigid":4,"az":278.0,"el":51.0,"ss":0.0,"used":false},{"PRN":325,"gnssid":2,"svid":25,"sigid":4,"az":320.0,"el":13.0,"ss":0.0,"used":false},{"PRN":326,"gnssid":2,"svid":26,"sigid":4,"az":63.0,"el":6.0,"ss":0.0,"used":false},{"PRN":329,"gnssid":2,"svid":29,"sigid":4,"az":90.0,"el":14.0,"ss":0.0,"used":false},{"PRN":331,"gnssid":2,"svid":31,"sigid":4,"az":192.0,"el":41.0,"ss":0.0,"used":false},{"PRN":2,"gnssid":0,"svid":2,"az":278.0,"el":51.0,"ss":25.0,"used":true},{"PRN":7,"gnssid":0,"svid":7,"az":274.0,"el":0.0,"ss":19.0,"used":false},{"PRN":8,"gnssid":0,"svid":8,"az":310.0,"el":77.0,"ss":32.0,"used":true},{"PRN":10,"gnssid":0,"svid":10,"az":60.0,"el":52.0,"ss":50.0,"used":true},{"PRN":14,"gnssid":0,"svid":14,"az":0.0,"el":0.0,"ss":29.0,"used":false},{"PRN":23,"gnssid":0,"svid":23,"az":40.0,"el":13.0,"ss":43.0,"used":true},{"PRN":27,"gnssid":0,"svid":27,"az":118.0,"el":62.0,"ss":25.0,"used":true},{"PRN":32,"gnssid":0,"svid":32,"az":111.0,"el":17.0,"ss":19.0,"used":false},{"PRN":16,"gnssid":0,"svid":16,"az":180.0,"el":24.0,"ss":0.0,"used":false},{"PRN":30,"gnssid":0,"svid":30,"az":300.0,"el":0.0,"ss":0.0,"used":false}]}
$GPGGA,043542.00,4333.190182,N,00127.618391,E,1,05,1.3,250.8,M,50.0,M,,*61
{"class":"SKY","gdop":6.85,"hdop":1.30,"pdop":1.60,"tdop":4.11,"xdop":1.05,"ydop":3.77,"vdop":0.90,"uSat":5}
$GAGGA,043542.00,4333.190182,N,00127.618391,E,1,01,1.3,250.8,M,50.0,M,,*74
{"class":"SKY","gdop":6.85,"hdop":1.30,"pdop":1.60,"tdop":4.11,"xdop":1.05,"ydop":3.77,"vdop":0.90,"uSat":1}
$GNGNS,043542.00,4333.190182,N,00127.618391,E,AAAAN,14,1.3,250.8,50.0,,,V*61
$GPVTG,,T,1.7,M,0.0,N,0.0,K,A*0B
$GAVTG,,T,1.7,M,0.0,N,0.0,K,A*1A
$GPRMC,043542.00,A,4333.190182,N,00127.618391,E,0.0,,040925,1.7,W,A,V*7F
{"class":"TPV","mode":3,"time":"2025-09-04T04:35:42.000Z","ept":0.005,"lat":43.553169700,"lon":1.460306517,"altHAE":300.8000,"altMSL":250.8000,"alt":250.8000,"epx":15.788,"epy":56.561,"epv":20.700,"magvar":-1.7,"speed":0.000,"climb":0.000,"eps":113.12,"epc":41.40,"geoidSep":50.000,"eph":24.700,"sep":30.400}
{"class":"SKY","gdop":6.85,"hdop":1.30,"pdop":1.60,"tdop":4.11,"xdop":1.05,"ydop":3.77,"vdop":0.90,"uSat":1}
$GARMC,043542.00,A,4333.190182,N,00127.618391,E,0.0,,040925,1.7,W,A,V*6E
{"class":"TPV","mode":3,"time":"2025-09-04T04:35:42.000Z","ept":0.005,"lat":43.553169700,"lon":1.460306517,"altHAE":300.8000,"altMSL":250.8000,"alt":250.8000,"epx":15.788,"epy":56.561,"epv":20.700,"magvar":-1.7,"speed":0.000,"climb":0.000,"eps":113.12,"epc":41.40,"geoidSep":50.000,"eph":24.700,"sep":30.400}
$GNGSA,A,2,02,08,10,23,27,,,,,,,,1.6,1.3,0.9,1*33
{"class":"TPV","mode":3,"time":"2025-09-04T04:35:42.000Z","ept":0.005,"lat":43.553169700,"lon":1.460306517,"altHAE":300.8000,"altMSL":250.8000,"alt":250.8000,"epx":15.788,"epy":56.561,"epv":20.700,"magvar":-1.7,"speed":0.000,"climb":0.000,"eps":113.12,"epc":41.40,"geoidSep":50.000,"eph":24.700,"sep":30.400}
$GNGSA,A,2,65,66,73,81,82,,,,,,,,1.6,1.3,0.9,2*3B
{"class":"TPV","mode":3,"time":"2025-09-04T04:35:42.000Z","ept":0.005,"lat":43.553169700,"lon":1.460306517,"altHAE":300.8000,"altMSL":250.8000,"alt":250.8000,"epx":15.788,"epy":56.561,"epv":20.700,"magvar":-1.7,"speed":0.000,"climb":0.000,"eps":113.12,"epc":41.40,"geoidSep":50.000,"eph":24.700,"sep":30.400}
{"class":"SKY","gdop":6.85,"hdop":1.30,"pdop":1.60,"tdop":4.11,"xdop":1.05,"ydop":3.77,"vdop":0.90,"uSat":1}
$GNGSA,A,2,33,,,,,,,,,,,,1.6,1.3,0.9,3*3E
{"class":"TPV","mode":3,"time":"2025-09-04T04:35:42.000Z","ept":0.005,"lat":43.553169700,"lon":1.460306517,"altHAE":300.8000,"altMSL":250.8000,"alt":250.8000,"epx":15.788,"epy":56.561,"epv":20.700,"magvar":-1.7,"speed":0.000,"climb":0.000,"eps":113.12,"epc":41.40,"geoidSep":50.000,"eph":24.700,"sep":30.400}
{"class":"SKY","gdop":6.85,"hdop":1.30,"pdop":1.60,"tdop":4.11,"xdop":1.05,"ydop":3.77,"vdop":0.90,"uSat":1}
$GNGSA,A,2,208,211,213,,,,,,,,,,1.6,1.3,0.9,4*01
{"class":"TPV","mode":3,"time":"2025-09-04T04:35:42.000Z","ept":0.005,"lat":43.553169700,"lon":1.460306517,"altHAE":300.8000,"altMSL":250.8000,"alt":250.8000,"epx":15.788,"epy":56.561,"epv":20.700,"magvar":-1.7,"speed":0.000,"climb":0.000,"eps":113.12,"epc":41.40,"geoidSep":50.000,"eph":24.700,"sep":30.400}
{"class":"SKY","gdop":6.85,"hdop":1.30,"pdop":1.60,"tdop":4.11,"xdop":1.05,"ydop":3.77,"vdop":0.90,"uSat":1}
$GNGSA,A,2,,,,,,,,,,,,,1.6,1.3,0.9,5*38
{"class":"TPV","mode":3,"time":"2025-09-04T04:35:42.000Z","ept":0.005,"lat":43.553169700,"lon":1.460306517,"altHAE":300.8000,"altMSL":250.8000,"alt":250.8000,"epx":15.788,"epy":56.561,"epv":20.700,"magvar":-1.7,"speed":0.000,"climb":0.000,"eps":113.12,"epc":41.40,"geoidSep":50.000,"eph":24.700,"sep":30.400}
{"class":"SKY","gdop":6.85,"hdop":1.30,"pdop":1.60,"tdop":4.11,"xdop":1.05,"ydop":3.77,"vdop":0.90,"uSat":1}
$GLGSV,3,1,10,66,40,075,48,82,56,327,48,73,22,320,34,80,37,257,25,1*7B
$GLGSV,3,2,10,79,12,205,19,65,16,026,43,83,16,281,18,81,45,054,46,1*78
$GLGSV,3,3,10,67,23,143,21,88,00,084,,1*70
{"class":"TPV","mode":3,"time":"2025-09-04T04:35:42.000Z","ept":0.005,"lat":43.553169700,"lon":1.460306517,"altHAE":300.8000,"altMSL":250.8000,"alt":250.8000,"epx":15.788,"epy":56.561,"epv":20.700,"magvar":-1.7,"speed":0.000,"climb":0.000,"eps":113.12,"epc":41.40,"geoidSep":50.000,"eph":24.700,"sep":30.400}
{"class":"SKY","gdop":6.85,"hdop":1.30,"pdop":1.60,"tdop":4.11,"xdop":1.05,"ydop":3.77,"vdop":0.90,"nSat":10,"uSat":5,"satellites":[{"PRN":66,"gnssid":6,"svid":2,"az":75.0,"el":40.0,"ss":48.0,"used":true},{"PRN":82,"gnssid":6,"svid":18,"az":327.0,"el":56.0,"ss":48.0,"used":true},{"PRN":73,"gnssid":6,"svid":9,"az":320.0,"el":22.0,"ss":34.0,"used":true},{"PRN":80,"gnssid":6,"svid":16,"az":257.0,"el":37.0,"ss":25.0,"used":false},{"PRN":79,"gnssid":6,"svid":15,"az":205.0,"el":12.0,"ss":19.0,"used":false},{"PRN":65,"gnssid":6,"svid":1,"az":26.0,"el":16.0,"ss":43.0,"used":true},{"PRN":83,"gnssid":6,"svid":19,"az":281.0,"el":16.0,"ss":18.0,"used":false},{"PRN":81,"gnssid":6,"svid":17,"az":54.0,"el":45.0,"ss":46.0,"used":true},{"PRN":67,"gnssid":6,"svid":3,"az":143.0,"el":23.0,"ss":21.0,"used":false},{"PRN":88,"gnssid":6,"svid":24,"az":84.0,"el":0.0,"ss":0.0,"used":false}]}
$BDGSV,1,1,04,08,09,030,40,11,40,081,42,13,17,036,43,21,,,49,4*41
{"class":"TPV","mode":3,"time":"2025-09-04T04:35:42.000Z","ept":0.005,"lat":43.553169700,"lon":1.460306517,"altHAE":300.8000,"altMSL":250.8000,"alt":250.8000,"epx":15.788,"epy":56.561,"epv":20.700,"magvar":-1.7,"speed":0.000,"climb":0.000,"eps":113.12,"epc":41.40,"geoidSep":50.000,"eph":24.700,"sep":30.400}
{"class":"SKY","gdop":6.85,"hdop":1.30,"pdop":1.60,"tdop":4.11,"xdop":1.05,"ydop":3.77,"vdop":0.90,"nSat":14,"uSat":8,"satellites":[{"PRN":66,"gnssid":6,"svid":2,"az":75.0,"el":40.0,"ss":48.0,"used":true},{"PRN":82,"gnssid":6,"svid":18,"az":327.0,"el":56.0,"ss":48.0,"used":true},{"PRN":73,"gnssid":6,"svid":9,"az":320.0,"el":22.0,"ss":34.0,"used":true},{"PRN":80,"gnssid":6,"svid":16,"az":257.0,"el":37.0,"ss":25.0,"used":false},{"PRN":79,"gnssid":6,"svid":15,"az":205.0,"el":12.0,"ss":19.0,"used":false},{"PRN":65,"gnssid":6,"svid":1,"az":26.0,"el":16.0,"ss":43.0,"used":true},{"PRN":83,"gnssid":6,"svid":19,"az":281.0,"el":16.0,"ss":18.0,"used":false},{"PRN":81,"gnssid":6,"svid":17,"az":54.0,"el":45.0,"ss":46.0,"used":true},{"PRN":67,"gnssid":6,"svid":3,"az":143.0,"el":23.0,"ss":21.0,"used":false},{"PRN":88,"gnssid":6,"svid":24,"az":84.0,"el":0.0,"ss":0.0,"used":false},{"PRN":408,"gnssid":3,"svid":8,"az":30.0,"el":9.0,"ss":40.0,"used":true},{"PRN":411,"gnssid":3,"svid":11,"az":81.0,"el":40.0,"ss":42.0,"used":true},{"PRN":413,"gnssid":3,"svid":13,"az":36.0,"el":17.0,"ss":43.0,"used":true},{"PRN":421,"gnssid":3,"svid":21,"az":0.0,"el":0.0,"ss":49.0,"used":false}]}
$GAGSV,4,1,13,33,53,047,47,07,08,039,,10,36,258,,11,10,251,,7*7B
$GAGSV,4,2,13,12,60,272,,16,33,306,,19,04,133,,23,01,161,,7*7C
$GAGSV,4,3,13,24,51,278,,25,13,320,,26,06,063,,29,14,090,,7*7D
$GAGSV,4,4,13,31,41,192,,7*4C
{"class":"TPV","mode":3,"time":"2025-09-04T04:35:42.000Z","ept":0.005,"lat":43.553169700,"lon":1.460306517,"altHAE":300.8000,"altMSL":250.8000,"alt":250.8000,"epx":15.788,"epy":56.561,"epv":20.700,"magvar":-1.7,"speed":0.000,"climb":0.000,"eps":113.12,"epc":41.40,"geoidSep":50.000,"eph":24.700,"sep":30.400}
{"class":"SKY","gdop":6.85,"hdop":1.30,"pdop":1.60,"tdop":4.11,"xdop":1.05,"ydop":3.77,"vdop":0.90,"nSat":27,"uSat":9,"satellites":[{"PRN":66,"gnssid":6,"svid":2,"az":75.0,"el":40.0,"ss":48.0,"used":true},{"PRN":82,"gnssid":6,"svid":18,"az":327.0,"el":56.0,"ss":48.0,"used":true},{"PRN":73,"gnssid":6,"svid":9,"az":320.0,"el":22.0,"ss":34.0,"used":true},{"PRN":80,"gnssid":6,"svid":16,"az":257.0,"el":37.0,"ss":25.0,"used":false},{"PRN":79,"gnssid":6,"svid":15,"az":205.0,"el":12.0,"ss":19.0,"used":false},{"PRN":65,"gnssid":6,"svid":1,"az":26.0,"el":16.0,"ss":43.0,"used":true},{"PRN":83,"gnssid":6,"svid":19,"az":281.0,"el":16.0,"ss":18.0,"used":false},{"PRN":81,"gnssid":6,"svid":17,"az":54.0,"el":45.0,"ss":46.0,"used":true},{"PRN":67,"gnssid":6,"svid":3,"az":143.0,"el":23.0,"ss":21.0,"used":false},{"PRN":88,"gnssid":6,"svid":24,"az":84.0,"el":0.0,"ss":0.0,"used":false},{"PRN":408,"gnssid":3,"svid":8,"az":30.0,"el":9.0,"ss":40.0,"used":true},{"PRN":411,"gnssid":3,"svid":11,"az":81.0,"el":40.0,"ss":42.0,"used":true},{"PRN":413,"gnssid":3,"svid":13,"az":36.0,"el":17.0,"ss":43.0,"used":true},{"PRN":421,"gnssid":3,"svid":21,"az":0.0,"el":0.0,"ss":49.0,"used":false},{"PRN":333,"gnssid":2,"svid":33,"sigid":4,"az":47.0,"el":53.0,"ss":47.0,"used":true},{"PRN":307,"gnssid":2,"svid":7,"sigid":4,"az":39.0,"el":8.0,"ss":0.0,"used":false},{"PRN":310,"gnssid":2,"svid":10,"sigid":4,"az":258.0,"el":36.0,"ss":0.0,"used":false},{"PRN":311,"gnssid":2,"svid":11,"sigid":4,"az":251.0,"el":10.0,"ss":0.0,"used":false},{"PRN":312,"gnssid":2,"svid":12,"sigid":4,"az":272.0,"el":60.0,"ss":0.0,"used":false},{"PRN":316,"gnssid":2,"svid":16,"sigid":4,"az":306.0,"el":33.0,"ss":0.0,"used":false},{"PRN":319,"gnssid":2,"svid":19,"sigid":4,"az":133.0,"el":4.0,"ss":0.0,"used":false},{"PRN":323,"gnssid":2,"svid":23,"sigid":4,"az":161.0,"el":1.0,"ss":0.0,"used":false},{"PRN":324,"gnssid":2,"svid":24,"sigid":4,"az":278.0,"el":51.0,"ss":0.0,"used":false},{"PRN":325,"gnssid":2,"svid":25,"sigid":4,"az":320.0,"el":13.0,"ss":0.0,"used":false},{"PRN":326,"gnssid":2,"svid":26,"sigid":4,"az":63.0,"el":6.0,"ss":0.0,"used":false},{"PRN":329,"gnssid":2,"svid":29,"sigid":4,"az":90.0,"el":14.0,"ss":0.0,"used":false},{"PRN":331,"gnssid":2,"svid":31,"sigid":4,"az":192.0,"el":41.0,"ss":0.0,"used":false}]}
$GPGSV,3,1,10,02,51,278,25,07,00,274,19,08,77,310,32,10,52,060,50,1*6B
$GPGSV,3,2,10,14,,,28,23,13,040,43,27,62,118,25,32,17,111,19,1*5B
$GPGSV,3,3,10,16,24,180,,30,00,300,,1*6D
{"class":"TPV","mode":3,"time":"2025-09-04T04:35:42.000Z","ept":0.005,"lat":43.553169700,"lon":1.460306517,"altHAE":300.8000,"altMSL":250.8000,"alt":250.8000,"epx":15.788,"epy":56.561,"epv":20.700,"magvar":-1.7,"speed":0.000,"climb":0.000,"eps":113.12,"epc":41.40,"geoidSep":50.000,"eph":24.700,"sep":30.400}
{"class":"SKY","gdop":6.85,"hdop":1.30,"pdop":1.60,"tdop":4.11,"xdop":1.05,"ydop":3.77,"vdop":0.90,"nSat":37,"uSat":14,"satellites":[{"PRN":66,"gnssid":6,"svid":2,"az":75.0,"el":40.0,"ss":48.0,"used":true},{"PRN":82,"gnssid":6,"svid":18,"az":327.0,"el":56.0,"ss":48.0,"used":true},{"PRN":73,"gnssid":6,"svid":9,"az":320.0,"el":22.0,"ss":34.0,"used":true},{"PRN":80,"gnssid":6,"svid":16,"az":257.0,"el":37.0,"ss":25.0,"used":false},{"PRN":79,"gnssid":6,"svid":15,"az":205.0,"el":12.0,"ss":19.0,"used":false},{"PRN":65,"gnssid":6,"svid":1,"az":26.0,"el":16.0,"ss":43.0,"used":true},{"PRN":83,"gnssid":6,"svid":19,"az":281.0,"el":16.0,"ss":18.0,"used":false},{"PRN":81,"gnssid":6,"svid":17,"az":54.0,"el":45.0,"ss":46.0,"used":true},{"PRN":67,"gnssid":6,"svid":3,"az":143.0,"el":23.0,"ss":21.0,"used":false},{"PRN":88,"gnssid":6,"svid":24,"az":84.0,"el":0.0,"ss":0.0,"used":false},{"PRN":408,"gnssid":3,"svid":8,"az":30.0,"el":9.0,"ss":40.0,"used":true},{"PRN":411,"gnssid":3,"svid":11,"az":81.0,"el":40.0,"ss":42.0,"used":true},{"PRN":413,"gnssid":3,"svid":13,"az":36.0,"el":17.0,"ss":43.0,"used":true},{"PRN":421,"gnssid":3,"svid":21,"az":0.0,"el":0.0,"ss":49.0,"used":false},{"PRN":333,"gnssid":2,"svid":33,"sigid":4,"az":47.0,"el":53.0,"ss":47.0,"used":true},{"PRN":307,"gnssid":2,"svid":7,"sigid":4,"az":39.0,"el":8.0,"ss":0.0,"used":false},{"PRN":310,"gnssid":2,"svid":10,"sigid":4,"az":258.0,"el":36.0,"ss":0.0,"used":false},{"PRN":311,"gnssid":2,"svid":11,"sigid":4,"az":251.0,"el":10.0,"ss":0.0,"used":false},{"PRN":312,"gnssid":2,"svid":12,"sigid":4,"az":272.0,"el":60.0,"ss":0.0,"used":false},{"PRN":316,"gnssid":2,"svid":16,"sigid":4,"az":306.0,"el":33.0,"ss":0.0,"used":false},{"PRN":319,"gnssid":2,"svid":19,"sigid":4,"az":133.0,"el":4.0,"ss":0.0,"used":false},{"PRN":323,"gnssid":2,"svid":23,"sigid":4,"az":161.0,"el":1.0,"ss":0.0,"used":false},{"PRN":324,"gnssid":2,"svid":24,"sigid":4,"az":278.0,"el":51.0,"ss":0.0,"used":false},{"PRN":325,"gnssid":2,"svid":25,"sigid":4,"az":320.0,"el":13.0,"ss":0.0,"used":false},{"PRN":326,"gnssid":2,"svid":26,"sigid":4,"az":63.0,"el":6.0,"ss":0.0,"used":false},{"PRN":329,"gnssid":2,"svid":29,"sigid":4,"az":90.0,"el":14.0,"ss":0.0,"used":false},{"PRN":331,"gnssid":2,"svid":31,"sigid":4,"az":192.0,"el":41.0,"ss":0.0,"used":false},{"PRN":2,"gnssid":0,"svid":2,"az":278.0,"el":51.0,"ss":25.0,"used":true},{"PRN":7,"gnssid":0,"svid":7,"az":274.0,"el":0.0,"ss":19.0,"used":false},{"PRN":8,"gnssid":0,"svid":8,"az":310.0,"el":77.0,"ss":32.0,"used":true},{"PRN":10,"gnssid":0,"svid":10,"az":60.0,"el":52.0,"ss":50.0,"used":true},{"PRN":14,"gnssid":0,"svid":14,"az":0.0,"el":0.0,"ss":28.0,"used":false},{"PRN":23,"gnssid":0,"svid":23,"az":40.0,"el":13.0,"ss":43.0,"used":true},{"PRN":27,"gnssid":0,"svid":27,"az":118.0,"el":62.0,"ss":25.0,"used":true},{"PRN":32,"gnssid":0,"svid":32,"az":111.0,"el":17.0,"ss":19.0,"used":false},{"PRN":16,"gnssid":0,"svid":16,"az":180.0,"el":24.0,"ss":0.0,"used":false},{"PRN":30,"gnssid":0,"svid":30,"az":300.0,"el":0.0,"ss":0.0,"used":false}]}
$GPGGA,043543.00,4333.190173,N,00127.618393,E,1,05,1.3,250.8,M,50.0,M,,*6C
{"class":"SKY","gdop":6.85,"hdop":1.30,"pdop":1.60,"tdop":4.11,"xdop":1.05,"ydop":3.77,"vdop":0.90,"uSat":5}
$GAGGA,043543.00,4333.190173,N,00127.618393,E,1,01,1.3,250.8,M,50.0,M,,*79
{"class":"SKY","gdop":6.85,"hdop":1.30,"pdop":1.60,"tdop":4.11,"xdop":1.05,"ydop":3.77,"vdop":0.90,"uSat":1}
$GNGNS,043543.00,4333.190173,N,00127.618393,E,AAAAN,14,1.3,250.8,50.0,,,V*6C
$GPVTG,,T,1.7,M,0.0,N,0.0,K,A*0B
$GAVTG,,T,1.7,M,0.0,N,0.0,K,A*1A
$GPRMC,043543.00,A,4333.190173,N,00127.618393,E,0.0,,040925,1.7,W,A,V*72
{"class":"TPV","mode":3,"time":"2025-09-04T04:35:43.000Z","ept":0.005,"lat":43.553169550,"lon":1.460306550,"altHAE":300.8000,"altMSL":250.8000,"alt":250.8000,"epx":15.788,"epy":56.561,"epv":20.700,"magvar":-1.7,"speed":0.000,"climb":0.000,"eps":113.12,"epc":41.40,"geoidSep":50.000,"eph":24.700,"sep":30.400}
{"class":"SKY","gdop":6.85,"hdop":1.30,"pdop":1.60,"tdop":4.11,"xdop":1.05,"ydop":3.77,"vdop":0.90,"uSat":1}
$GARMC,043543.00,A,4333.190173,N,00127.618393,E,0.0,,040925,1.7,W,A,V*63
{"class":"TPV","mode":3,"time":"2025-09-04T04:35:43.000Z","ept":0.005,"lat":43.553169550,"lon":1.460306550,"altHAE":300.8000,"altMSL":250.8000,"alt":250.8000,"epx":15.788,"epy":56.561,"epv":20.700,"magvar":-1.7,"speed":0.000,"climb":0.000,"eps":113.12,"epc":41.40,"geoidSep":50.000,"eph":24.700,"sep":30.400}
$GNGSA,A,2,02,08,10,23,27,,,,,,,,1.6,1.3,0.9,1*33
{"class":"TPV","mode":3,"time":"2025-09-04T04:35:43.000Z","ept":0.005,"lat":43.553169550,"lon":1.460306550,"altHAE":300.8000,"altMSL":250.8000,"alt":250.8000,"epx":15.788,"epy":56.561,"epv":20.700,"magvar":-1.7,"speed":0.000,"climb":0.000,"eps":113.12,"epc":41.40,"geoidSep":50.000,"eph":24.700,"sep":30.400}
$GNGSA,A,2,65,66,73,81,82,,,,,,,,1.6,1.3,0.9,2*3B
{"class":"TPV","mode":3,"time":"2025-09-04T04:35:43.000Z","ept":0.005,"lat":43.553169550,"lon":1.460306550,"altHAE":300.8000,"altMSL":250.8000,"alt":250.8000,"epx":15.788,"epy":56.561,"epv":20.700,"magvar":-1.7,"speed":0.000,"climb":0.000,"eps":113.12,"epc":41.40,"geoidSep":50.000,"eph":24.700,"sep":30.400}
{"class":"SKY","gdop":6.85,"hdop":1.30,"pdop":1.60,"tdop":4.11,"xdop":1.05,"ydop":3.77,"vdop":0.90,"uSat":1}
$GNGSA,A,2,33,,,,,,,,,,,,1.6,1.3,0.9,3*3E
{"class":"TPV","mode":3,"time":"2025-09-04T04:35:43.000Z","ept":0.005,"lat":43.553169550,"lon":1.460306550,"altHAE":300.8000,"altMSL":250.8000,"alt":250.8000,"epx":15.788,"epy":56.561,"epv":20.700,"magvar":-1.7,"speed":0.000,"climb":0.000,"eps":113.12,"epc":41.40,"geoidSep":50.000,"eph":24.700,"sep":30.400}
{"class":"SKY","gdop":6.85,"hdop":1.30,"pdop":1.60,"tdop":4.11,"xdop":1.05,"ydop":3.77,"vdop":0.90,"uSat":1}
$GNGSA,A,2,208,211,213,,,,,,,,,,1.6,1.3,0.9,4*01
{"class":"TPV","mode":3,"time":"2025-09-04T04:35:43.000Z","ept":0.005,"lat":43.553169550,"lon":1.460306550,"altHAE":300.8000,"altMSL":250.8000,"alt":250.8000,"epx":15.788,"epy":56.561,"epv":20.700,"magvar":-1.7,"speed":0.000,"climb":0.000,"eps":113.12,"epc":41.40,"geoidSep":50.000,"eph":24.700,"sep":30.400}
{"class":"SKY","gdop":6.85,"hdop":1.30,"pdop":1.60,"tdop":4.11,"xdop":1.05,"ydop":3.77,"vdop":0.90,"uSat":1}
$GNGSA,A,2,,,,,,,,,,,,,1.6,1.3,0.9,5*38
{"class":"TPV","mode":3,"time":"2025-09-04T04:35:43.000Z","ept":0.005,"lat":43.553169550,"lon":1.460306550,"altHAE":300.8000,"altMSL":250.8000,"alt":250.8000,"epx":15.788,"epy":56.561,"epv":20.700,"magvar":-1.7,"speed":0.000,"climb":0.000,"eps":113.12,"epc":41.40,"geoidSep":50.000,"eph":24.700,"sep":30.400}
{"class":"SKY","gdop":6.85,"hdop":1.30,"pdop":1.60,"tdop":4.11,"xdop":1.05,"ydop":3.77,"vdop":0.90,"uSat":1}
$GLGSV,3,1,10,66,40,075,48,82,56,327,48,73,22,320,33,80,37,257,26,1*7F
$GLGSV,3,2,10,79,12,205,19,65,16,026,43,83,16,281,18,81,45,054,46,1*78
$GLGSV,3,3,10,67,23,143,21,88,00,084,,1*70
{"class":"TPV","mode":3,"time":"2025-09-04T04:35:43.000Z","ept":0.005,"lat":43.553169550,"lon":1.460306550,"altHAE":300.8000,"altMSL":250.8000,"alt":250.8000,"epx":15.788,"epy":56.561,"epv":20.700,"magvar":-1.7,"speed":0.000,"climb":0.000,"eps":113.12,"epc":41.40,"geoidSep":50.000,"eph":24.700,"sep":30.400}
{"class":"SKY","gdop":6.85,"hdop":1.30,"pdop":1.60,"tdop":4.11,"xdop":1.05,"ydop":3.77,"vdop":0.90,"nSat":10,"uSat":5,"satellites":[{"PRN":66,"gnssid":6,"svid":2,"az":75.0,"el":40.0,"ss":48.0,"used":true},{"PRN":82,"gnssid":6,"svid":18,"az":327.0,"el":56.0,"ss":48.0,"used":true},{"PRN":73,"gnssid":6,"svid":9,"az":320.0,"el":22.0,"ss":33.0,"used":true},{"PRN":80,"gnssid":6,"svid":16,"az":257.0,"el":37.0,"ss":26.0,"used":false},{"PRN":79,"gnssid":6,"svid":15,"az":205.0,"el":12.0,"ss":19.0,"used":false},{"PRN":65,"gnssid":6,"svid":1,"az":26.0,"el":16.0,"ss":43.0,"used":true},{"PRN":83,"gnssid":6,"svid":19,"az":281.0,"el":16.0,"ss":18.0,"used":false},{"PRN":81,"gnssid":6,"svid":17,"az":54.0,"el":45.0,"ss":46.0,"used":true},{"PRN":67,"gnssid":6,"svid":3,"az":143.0,"el":23.0,"ss":21.0,"used":false},{"PRN":88,"gnssid":6,"svid":24,"az":84.0,"el":0.0,"ss":0.0,"used":false}]}
$BDGSV,1,1,04,08,09,030,40,11,40,081,42,13,17,036,43,21,,,49,4*41
{"class":"TPV","mode":3,"time":"2025-09-04T04:35:43.000Z","ept":0.005,"lat":43.553169550,"lon":1.460306550,"altHAE":300.8000,"altMSL":250.8000,"alt":250.8000,"epx":15.788,"epy":56.561,"epv":20.700,"magvar":-1.7,"speed":0.000,"climb":0.000,"eps":113.12,"epc":41.40,"geoidSep":50.000,"eph":24.700,"sep":30.400}
{"class":"SKY","gdop":6.85,"hdop":1.30,"pdop":1.60,"tdop":4.11,"xdop":1.05,"ydop":3.77,"vdop":0.90,"nSat":14,"uSat":8,"satellites":[{"PRN":66,"gnssid":6,"svid":2,"az":75.0,"el":40.0,"ss":48.0,"used":true},{"PRN":82,"gnssid":6,"svid":18,"az":327.0,"el":56.0,"ss":48.0,"used":true},{"PRN":73,"gnssid":6,"svid":9,"az":320.0,"el":22.0,"ss":33.0,"used":true},{"PRN":80,"gnssid":6,"svid":16,"az":257.0,"el":37.0,"ss":26.0,"used":false},{"PRN":79,"gnssid":6,"svid":15,"az":205.0,"el":12.0,"ss":19.0,"used":false},{"PRN":65,"gnssid":6,"svid":1,"az":26.0,"el":16.0,"ss":43.0,"used":true},{"PRN":83,"gnssid":6,"svid":19,"az":281.0,"el":16.0,"ss":18.0,"used":false},{"PRN":81,"gnssid":6,"svid":17,"az":54.0,"el":45.0,"ss":46.0,"used":true},{"PRN":67,"gnssid":6,"svid":3,"az":143.0,"el":23.0,"ss":21.0,"used":false},{"PRN":88,"gnssid":6,"svid":24,"az":84.0,"el":0.0,"ss":0.0,"used":false},{"PRN":408,"gnssid":3,"svid":8,"az":30.0,"el":9.0,"ss":40.0,"used":true},{"PRN":411,"gnssid":3,"svid":11,"az":81.0,"el":40.0,"ss":42.0,"used":true},{"PRN":413,"gnssid":3,"svid":13,"az":36.0,"el":17.0,"ss":43.0,"used":true},{"PRN":421,"gnssid":3,"svid":21,"az":0.0,"el":0.0,"ss":49.0,"used":false}]}
$GAGSV,4,1,13,33,53,047,47,07,08,039,,10,36,258,,11,10,251,,7*7B
$GAGSV,4,2,13,12,60,272,,16,33,306,,19,04,133,,23,01,161,,7*7C
$GAGSV,4,3,13,24,51,278,,25,13,320,,26,06,063,,29,14,090,,7*7D
$GAGSV,4,4,13,31,41,192,,7*4C
{"class":"TPV","mode":3,"time":"2025-09-04T04:35:43.000Z","ept":0.005,"lat":43.553169550,"lon":1.460306550,"altHAE":300.8000,"altMSL":250.8000,"alt":250.8000,"epx":15.788,"epy":56.561,"epv":20.700,"magvar":-1.7,"speed":0.000,"climb":0.000,"eps":113.12,"epc":41.40,"geoidSep":50.000,"eph":24.700,"sep":30.400}
{"class":"SKY","gdop":6.85,"hdop":1.30,"pdop":1.60,"tdop":4.11,"xdop":1.05,"ydop":3.77,"vdop":0.90,"nSat":27,"uSat":9,"satellites":[{"PRN":66,"gnssid":6,"svid":2,"az":75.0,"el":40.0,"ss":48.0,"used":true},{"PRN":82,"gnssid":6,"svid":18,"az":327.0,"el":56.0,"ss":48.0,"used":true},{"PRN":73,"gnssid":6,"svid":9,"az":320.0,"el":22.0,"ss":33.0,"used":true},{"PRN":80,"gnssid":6,"svid":16,"az":257.0,"el":37.0,"ss":26.0,"used":false},{"PRN":79,"gnssid":6,"svid":15,"az":205.0,"el":12.0,"ss":19.0,"used":false},{"PRN":65,"gnssid":6,"svid":1,"az":26.0,"el":16.0,"ss":43.0,"used":true},{"PRN":83,"gnssid":6,"svid":19,"az":281.0,"el":16.0,"ss":18.0,"used":false},{"PRN":81,"gnssid":6,"svid":17,"az":54.0,"el":45.0,"ss":46.0,"used":true},{"PRN":67,"gnssid":6,"svid":3,"az":143.0,"el":23.0,"ss":21.0,"used":false},{"PRN":88,"gnssid":6,"svid":24,"az":84.0,"el":0.0,"ss":0.0,"used":false},{"PRN":408,"gnssid":3,"svid":8,"az":30.0,"el":9.0,"ss":40.0,"used":true},{"PRN":411,"gnssid":3,"svid":11,"az":81.0,"el":40.0,"ss":42.0,"used":true},{"PRN":413,"gnssid":3,"svid":13,"az":36.0,"el":17.0,"ss":43.0,"used":true},{"PRN":421,"gnssid":3,"svid":21,"az":0.0,"el":0.0,"ss":49.0,"used":false},{"PRN":333,"gnssid":2,"svid":33,"sigid":4,"az":47.0,"el":53.0,"ss":47.0,"used":true},{"PRN":307,"gnssid":2,"svid":7,"sigid":4,"az":39.0,"el":8.0,"ss":0.0,"used":false},{"PRN":310,"gnssid":2,"svid":10,"sigid":4,"az":258.0,"el":36.0,"ss":0.0,"used":false},{"PRN":311,"gnssid":2,"svid":11,"sigid":4,"az":251.0,"el":10.0,"ss":0.0,"used":false},{"PRN":312,"gnssid":2,"svid":12,"sigid":4,"az":272.0,"el":60.0,"ss":0.0,"used":false},{"PRN":316,"gnssid":2,"svid":16,"sigid":4,"az":306.0,"el":33.0,"ss":0.0,"used":false},{"PRN":319,"gnssid":2,"svid":19,"sigid":4,"az":133.0,"el":4.0,"ss":0.0,"used":false},{"PRN":323,"gnssid":2,"svid":23,"sigid":4,"az":161.0,"el":1.0,"ss":0.0,"used":false},{"PRN":324,"gnssid":2,"svid":24,"sigid":4,"az":278.0,"el":51.0,"ss":0.0,"used":false},{"PRN":325,"gnssid":2,"svid":25,"sigid":4,"az":320.0,"el":13.0,"ss":0.0,"used":false},{"PRN":326,"gnssid":2,"svid":26,"sigid":4,"az":63.0,"el":6.0,"ss":0.0,"used":false},{"PRN":329,"gnssid":2,"svid":29,"sigid":4,"az":90.0,"el":14.0,"ss":0.0,"used":false},{"PRN":331,"gnssid":2,"svid":31,"sigid":4,"az":192.0,"el":41.0,"ss":0.0,"used":false}]}
$GPGSV,3,1,10,02,51,278,24,07,00,274,19,08,77,310,31,10,52,060,50,1*69
$GPGSV,3,2,10,14,,,29,23,13,040,43,27,62,118,26,32,17,111,19,1*59
$GPGSV,3,3,10,16,24,180,,30,00,300,,1*6D
{"class":"TPV","mode":3,"time":"2025-09-04T04:35:43.000Z","ept":0.005,"lat":43.553169550,"lon":1.460306550,"altHAE":300.8000,"altMSL":250.8000,"alt":250.8000,"epx":15.788,"epy":56.561,"epv":20.700,"magvar":-1.7,"speed":0.000,"climb":0.000,"eps":113.12,"epc":41.40,"geoidSep":50.000,"eph":24.700,"sep":30.400}
