# Name: Telit PLS83-W
# Submitter: Sebastian Lucas
# Date: 2025-09-04
# Notes: Multip GNSS, multi  signal, GPGGA and GNGGA
#
# This file is Copyright  by the GPSD project
# SPDX-License-Identifier: BSD-2-clause
#
# {"class":"DEVICES","devices":[{"class":"DEVICE","path":"/dev/ttyNAD_GNSS","driver":"NMEA0183","activated":"2025-09-04T04:34:00.107Z","flags":1,"native":0,"bps":115200,"parity":"N","stopbits":1,"cycle":1.00}]}
$GPGGA,043539.00,4333.190206,N,00127.618380,E,1,05,1.3,250.8,M,50.0,M,,*62
$GAGGA,043539.00,4333.190206,N,00127.618380,E,1,01,1.3,250.8,M,50.0,M,,*77
$GNGNS,043539.00,4333.190206,N,00127.618380,E,AAAAN,14,1.3,250.8,50.0,,,V*62
$GPVTG,,T,1.7,M,0.0,N,0.0,K,A*0B
$GAVTG,,T,1.7,M,0.0,N,0.0,K,A*1A
$GPRMC,043539.00,A,4333.190206,N,00127.618380,E,0.0,,040925,1.7,W,A,V*7C
$GARMC,043539.00,A,4333.190206,N,00127.618380,E,0.0,,040925,1.7,W,A,V*6D
$GNGSA,A,2,02,08,10,23,27,,,,,,,,1.6,1.3,0.9,1*33
$GNGSA,A,2,65,66,73,81,82,,,,,,,,1.6,1.3,0.9,2*3B
$GNGSA,A,2,33,,,,,,,,,,,,1.6,1.3,0.9,3*3E
$GNGSA,A,2,208,211,213,,,,,,,,,,1.6,1.3,0.9,4*01
$GNGSA,A,2,,,,,,,,,,,,,1.6,1.3,0.9,5*38
$GLGSV,3,1,10,66,40,075,48,82,56,327,48,73,22,320,34,80,37,257,18,1*75
$GLGSV,3,2,10,79,12,205,20,65,16,026,43,83,16,281,17,81,45,054,46,1*7D
$GLGSV,3,3,10,67,23,143,22,88,00,084,,1*73
$BDGSV,2,1,05,08,09,030,39,11,40,081,42,13,17,036,43,21,,,49,4*4D
$BDGSV,2,2,05,14,39,136,,4*4E
$GAGSV,4,1,13,33,53,047,47,07,08,039,,10,36,258,,11,10,251,,7*7B
$GAGSV,4,2,13,12,60,272,,16,33,306,,19,04,133,,23,01,161,,7*7C
$GAGSV,4,3,13,24,51,278,,25,13,320,,26,06,063,,29,14,090,,7*7D
$GAGSV,4,4,13,31,41,192,,7*4C
$GPGSV,3,1,10,02,51,278,26,07,00,274,18,08,77,310,32,10,52,060,50,1*69
$GPGSV,3,2,10,14,,,30,23,13,040,43,27,62,118,24,32,17,111,20,1*59
$GPGSV,3,3,10,16,24,180,,30,00,300,,1*6D
$GPGGA,043540.00,4333.190199,N,00127.618384,E,1,05,1.3,250.8,M,50.0,M,,*6D
$GAGGA,043540.00,4333.190199,N,00127.618384,E,1,01,1.3,250.8,M,50.0,M,,*78
$GNGNS,043540.00,4333.190199,N,00127.618384,E,AAAAN,14,1.3,250.8,50.0,,,V*6D
$GPVTG,,T,1.7,M,0.0,N,0.0,K,A*0B
$GAVTG,,T,1.7,M,0.0,N,0.0,K,A*1A
$GPRMC,043540.00,A,4333.190199,N,00127.618384,E,0.0,,040925,1.7,W,A,V*73
$GARMC,043540.00,A,4333.190199,N,00127.618384,E,0.0,,040925,1.7,W,A,V*62
$GNGSA,A,2,02,08,10,23,27,,,,,,,,1.6,1.3,0.9,1*33
$GNGSA,A,2,65,66,73,81,82,,,,,,,,1.6,1.3,0.9,2*3B
$GNGSA,A,2,33,,,,,,,,,,,,1.6,1.3,0.9,3*3E
$GNGSA,A,2,208,211,213,,,,,,,,,,1.6,1.3,0.9,4*01
$GNGSA,A,2,,,,,,,,,,,,,1.6,1.3,0.9,5*38
$GLGSV,3,1,10,66,40,075,48,82,56,327,48,73,22,320,34,80,37,257,18,1*75
$GLGSV,3,2,10,79,12,205,20,65,16,026,43,83,16,281,17,81,45,054,46,1*7D
$GLGSV,3,3,10,67,23,143,21,88,00,084,,1*70
$BDGSV,1,1,04,08,09,030,39,11,40,081,42,13,17,036,43,21,,,49,4*4F
$GAGSV,4,1,13,33,53,047,47,07,08,039,,10,36,258,,11,10,251,,7*7B
$GAGSV,4,2,13,12,60,272,,16,33,306,,19,04,133,,23,01,161,,7*7C
$GAGSV,4,3,13,24,51,278,,25,13,320,,26,06,063,,29,14,090,,7*7D
$GAGSV,4,4,13,31,41,192,,7*4C
$GPGSV,3,1,10,02,51,278,26,07,00,274,19,08,77,310,33,10,52,060,50,1*69
$GPGSV,3,2,10,14,,,30,23,13,040,43,27,62,118,24,32,17,111,19,1*53
$GPGSV,3,3,10,16,24,180,,30,00,300,,1*6D
$GPGGA,043541.00,4333.190190,N,00127.618388,E,1,05,1.3,250.8,M,50.0,M,,*69
$GAGGA,043541.00,4333.190190,N,00127.618388,E,1,01,1.3,250.8,M,50.0,M,,*7C
$GNGNS,043541.00,4333.190190,N,00127.618388,E,AAAAN,14,1.3,250.8,50.0,,,V*69
$GPVTG,,T,1.7,M,0.0,N,0.0,K,A*0B
$GAVTG,,T,1.7,M,0.0,N,0.0,K,A*1A
$GPRMC,043541.00,A,4333.190190,N,00127.618388,E,0.0,,040925,1.7,W,A,V*77
$GARMC,043541.00,A,4333.190190,N,00127.618388,E,0.0,,040925,1.7,W,A,V*66
$GNGSA,A,2,02,08,10,23,27,,,,,,,,1.6,1.3,0.9,1*33
$GNGSA,A,2,65,66,73,81,82,,,,,,,,1.6,1.3,0.9,2*3B
$GNGSA,A,2,33,,,,,,,,,,,,1.6,1.3,0.9,3*3E
$GNGSA,A,2,208,211,213,,,,,,,,,,1.6,1.3,0.9,4*01
$GNGSA,A,2,,,,,,,,,,,,,1.6,1.3,0.9,5*38
$GLGSV,3,1,10,66,40,075,48,82,56,327,48,73,22,320,33,80,37,257,17,1*7D
$GLGSV,3,2,10,79,12,205,19,65,16,026,43,83,16,281,17,81,45,054,46,1*77
$GLGSV,3,3,10,67,23,143,21,88,00,084,,1*70
$BDGSV,2,1,05,08,09,030,40,11,40,081,42,13,17,036,44,21,,,49,4*44
$BDGSV,2,2,05,05,15,112,,4*46
$GAGSV,4,1,13,33,53,047,47,07,08,039,,10,36,258,,11,10,251,,7*7B
$GAGSV,4,2,13,12,60,272,,16,33,306,,19,04,133,,23,01,161,,7*7C
$GAGSV,4,3,13,24,51,278,,25,13,320,,26,06,063,,29,14,090,,7*7D
$GAGSV,4,4,13,31,41,192,,7*4C
$GPGSV,3,1,10,02,51,278,25,07,00,274,19,08,77,310,32,10,52,060,50,1*6B
$GPGSV,3,2,10,14,,,29,23,13,040,43,27,62,118,25,32,17,111,19,1*5A
$GPGSV,3,3,10,16,24,180,,30,00,300,,1*6D
$GPGGA,043542.00,4333.190182,N,00127.618391,E,1,05,1.3,250.8,M,50.0,M,,*61
$GAGGA,043542.00,4333.190182,N,00127.618391,E,1,01,1.3,250.8,M,50.0,M,,*74
$GNGNS,043542.00,4333.190182,N,00127.618391,E,AAAAN,14,1.3,250.8,50.0,,,V*61
$GPVTG,,T,1.7,M,0.0,N,0.0,K,A*0B
$GAVTG,,T,1.7,M,0.0,N,0.0,K,A*1A
$GPRMC,043542.00,A,4333.190182,N,00127.618391,E,0.0,,040925,1.7,W,A,V*7F
$GARMC,043542.00,A,4333.190182,N,00127.618391,E,0.0,,040925,1.7,W,A,V*6E
$GNGSA,A,2,02,08,10,23,27,,,,,,,,1.6,1.3,0.9,1*33
$GNGSA,A,2,65,66,73,81,82,,,,,,,,1.6,1.3,0.9,2*3B
$GNGSA,A,2,33,,,,,,,,,,,,1.6,1.3,0.9,3*3E
$GNGSA,A,2,208,211,213,,,,,,,,,,1.6,1.3,0.9,4*01
$GNGSA,A,2,,,,,,,,,,,,,1.6,1.3,0.9,5*38
$GLGSV,3,1,10,66,40,075,48,82,56,327,48,73,22,320,34,80,37,257,25,1*7B
$GLGSV,3,2,10,79,12,205,19,65,16,026,43,83,16,281,18,81,45,054,46,1*78
$GLGSV,3,3,10,67,23,143,21,88,00,084,,1*70
$BDGSV,1,1,04,08,09,030,40,11,40,081,42,13,17,036,43,21,,,49,4*41
$GAGSV,4,1,13,33,53,047,47,07,08,039,,10,36,258,,11,10,251,,7*7B
$GAGSV,4,2,13,12,60,272,,16,33,306,,19,04,133,,23,01,161,,7*7C
$GAGSV,4,3,13,24,51,278,,25,13,320,,26,06,063,,29,14,090,,7*7D
$GAGSV,4,4,13,31,41,192,,7*4C
$GPGSV,3,1,10,02,51,278,25,07,00,274,19,08,77,310,32,10,52,060,50,1*6B
$GPGSV,3,2,10,14,,,28,23,13,040,43,27,62,118,25,32,17,111,19,1*5B
$GPGSV,3,3,10,16,24,180,,30,00,300,,1*6D
$GPGGA,043543.00,4333.190173,N,00127.618393,E,1,05,1.3,250.8,M,50.0,M,,*6C
$GAGGA,043543.00,4333.190173,N,00127.618393,E,1,01,1.3,250.8,M,50.0,M,,*79
$GNGNS,043543.00,4333.190173,N,00127.618393,E,AAAAN,14,1.3,250.8,50.0,,,V*6C
$GPVTG,,T,1.7,M,0.0,N,0.0,K,A*0B
$GAVTG,,T,1.7,M,0.0,N,0.0,K,A*1A
$GPRMC,043543.00,A,4333.190173,N,00127.618393,E,0.0,,040925,1.7,W,A,V*72
$GARMC,043543.00,A,4333.190173,N,00127.618393,E,0.0,,040925,1.7,W,A,V*63
$GNGSA,A,2,02,08,10,23,27,,,,,,,,1.6,1.3,0.9,1*33
$GNGSA,A,2,65,66,73,81,82,,,,,,,,1.6,1.3,0.9,2*3B
$GNGSA,A,2,33,,,,,,,,,,,,1.6,1.3,0.9,3*3E
$GNGSA,A,2,208,211,213,,,,,,,,,,1.6,1.3,0.9,4*01
$GNGSA,A,2,,,,,,,,,,,,,1.6,1.3,0.9,5*38
$GLGSV,3,1,10,66,40,075,48,82,56,327,48,73,22,320,33,80,37,257,26,1*7F
$GLGSV,3,2,10,79,12,205,19,65,16,026,43,83,16,281,18,81,45,054,46,1*78
$GLGSV,3,3,10,67,23,143,21,88,00,084,,1*70
$BDGSV,1,1,04,08,09,030,40,11,40,081,42,13,17,036,43,21,,,49,4*41
$GAGSV,4,1,13,33,53,047,47,07,08,039,,10,36,258,,11,10,251,,7*7B
$GAGSV,4,2,13,12,60,272,,16,33,306,,19,04,133,,23,01,161,,7*7C
$GAGSV,4,3,13,24,51,278,,25,13,320,,26,06,063,,29,14,090,,7*7D
$GAGSV,4,4,13,31,41,192,,7*4C
$GPGSV,3,1,10,02,51,278,24,07,00,274,19,08,77,310,31,10,52,060,50,1*69
$GPGSV,3,2,10,14,,,29,23,13,040,43,27,62,118,26,32,17,111,19,1*59
$GPGSV,3,3,10,16,24,180,,30,00,300,,1*6D
$GPGGA,043544.00,4333.190161,N,00127.618388,E,1,05,1.3,250.7,M,50.0,M,,*6D
$GAGGA,043544.00,4333.190161,N,00127.618388,E,1,01,1.3,250.7,M,50.0,M,,*78
$GNGNS,043544.00,4333.190161,N,00127.618388,E,AAAAN,14,1.3,250.7,50.0,,,V*6D
$GPVTG,,T,1.7,M,0.0,N,0.0,K,A*0B
$GAVTG,,T,1.7,M,0.0,N,0.0,K,A*1A
$GPRMC,043544.00,A,4333.190161,N,00127.618388,E,0.0,,040925,1.7,W,A,V*7C
$GARMC,043544.00,A,4333.190161,N,00127.618388,E,0.0,,040925,1.7,W,A,V*6D
$GNGSA,A,2,02,08,10,23,27,,,,,,,,1.6,1.3,0.9,1*33
$GNGSA,A,2,65,66,73,81,82,,,,,,,,1.6,1.3,0.9,2*3B
$GNGSA,A,2,33,,,,,,,,,,,,1.6,1.3,0.9,3*3E
$GNGSA,A,2,208,211,213,,,,,,,,,,1.6,1.3,0.9,4*01
$GNGSA,A,2,,,,,,,,,,,,,1.6,1.3,0.9,5*38
$GLGSV,3,1,10,66,40,075,48,82,56,327,48,73,22,320,34,80,37,257,27,1*79
$GLGSV,3,2,10,79,12,205,19,65,16,026,43,83,16,281,18,81,45,054,46,1*78
$GLGSV,3,3,10,67,23,143,20,88,00,084,,1*71
$BDGSV,2,1,06,08,09,030,40,11,40,081,42,13,17,036,44,21,,,49,4*47
$BDGSV,2,2,06,05,15,112,,14,39,136,,4*7E
$GAGSV,4,1,13,33,53,047,47,07,08,039,,10,36,258,,11,10,251,,7*7B
$GAGSV,4,2,13,12,60,272,,16,33,306,,19,04,133,,23,01,161,,7*7C
$GAGSV,4,3,13,24,51,278,,25,13,320,,26,06,063,,29,14,090,,7*7D
$GAGSV,4,4,13,31,41,192,,7*4C
$GPGSV,3,1,10,02,51,278,24,07,00,274,19,08,77,310,32,10,52,060,50,1*6A
$GPGSV,3,2,10,14,,,28,16,24,180,18,23,13,040,43,27,62,118,24,1*55
$GPGSV,3,3,10,32,17,111,19,30,00,300,,1*6B
$GPGGA,043545.00,4333.190153,N,00127.618387,E,1,05,1.3,250.7,M,50.0,M,,*62
$GAGGA,043545.00,4333.190153,N,00127.618387,E,1,01,1.3,250.7,M,50.0,M,,*77
$GNGNS,043545.00,4333.190153,N,00127.618387,E,AAAAN,14,1.3,250.7,50.0,,,V*62
$GPVTG,,T,1.7,M,0.0,N,0.0,K,A*0B
$GAVTG,,T,1.7,M,0.0,N,0.0,K,A*1A
$GPRMC,043545.00,A,4333.190153,N,00127.618387,E,0.0,,040925,1.7,W,A,V*73
$GARMC,043545.00,A,4333.190153,N,00127.618387,E,0.0,,040925,1.7,W,A,V*62
$GNGSA,A,2,02,08,10,23,27,,,,,,,,1.6,1.3,0.9,1*33
$GNGSA,A,2,65,66,73,81,82,,,,,,,,1.6,1.3,0.9,2*3B
$GNGSA,A,2,33,,,,,,,,,,,,1.6,1.3,0.9,3*3E
$GNGSA,A,2,208,211,213,,,,,,,,,,1.6,1.3,0.9,4*01
$GNGSA,A,2,,,,,,,,,,,,,1.6,1.3,0.9,5*38
$GLGSV,3,1,10,66,40,075,48,82,56,327,48,73,22,320,33,80,37,257,27,1*7E
$GLGSV,3,2,10,79,12,205,19,65,16,026,43,83,16,281,18,81,45,054,46,1*78
$GLGSV,3,3,10,67,23,143,20,88,00,084,,1*71
$BDGSV,2,1,05,08,09,030,39,11,40,081,42,13,17,036,44,21,,,49,4*4A
$BDGSV,2,2,05,14,39,136,,4*4E
$GAGSV,4,1,13,33,53,047,47,07,08,039,,10,36,258,,11,10,251,,7*7B
$GAGSV,4,2,13,12,60,272,,16,33,306,,19,04,133,,23,01,161,,7*7C
$GAGSV,4,3,13,24,51,278,,25,13,320,,26,06,063,,29,14,090,,7*7D
$GAGSV,4,4,13,31,41,192,,7*4C
$GPGSV,3,1,10,02,51,278,24,07,00,274,17,08,77,310,32,10,52,060,50,1*64
$GPGSV,3,2,10,14,,,28,16,24,180,19,23,13,040,43,27,62,118,25,1*55
$GPGSV,3,3,10,32,17,111,19,30,00,300,,1*6B
$GPGGA,043546.00,4333.190145,N,00127.618386,E,1,05,1.3,250.7,M,50.0,M,,*67
$GAGGA,043546.00,4333.190145,N,00127.618386,E,1,01,1.3,250.7,M,50.0,M,,*72
$GNGNS,043546.00,4333.190145,N,00127.618386,E,AAAAN,14,1.3,250.7,50.0,,,V*67
$GPVTG,,T,1.7,M,0.0,N,0.0,K,A*0B
$GAVTG,,T,1.7,M,0.0,N,0.0,K,A*1A
$GPRMC,043546.00,A,4333.190145,N,00127.618386,E,0.0,,040925,1.7,W,A,V*76
$GARMC,043546.00,A,4333.190145,N,00127.618386,E,0.0,,040925,1.7,W,A,V*67
$GNGSA,A,2,02,08,10,23,27,,,,,,,,1.6,1.3,0.9,1*33
$GNGSA,A,2,65,66,73,81,82,,,,,,,,1.6,1.3,0.9,2*3B
$GNGSA,A,2,33,,,,,,,,,,,,1.6,1.3,0.9,3*3E
$GNGSA,A,2,208,211,213,,,,,,,,,,1.6,1.3,0.9,4*01
$GNGSA,A,2,,,,,,,,,,,,,1.6,1.3,0.9,5*38
$GLGSV,3,1,10,66,40,075,48,82,56,327,48,73,22,320,34,80,37,257,28,1*76
$GLGSV,3,2,10,79,12,205,19,65,16,026,43,83,16,281,18,81,45,054,46,1*78
$GLGSV,3,3,10,67,23,143,19,88,00,084,,1*7B
$BDGSV,2,1,06,08,09,030,40,11,40,081,42,13,17,036,44,21,,,49,4*47
$BDGSV,2,2,06,05,15,112,,14,39,136,,4*7E
$GAGSV,4,1,13,33,53,047,47,07,08,039,,10,36,258,,11,10,251,,7*7B
$GAGSV,4,2,13,12,60,272,,16,33,306,,19,04,133,,23,01,161,,7*7C
$GAGSV,4,3,13,24,51,278,,25,13,320,,26,06,063,,29,14,090,,7*7D
$GAGSV,4,4,13,31,41,192,,7*4C
$GPGSV,3,1,10,02,51,278,23,07,00,274,17,08,77,310,32,10,52,060,50,1*63
$GPGSV,3,2,10,14,,,28,16,24,180,19,23,13,040,43,27,62,118,22,1*52
$GPGSV,3,3,10,32,17,111,19,30,00,300,,1*6B
$GPGGA,043547.00,4333.190138,N,00127.618384,E,1,05,1.3,250.7,M,50.0,M,,*6E
$GAGGA,043547.00,4333.190138,N,00127.618384,E,1,01,1.3,250.7,M,50.0,M,,*7B
$GNGNS,043547.00,4333.190138,N,00127.618384,E,AAAAN,14,1.3,250.7,50.0,,,V*6E
$GPVTG,,T,1.7,M,0.0,N,0.0,K,A*0B
$GAVTG,,T,1.7,M,0.0,N,0.0,K,A*1A
$GPRMC,043547.00,A,4333.190138,N,00127.618384,E,0.0,,040925,1.7,W,A,V*7F
$GARMC,043547.00,A,4333.190138,N,00127.618384,E,0.0,,040925,1.7,W,A,V*6E
$GNGSA,A,2,02,08,10,23,27,,,,,,,,1.6,1.3,0.9,1*33
$GNGSA,A,2,65,66,73,81,82,,,,,,,,1.6,1.3,0.9,2*3B
$GNGSA,A,2,33,,,,,,,,,,,,1.6,1.3,0.9,3*3E
$GNGSA,A,2,208,211,213,,,,,,,,,,1.6,1.3,0.9,4*01
$GNGSA,A,2,,,,,,,,,,,,,1.6,1.3,0.9,5*38
$GLGSV,3,1,10,66,40,075,48,82,56,327,48,73,22,320,33,80,37,257,27,1*7E
$GLGSV,3,2,10,79,12,205,19,65,16,026,43,83,16,281,18,81,45,054,46,1*78
$GLGSV,3,3,10,67,23,143,19,88,00,084,,1*7B
$BDGSV,2,1,05,08,09,030,40,11,40,081,43,13,17,036,44,21,,,49,4*45
$BDGSV,2,2,05,14,39,136,,4*4E
$GAGSV,4,1,13,33,53,047,47,07,08,039,,10,36,258,,11,10,251,,7*7B
$GAGSV,4,2,13,12,60,272,,16,33,306,,19,04,133,,23,01,161,,7*7C
$GAGSV,4,3,13,24,51,278,,25,13,320,,26,06,063,,29,14,090,,7*7D
$GAGSV,4,4,13,31,41,192,,7*4C
$GPGSV,3,1,10,02,51,278,24,07,00,274,22,08,77,310,31,10,52,060,50,1*61
$GPGSV,3,2,10,14,,,29,16,24,180,18,23,13,040,44,27,62,118,21,1*56
$GPGSV,3,3,10,32,17,111,19,30,00,300,,1*6B
$GPGGA,043548.00,4333.190127,N,00127.618382,E,1,05,1.3,250.7,M,50.0,M,,*69
$GAGGA,043548.00,4333.190127,N,00127.618382,E,1,01,1.3,250.7,M,50.0,M,,*7C
$GNGNS,043548.00,4333.190127,N,00127.618382,E,AAAAN,14,1.3,250.7,50.0,,,V*69
$GPVTG,,T,1.7,M,0.0,N,0.0,K,A*0B
$GAVTG,,T,1.7,M,0.0,N,0.0,K,A*1A
$GPRMC,043548.00,A,4333.190127,N,00127.618382,E,0.0,,040925,1.7,W,A,V*78
$GARMC,043548.00,A,4333.190127,N,00127.618382,E,0.0,,040925,1.7,W,A,V*69
$GNGSA,A,2,02,08,10,23,27,,,,,,,,1.6,1.3,0.9,1*33
$GNGSA,A,2,65,66,73,81,82,,,,,,,,1.6,1.3,0.9,2*3B
$GNGSA,A,2,33,,,,,,,,,,,,1.6,1.3,0.9,3*3E
$GNGSA,A,2,208,211,213,,,,,,,,,,1.6,1.3,0.9,4*01
$GNGSA,A,2,,,,,,,,,,,,,1.6,1.3,0.9,5*38
