$GPRMC,071732.929,V,8960.0000,N,00000.0000,E,0.00,0.00,111111,,,N*73
{"class":"TPV","mode":1}
$GPGGA,071733.929,8960.0000,N,00000.0000,E,0,0,,137.0,M,13.0,M,,*40
{"class":"TPV","mode":1}
$GPGSA,A,1,,,,,,,,,,,,,,,*1E
{"class":"TPV","mode":1}
$GPGSV,2,1,05,23,,,36,13,,,34,32,,,43,31,,,31*78
$GPGSV,2,2,05,20,,,41*7B
$GPRMC,071733.929,V,8960.0000,N,00000.0000,E,0.00,0.00,111111,,,N*72
{"class":"TPV","mode":1}
$GPGGA,071734.929,4404.1178,N,12118.8608,W,0,4,,1127.8,M,-19.6,M,,*49
{"class":"TPV","mode":3,"lat":44.068630000,"lon":-121.314346667,"altHAE":1108.2000,"altMSL":1127.8000,"alt":1127.8000,"magvar":14.4,"geoidSep":-19.600}
$GPGSA,A,1,,,,,,,,,,,,,,,*1E
{"class":"TPV","mode":1}
$GPGSV,2,1,05,23,,,37,13,,,34,32,,,43,31,,,31*79
$GPGSV,2,2,05,20,,,41*7B
$GPRMC,071734.929,V,4404.1178,N,12118.8608,W,0.10,0.00,111111,,,N*67
{"class":"TPV","mode":1}
$GPGGA,071736.000,4404.1316,N,12118.8445,W,1,4,5.21,1134.4,M,-19.6,M,,*5F
{"class":"TPV","mode":3,"lat":44.068860000,"lon":-121.314075000,"altHAE":1114.8000,"altMSL":1134.4000,"alt":1134.4000,"magvar":14.4,"geoidSep":-19.600,"eph":98.990}
{"class":"SKY","hdop":5.21,"uSat":4}
$GPGSA,A,3,23,13,32,20,,,,,,,,,5.30,5.21,0.98*03
{"class":"TPV","mode":3,"lat":44.068860000,"lon":-121.314075000,"altHAE":1114.8000,"altMSL":1134.4000,"alt":1134.4000,"epv":22.540,"magvar":14.4,"geoidSep":-19.600,"eph":98.990,"sep":100.700}
{"class":"SKY","hdop":5.21,"pdop":5.30,"vdop":0.98,"uSat":4}
$GPGSV,2,1,06,20,73,204,41,23,56,298,37,32,54,148,43,48,37,196,*70
$GPGSV,2,2,06,13,30,282,34,31,,,31*41
{"class":"TPV","mode":3,"lat":44.068860000,"lon":-121.314075000,"altHAE":1114.8000,"altMSL":1134.4000,"alt":1134.4000,"epx":59.364,"epy":68.891,"epv":22.540,"magvar":14.4,"geoidSep":-19.600,"eph":98.990,"sep":100.700}
{"class":"SKY","gdop":8.87,"hdop":5.21,"pdop":5.30,"tdop":4.62,"xdop":3.96,"ydop":4.59,"vdop":0.98,"nSat":6,"uSat":4,"satellites":[{"PRN":20,"gnssid":0,"svid":20,"az":204.0,"el":73.0,"ss":41.0,"used":true},{"PRN":23,"gnssid":0,"svid":23,"az":298.0,"el":56.0,"ss":37.0,"used":true},{"PRN":32,"gnssid":0,"svid":32,"az":148.0,"el":54.0,"ss":43.0,"used":true},{"PRN":48,"gnssid":1,"svid":135,"az":196.0,"el":37.0,"ss":0.0,"used":false},{"PRN":13,"gnssid":0,"svid":13,"az":282.0,"el":30.0,"ss":34.0,"used":true},{"PRN":31,"gnssid":0,"svid":31,"az":0.0,"el":0.0,"ss":31.0,"used":false}]}
$GPRMC,071736.000,A,4404.1316,N,12118.8445,W,0.20,0.00,111111,,,A*7D
$GPGGA,071737.000,4404.1258,N,12118.8537,W,1,4,5.20,1131.0,M,-19.6,M,,*51
{"class":"TPV","mode":3,"time":"2011-11-11T07:17:37.000Z","ept":0.005,"lat":44.068763333,"lon":-121.314228333,"altHAE":1111.4000,"altMSL":1131.0000,"alt":1131.0000,"epx":59.364,"epy":68.891,"epv":22.540,"magvar":14.4,"speed":16.318,"climb":-3.400,"eps":137.78,"epc":45.08,"geoidSep":-19.600,"eph":98.800,"sep":100.700}
{"class":"SKY","gdop":8.87,"hdop":5.20,"pdop":5.30,"tdop":4.62,"xdop":3.96,"ydop":4.59,"vdop":0.98,"uSat":4}
$GPGSA,A,3,23,13,32,20,,,,,,,,,5.29,5.20,0.98*0A
{"class":"TPV","mode":3,"time":"2011-11-11T07:17:37.000Z","ept":0.005,"lat":44.068763333,"lon":-121.314228333,"altHAE":1111.4000,"altMSL":1131.0000,"alt":1131.0000,"epx":59.364,"epy":68.891,"epv":22.540,"magvar":14.4,"speed":16.318,"climb":-3.400,"eps":137.78,"epc":45.08,"geoidSep":-19.600,"eph":98.800,"sep":100.700}
{"class":"SKY","gdop":8.87,"hdop":5.20,"pdop":5.29,"tdop":4.62,"xdop":3.96,"ydop":4.59,"vdop":0.98,"uSat":4}
$GPGSV,2,1,06,20,73,204,41,23,56,298,37,32,54,148,43,48,37,196,44*70
$GPGSV,2,2,06,13,30,282,34,31,,,31*41
{"class":"TPV","mode":3,"time":"2011-11-11T07:17:37.000Z","ept":0.005,"lat":44.068763333,"lon":-121.314228333,"altHAE":1111.4000,"altMSL":1131.0000,"alt":1131.0000,"epx":59.364,"epy":68.891,"epv":22.540,"magvar":14.4,"speed":16.318,"climb":-3.400,"eps":137.78,"epc":45.08,"geoidSep":-19.600,"eph":98.800,"sep":100.700}
{"class":"SKY","gdop":8.87,"hdop":5.20,"pdop":5.29,"tdop":4.62,"xdop":3.96,"ydop":4.59,"vdop":0.98,"nSat":6,"uSat":4,"satellites":[{"PRN":20,"gnssid":0,"svid":20,"az":204.0,"el":73.0,"ss":41.0,"used":true},{"PRN":23,"gnssid":0,"svid":23,"az":298.0,"el":56.0,"ss":37.0,"used":true},{"PRN":32,"gnssid":0,"svid":32,"az":148.0,"el":54.0,"ss":43.0,"used":true},{"PRN":48,"gnssid":1,"svid":135,"az":196.0,"el":37.0,"ss":44.0,"used":false},{"PRN":13,"gnssid":0,"svid":13,"az":282.0,"el":30.0,"ss":34.0,"used":true},{"PRN":31,"gnssid":0,"svid":31,"az":0.0,"el":0.0,"ss":31.0,"used":false}]}
$GPRMC,071737.000,A,4404.1258,N,12118.8537,W,0.12,0.00,111111,,,A*72
{"class":"TPV","mode":3,"time":"2011-11-11T07:17:37.000Z","ept":0.005,"lat":44.068763333,"lon":-121.314228333,"altHAE":1111.4000,"altMSL":1131.0000,"alt":1131.0000,"epx":59.364,"epy":68.891,"epv":22.540,"track":0.0000,"magtrack":14.4184,"magvar":14.4,"speed":0.062,"climb":-3.400,"eps":137.78,"epc":45.08,"geoidSep":-19.600,"eph":98.800,"sep":100.700}
$GPGGA,071738.000,4404.1279,N,12118.8515,W,1,4,5.20,1137.3,M,-19.6,M,,*58
{"class":"TPV","mode":3,"time":"2011-11-11T07:17:38.000Z","ept":0.005,"lat":44.068798333,"lon":-121.314191667,"altHAE":1117.7000,"altMSL":1137.3000,"alt":1137.3000,"epx":59.364,"epy":68.891,"epv":22.540,"magvar":14.4,"speed":4.874,"climb":6.300,"eps":137.78,"epc":45.08,"geoidSep":-19.600,"eph":98.800,"sep":100.510}
{"class":"SKY","gdop":8.87,"hdop":5.20,"pdop":5.29,"tdop":4.62,"xdop":3.96,"ydop":4.59,"vdop":0.98,"uSat":4}
$GPGSA,A,3,23,13,32,20,,,,,,,,,5.29,5.20,0.98*0A
{"class":"TPV","mode":3,"time":"2011-11-11T07:17:38.000Z","ept":0.005,"lat":44.068798333,"lon":-121.314191667,"altHAE":1117.7000,"altMSL":1137.3000,"alt":1137.3000,"epx":59.364,"epy":68.891,"epv":22.540,"magvar":14.4,"speed":4.874,"climb":6.300,"eps":137.78,"epc":45.08,"geoidSep":-19.600,"eph":98.800,"sep":100.510}
{"class":"SKY","gdop":8.87,"hdop":5.20,"pdop":5.29,"tdop":4.62,"xdop":3.96,"ydop":4.59,"vdop":0.98,"uSat":4}
$GPGSV,2,1,06,20,73,204,41,23,56,298,37,32,54,148,43,48,37,196,45*71
$GPGSV,2,2,06,13,30,282,34,31,,,31*41
{"class":"TPV","mode":3,"time":"2011-11-11T07:17:38.000Z","ept":0.005,"lat":44.068798333,"lon":-121.314191667,"altHAE":1117.7000,"altMSL":1137.3000,"alt":1137.3000,"epx":59.364,"epy":68.891,"epv":22.540,"magvar":14.4,"speed":4.874,"climb":6.300,"eps":137.78,"epc":45.08,"geoidSep":-19.600,"eph":98.800,"sep":100.510}
{"class":"SKY","gdop":8.87,"hdop":5.20,"pdop":5.29,"tdop":4.62,"xdop":3.96,"ydop":4.59,"vdop":0.98,"nSat":6,"uSat":4,"satellites":[{"PRN":20,"gnssid":0,"svid":20,"az":204.0,"el":73.0,"ss":41.0,"used":true},{"PRN":23,"gnssid":0,"svid":23,"az":298.0,"el":56.0,"ss":37.0,"used":true},{"PRN":32,"gnssid":0,"svid":32,"az":148.0,"el":54.0,"ss":43.0,"used":true},{"PRN":48,"gnssid":1,"svid":135,"az":196.0,"el":37.0,"ss":45.0,"used":false},{"PRN":13,"gnssid":0,"svid":13,"az":282.0,"el":30.0,"ss":34.0,"used":true},{"PRN":31,"gnssid":0,"svid":31,"az":0.0,"el":0.0,"ss":31.0,"used":false}]}
$GPRMC,071738.000,A,4404.1279,N,12118.8515,W,0.05,0.00,111111,,,A*78
{"class":"TPV","mode":3,"time":"2011-11-11T07:17:38.000Z","ept":0.005,"lat":44.068798333,"lon":-121.314191667,"altHAE":1117.7000,"altMSL":1137.3000,"alt":1137.3000,"epx":59.364,"epy":68.891,"epv":22.540,"track":0.0000,"magtrack":14.4184,"magvar":14.4,"speed":0.026,"climb":6.300,"eps":137.78,"epc":45.08,"geoidSep":-19.600,"eph":98.800,"sep":100.510}
$GPGGA,071739.000,4404.1284,N,12118.8506,W,1,4,5.20,1135.9,M,-19.6,M,,*51
{"class":"TPV","mode":3,"time":"2011-11-11T07:17:39.000Z","ept":0.005,"lat":44.068806667,"lon":-121.314176667,"altHAE":1116.3000,"altMSL":1135.9000,"alt":1135.9000,"epx":59.364,"epy":68.891,"epv":22.540,"magvar":14.4,"speed":1.517,"climb":-1.400,"eps":137.78,"epc":45.08,"geoidSep":-19.600,"eph":98.800,"sep":100.510}
{"class":"SKY","gdop":8.87,"hdop":5.20,"pdop":5.29,"tdop":4.62,"xdop":3.96,"ydop":4.59,"vdop":0.98,"uSat":4}
$GPGSA,A,3,23,13,32,20,,,,,,,,,5.29,5.20,0.98*0A
{"class":"TPV","mode":3,"time":"2011-11-11T07:17:39.000Z","ept":0.005,"lat":44.068806667,"lon":-121.314176667,"altHAE":1116.3000,"altMSL":1135.9000,"alt":1135.9000,"epx":59.364,"epy":68.891,"epv":22.540,"magvar":14.4,"speed":1.517,"climb":-1.400,"eps":137.78,"epc":45.08,"geoidSep":-19.600,"eph":98.800,"sep":100.510}
{"class":"SKY","gdop":8.87,"hdop":5.20,"pdop":5.29,"tdop":4.62,"xdop":3.96,"ydop":4.59,"vdop":0.98,"uSat":4}
$GPGSV,2,1,06,20,73,204,41,23,56,298,37,32,54,148,43,48,37,196,44*70
$GPGSV,2,2,06,13,30,282,34,31,,,31*41
{"class":"TPV","mode":3,"time":"2011-11-11T07:17:39.000Z","ept":0.005,"lat":44.068806667,"lon":-121.314176667,"altHAE":1116.3000,"altMSL":1135.9000,"alt":1135.9000,"epx":59.364,"epy":68.891,"epv":22.540,"magvar":14.4,"speed":1.517,"climb":-1.400,"eps":137.78,"epc":45.08,"geoidSep":-19.600,"eph":98.800,"sep":100.510}
{"class":"SKY","gdop":8.87,"hdop":5.20,"pdop":5.29,"tdop":4.62,"xdop":3.96,"ydop":4.59,"vdop":0.98,"nSat":6,"uSat":4,"satellites":[{"PRN":20,"gnssid":0,"svid":20,"az":204.0,"el":73.0,"ss":41.0,"used":true},{"PRN":23,"gnssid":0,"svid":23,"az":298.0,"el":56.0,"ss":37.0,"used":true},{"PRN":32,"gnssid":0,"svid":32,"az":148.0,"el":54.0,"ss":43.0,"used":true},{"PRN":48,"gnssid":1,"svid":135,"az":196.0,"el":37.0,"ss":44.0,"used":false},{"PRN":13,"gnssid":0,"svid":13,"az":282.0,"el":30.0,"ss":34.0,"used":true},{"PRN":31,"gnssid":0,"svid":31,"az":0.0,"el":0.0,"ss":31.0,"used":false}]}
$GPRMC,071739.000,A,4404.1284,N,12118.8506,W,0.05,0.00,111111,,,A*79
{"class":"TPV","mode":3,"time":"2011-11-11T07:17:39.000Z","ept":0.005,"lat":44.068806667,"lon":-121.314176667,"altHAE":1116.3000,"altMSL":1135.9000,"alt":1135.9000,"epx":59.364,"epy":68.891,"epv":22.540,"track":0.0000,"magtrack":14.4184,"magvar":14.4,"speed":0.026,"climb":-1.400,"eps":137.78,"epc":45.08,"geoidSep":-19.600,"eph":98.800,"sep":100.510}
$GPGGA,071740.000,4404.1303,N,12118.8486,W,1,4,5.20,1134.7,M,-19.6,M,,*57
{"class":"TPV","mode":3,"time":"2011-11-11T07:17:40.000Z","ept":0.005,"lat":44.068838333,"lon":-121.314143333,"altHAE":1115.1000,"altMSL":1134.7000,"alt":1134.7000,"epx":59.364,"epy":68.891,"epv":22.540,"magvar":14.4,"speed":4.417,"climb":-1.200,"eps":137.78,"epc":45.08,"geoidSep":-19.600,"eph":98.800,"sep":100.510}
{"class":"SKY","gdop":8.87,"hdop":5.20,"pdop":5.29,"tdop":4.62,"xdop":3.96,"ydop":4.59,"vdop":0.98,"uSat":4}
$GPGSA,A,3,23,13,32,20,,,,,,,,,5.29,5.20,0.98*0A
{"class":"TPV","mode":3,"time":"2011-11-11T07:17:40.000Z","ept":0.005,"lat":44.068838333,"lon":-121.314143333,"altHAE":1115.1000,"altMSL":1134.7000,"alt":1134.7000,"epx":59.364,"epy":68.891,"epv":22.540,"magvar":14.4,"speed":4.417,"climb":-1.200,"eps":137.78,"epc":45.08,"geoidSep":-19.600,"eph":98.800,"sep":100.510}
{"class":"SKY","gdop":8.87,"hdop":5.20,"pdop":5.29,"tdop":4.62,"xdop":3.96,"ydop":4.59,"vdop":0.98,"uSat":4}
$GPGSV,2,1,06,20,73,204,41,23,56,298,36,32,54,148,43,48,37,196,45*70
$GPGSV,2,2,06,13,30,282,34,31,,,31*41
{"class":"TPV","mode":3,"time":"2011-11-11T07:17:40.000Z","ept":0.005,"lat":44.068838333,"lon":-121.314143333,"altHAE":1115.1000,"altMSL":1134.7000,"alt":1134.7000,"epx":59.364,"epy":68.891,"epv":22.540,"magvar":14.4,"speed":4.417,"climb":-1.200,"eps":137.78,"epc":45.08,"geoidSep":-19.600,"eph":98.800,"sep":100.510}
{"class":"SKY","gdop":8.87,"hdop":5.20,"pdop":5.29,"tdop":4.62,"xdop":3.96,"ydop":4.59,"vdop":0.98,"nSat":6,"uSat":4,"satellites":[{"PRN":20,"gnssid":0,"svid":20,"az":204.0,"el":73.0,"ss":41.0,"used":true},{"PRN":23,"gnssid":0,"svid":23,"az":298.0,"el":56.0,"ss":36.0,"used":true},{"PRN":32,"gnssid":0,"svid":32,"az":148.0,"el":54.0,"ss":43.0,"used":true},{"PRN":48,"gnssid":1,"svid":135,"az":196.0,"el":37.0,"ss":45.0,"used":false},{"PRN":13,"gnssid":0,"svid":13,"az":282.0,"el":30.0,"ss":34.0,"used":true},{"PRN":31,"gnssid":0,"svid":31,"az":0.0,"el":0.0,"ss":31.0,"used":false}]}
$GPRMC,071740.000,A,4404.1303,N,12118.8486,W,0.11,0.00,111111,,,A*75
{"class":"TPV","mode":3,"time":"2011-11-11T07:17:40.000Z","ept":0.005,"lat":44.068838333,"lon":-121.314143333,"altHAE":1115.1000,"altMSL":1134.7000,"alt":1134.7000,"epx":59.364,"epy":68.891,"epv":22.540,"track":0.0000,"magtrack":14.4184,"magvar":14.4,"speed":0.057,"climb":-1.200,"eps":137.78,"epc":45.08,"geoidSep":-19.600,"eph":98.800,"sep":100.510}
$GPGGA,071741.000,4404.1316,N,12118.8473,W,1,4,5.20,1135.3,M,-19.6,M,,*5D
{"class":"TPV","mode":3,"time":"2011-11-11T07:17:41.000Z","ept":0.005,"lat":44.068860000,"lon":-121.314121667,"altHAE":1115.7000,"altMSL":1135.3000,"alt":1135.3000,"epx":59.364,"epy":68.891,"epv":22.540,"magvar":14.4,"speed":2.968,"climb":0.600,"eps":137.78,"epc":45.08,"geoidSep":-19.600,"eph":98.800,"sep":100.510}
{"class":"SKY","gdop":8.87,"hdop":5.20,"pdop":5.29,"tdop":4.62,"xdop":3.96,"ydop":4.59,"vdop":0.98,"uSat":4}
$GPGSA,A,3,23,13,32,20,,,,,,,,,5.29,5.20,0.98*0A
{"class":"TPV","mode":3,"time":"2011-11-11T07:17:41.000Z","ept":0.005,"lat":44.068860000,"lon":-121.314121667,"altHAE":1115.7000,"altMSL":1135.3000,"alt":1135.3000,"epx":59.364,"epy":68.891,"epv":22.540,"magvar":14.4,"speed":2.968,"climb":0.600,"eps":137.78,"epc":45.08,"geoidSep":-19.600,"eph":98.800,"sep":100.510}
{"class":"SKY","gdop":8.87,"hdop":5.20,"pdop":5.29,"tdop":4.62,"xdop":3.96,"ydop":4.59,"vdop":0.98,"uSat":4}
$GPGSV,2,1,06,20,73,204,41,23,56,298,36,32,54,148,43,48,37,196,45*70
$GPGSV,2,2,06,13,30,282,34,31,,,31*41
{"class":"TPV","mode":3,"time":"2011-11-11T07:17:41.000Z","ept":0.005,"lat":44.068860000,"lon":-121.314121667,"altHAE":1115.7000,"altMSL":1135.3000,"alt":1135.3000,"epx":59.364,"epy":68.891,"epv":22.540,"magvar":14.4,"speed":2.968,"climb":0.600,"eps":137.78,"epc":45.08,"geoidSep":-19.600,"eph":98.800,"sep":100.510}
{"class":"SKY","gdop":8.87,"hdop":5.20,"pdop":5.29,"tdop":4.62,"xdop":3.96,"ydop":4.59,"vdop":0.98,"nSat":6,"uSat":4,"satellites":[{"PRN":20,"gnssid":0,"svid":20,"az":204.0,"el":73.0,"ss":41.0,"used":true},{"PRN":23,"gnssid":0,"svid":23,"az":298.0,"el":56.0,"ss":36.0,"used":true},{"PRN":32,"gnssid":0,"svid":32,"az":148.0,"el":54.0,"ss":43.0,"used":true},{"PRN":48,"gnssid":1,"svid":135,"az":196.0,"el":37.0,"ss":45.0,"used":false},{"PRN":13,"gnssid":0,"svid":13,"az":282.0,"el":30.0,"ss":34.0,"used":true},{"PRN":31,"gnssid":0,"svid":31,"az":0.0,"el":0.0,"ss":31.0,"used":false}]}
$GPRMC,071741.000,A,4404.1316,N,12118.8473,W,0.08,0.00,111111,,,A*72
{"class":"TPV","mode":3,"time":"2011-11-11T07:17:41.000Z","ept":0.005,"lat":44.068860000,"lon":-121.314121667,"altHAE":1115.7000,"altMSL":1135.3000,"alt":1135.3000,"epx":59.364,"epy":68.891,"epv":22.540,"track":0.0000,"magtrack":14.4184,"magvar":14.4,"speed":0.041,"climb":0.600,"eps":137.78,"epc":45.08,"geoidSep":-19.600,"eph":98.800,"sep":100.510}
$GPGGA,071742.000,4404.1314,N,12118.8476,W,1,4,5.20,1134.4,M,-19.6,M,,*5F
{"class":"TPV","mode":3,"time":"2011-11-11T07:17:42.000Z","ept":0.005,"lat":44.068856667,"lon":-121.314126667,"altHAE":1114.8000,"altMSL":1134.4000,"alt":1134.4000,"epx":59.364,"epy":68.891,"epv":22.540,"magvar":14.4,"speed":0.546,"climb":-0.900,"eps":137.78,"epc":45.08,"geoidSep":-19.600,"eph":98.800,"sep":100.510}
{"class":"SKY","gdop":8.87,"hdop":5.20,"pdop":5.29,"tdop":4.62,"xdop":3.96,"ydop":4.59,"vdop":0.98,"uSat":4}
$GPGSA,A,3,23,13,32,20,,,,,,,,,5.29,5.20,0.98*0A
{"class":"TPV","mode":3,"time":"2011-11-11T07:17:42.000Z","ept":0.005,"lat":44.068856667,"lon":-121.314126667,"altHAE":1114.8000,"altMSL":1134.4000,"alt":1134.4000,"epx":59.364,"epy":68.891,"epv":22.540,"magvar":14.4,"speed":0.546,"climb":-0.900,"eps":137.78,"epc":45.08,"geoidSep":-19.600,"eph":98.800,"sep":100.510}
{"class":"SKY","gdop":8.87,"hdop":5.20,"pdop":5.29,"tdop":4.62,"xdop":3.96,"ydop":4.59,"vdop":0.98,"uSat":4}
$GPGSV,2,1,06,20,73,204,41,23,56,298,36,32,54,148,43,48,37,196,45*70
$GPGSV,2,2,06,13,30,282,34,31,,,30*40
{"class":"TPV","mode":3,"time":"2011-11-11T07:17:42.000Z","ept":0.005,"lat":44.068856667,"lon":-121.314126667,"altHAE":1114.8000,"altMSL":1134.4000,"alt":1134.4000,"epx":59.364,"epy":68.891,"epv":22.540,"magvar":14.4,"speed":0.546,"climb":-0.900,"eps":137.78,"epc":45.08,"geoidSep":-19.600,"eph":98.800,"sep":100.510}
{"class":"SKY","gdop":8.87,"hdop":5.20,"pdop":5.29,"tdop":4.62,"xdop":3.96,"ydop":4.59,"vdop":0.98,"nSat":6,"uSat":4,"satellites":[{"PRN":20,"gnssid":0,"svid":20,"az":204.0,"el":73.0,"ss":41.0,"used":true},{"PRN":23,"gnssid":0,"svid":23,"az":298.0,"el":56.0,"ss":36.0,"used":true},{"PRN":32,"gnssid":0,"svid":32,"az":148.0,"el":54.0,"ss":43.0,"used":true},{"PRN":48,"gnssid":1,"svid":135,"az":196.0,"el":37.0,"ss":45.0,"used":false},{"PRN":13,"gnssid":0,"svid":13,"az":282.0,"el":30.0,"ss":34.0,"used":true},{"PRN":31,"gnssid":0,"svid":31,"az":0.0,"el":0.0,"ss":30.0,"used":false}]}
$GPRMC,071742.000,A,4404.1314,N,12118.8476,W,0.03,0.00,111111,,,A*7D
{"class":"TPV","mode":3,"time":"2011-11-11T07:17:42.000Z","ept":0.005,"lat":44.068856667,"lon":-121.314126667,"altHAE":1114.8000,"altMSL":1134.4000,"alt":1134.4000,"epx":59.364,"epy":68.891,"epv":22.540,"track":0.0000,"magtrack":14.4184,"magvar":14.4,"speed":0.015,"climb":-0.900,"eps":137.78,"epc":45.08,"geoidSep":-19.600,"eph":98.800,"sep":100.510}
$GPGGA,071743.000,4404.1312,N,12118.8480,W,1,4,5.20,1134.6,M,-19.6,M,,*53
{"class":"TPV","mode":3,"time":"2011-11-11T07:17:43.000Z","ept":0.005,"lat":44.068853333,"lon":-121.314133333,"altHAE":1115.0000,"altMSL":1134.6000,"alt":1134.6000,"epx":59.364,"epy":68.891,"epv":22.540,"magvar":14.4,"speed":0.650,"climb":0.200,"eps":137.78,"epc":45.08,"geoidSep":-19.600,"eph":98.800,"sep":100.510}
{"class":"SKY","gdop":8.87,"hdop":5.20,"pdop":5.29,"tdop":4.62,"xdop":3.96,"ydop":4.59,"vdop":0.98,"uSat":4}
$GPGSA,A,3,23,13,32,20,,,,,,,,,5.29,5.20,0.98*0A
{"class":"TPV","mode":3,"time":"2011-11-11T07:17:43.000Z","ept":0.005,"lat":44.068853333,"lon":-121.314133333,"altHAE":1115.0000,"altMSL":1134.6000,"alt":1134.6000,"epx":59.364,"epy":68.891,"epv":22.540,"magvar":14.4,"speed":0.650,"climb":0.200,"eps":137.78,"epc":45.08,"geoidSep":-19.600,"eph":98.800,"sep":100.510}
{"class":"SKY","gdop":8.87,"hdop":5.20,"pdop":5.29,"tdop":4.62,"xdop":3.96,"ydop":4.59,"vdop":0.98,"uSat":4}
$GPGSV,2,1,06,20,73,204,41,23,56,298,36,32,54,148,43,48,37,196,45*70
$GPGSV,2,2,06,13,30,282,34,31,,,31*41
{"class":"TPV","mode":3,"time":"2011-11-11T07:17:43.000Z","ept":0.005,"lat":44.068853333,"lon":-121.314133333,"altHAE":1115.0000,"altMSL":1134.6000,"alt":1134.6000,"epx":59.364,"epy":68.891,"epv":22.540,"magvar":14.4,"speed":0.650,"climb":0.200,"eps":137.78,"epc":45.08,"geoidSep":-19.600,"eph":98.800,"sep":100.510}
{"class":"SKY","gdop":8.87,"hdop":5.20,"pdop":5.29,"tdop":4.62,"xdop":3.96,"ydop":4.59,"vdop":0.98,"nSat":6,"uSat":4,"satellites":[{"PRN":20,"gnssid":0,"svid":20,"az":204.0,"el":73.0,"ss":41.0,"used":true},{"PRN":23,"gnssid":0,"svid":23,"az":298.0,"el":56.0,"ss":36.0,"used":true},{"PRN":32,"gnssid":0,"svid":32,"az":148.0,"el":54.0,"ss":43.0,"used":true},{"PRN":48,"gnssid":1,"svid":135,"az":196.0,"el":37.0,"ss":45.0,"used":false},{"PRN":13,"gnssid":0,"svid":13,"az":282.0,"el":30.0,"ss":34.0,"used":true},{"PRN":31,"gnssid":0,"svid":31,"az":0.0,"el":0.0,"ss":31.0,"used":false}]}
