$GPZDA,233739.00,12,04,2019,00,00*64
$GPGGA,233739.00,4404.1298398,N,12118.8427708,W,1,00,,1126.37,M,-22.154,M,,*7B
$GPRMC,233739.00,A,4404.1298398,N,12118.8427708,W,,,120419,14.4,E*72
$GPGSA,A,2,,,,,,,,,,,,,,,*1D
{"class":"TPV","mode":2,"time":"2019-04-12T23:37:39.000Z","ept":0.005,"lat":44.068830663,"lon":-121.314046180,"altHAE":1104.2185,"altMSL":1126.3729,"alt":1126.3729,"magvar":14.4}
$GPZDA,233739.00,01,11,2019,00,00*62
$GPGGA,233739.00,4404.1298557,N,12118.8429104,W,1,03,,1126.37,M,-22.154,M,,*79
$GPRMC,233739.00,A,4404.1298557,N,12118.8429104,W,0.0000,0.000,011119,14.4,E*45
$GPGSA,A,2,,,,,,,,,,,,,,,*1D
{"class":"TPV","mode":2,"time":"2019-11-01T23:37:39.000Z","leapseconds":18,"ept":0.005,"lat":44.068830928,"lon":-121.314048507,"altHAE":1104.2180,"altMSL":1126.3729,"alt":1126.3729,"track":0.0000,"magtrack":14.4184,"magvar":14.4,"speed":0.000}
$GPGGA,233739.00,4404.1298557,N,12118.8429104,W,1,03,3.70,1126.37,M,-22.154,M,,*63
$GPRMC,233739.00,A,4404.1298557,N,12118.8429104,W,0.0000,0.000,011119,14.4,E*45
$GPGSA,A,2,,,,,,,,,,,,,3.8,3.7,1.0*3D
{"class":"TPV","mode":2,"time":"2019-11-01T23:37:39.000Z","leapseconds":18,"ept":0.005,"lat":44.068830928,"lon":-121.314048507,"altHAE":1104.2180,"altMSL":1126.3729,"alt":1126.3729,"track":0.0000,"magtrack":14.4184,"magvar":14.4,"speed":0.000,"eph":70.370,"sep":72.875}
{"class":"SKY","hdop":3.70,"pdop":3.84,"tdop":0.92,"vdop":1.00}
$GPZDA,233740.00,01,11,2019,00,00*6C
$GPGGA,233740.00,4404.1298400,N,12118.8427865,W,1,03,,1126.37,M,-22.154,M,,*74
$GPRMC,233740.00,A,4404.1298400,N,12118.8427865,W,0.3266,,011119,14.4,E*67
$GPGSA,A,2,,,,,,,,,,,,,,,*1D
{"class":"TPV","mode":2,"time":"2019-11-01T23:37:40.000Z","leapseconds":18,"ept":0.005,"lat":44.068830666,"lon":-121.314046441,"altHAE":1104.2184,"altMSL":1126.3728,"alt":1126.3728,"magvar":14.4,"speed":0.168}
$GPZDA,233740.00,01,11,2019,00,00*6C
$GPGGA,233740.00,4404.1298557,N,12118.8429104,W,1,03,,1126.37,M,-22.154,M,,*77
$GPRMC,233740.00,A,4404.1298557,N,12118.8429104,W,0.3266,0.000,011119,14.4,E*4A
$GPGSA,A,2,,,,,,,,,,,,,,,*1D
{"class":"TPV","mode":2,"time":"2019-11-01T23:37:40.000Z","leapseconds":18,"ept":0.005,"lat":44.068830928,"lon":-121.314048507,"altHAE":1104.2180,"altMSL":1126.3728,"alt":1126.3728,"track":0.0000,"magtrack":14.4184,"magvar":14.4,"speed":0.168}
$GPGGA,233740.47,,S,,W,1,03,,,M,,M,,*4C
$GPRMC,233740.47,A,,S,,W,,,011119,,*07
$GPGSA,A,2,,,,,,,,,,,,,,,*1D
{"class":"TPV","mode":2,"time":"2019-11-01T23:37:40.469Z","leapseconds":18,"ept":0.005}
$GPGGA,233740.47,,S,,W,1,03,3.71,,M,,M,,*57
$GPRMC,233740.47,A,,S,,W,,,011119,,*07
$GPGSA,A,2,,,,,,,,,,,,,3.8,3.7,1.0*3D
{"class":"TPV","mode":2,"time":"2019-11-01T23:37:40.469Z","leapseconds":18,"ept":0.005,"eph":70.416,"sep":72.919}
{"class":"SKY","hdop":3.71,"pdop":3.84,"tdop":0.92,"vdop":1.00}
$GPZDA,233741.00,01,11,2019,00,00*6D
$GPGGA,233741.00,4404.1298126,N,12118.8427500,W,1,03,,1126.37,M,-22.154,M,,*7A
$GPRMC,233741.00,A,4404.1298126,N,12118.8427500,W,,,011119,14.4,E*76
$GPGSA,A,2,,,,,,,,,,,,,,,*1D
{"class":"TPV","mode":2,"time":"2019-11-01T23:37:41.000Z","leapseconds":18,"ept":0.005,"lat":44.068830209,"lon":-121.314045834,"altHAE":1104.2182,"altMSL":1126.3726,"alt":1126.3726,"magvar":14.4}
$GPZDA,233741.00,01,11,2019,00,00*6D
$GPGGA,233741.00,4404.1298506,N,12118.8429104,W,1,03,,1126.37,M,-22.154,M,,*72
$GPRMC,233741.00,A,4404.1298506,N,12118.8429104,W,0.0000,0.000,011119,14.4,E*4E
$GPGSA,A,2,,,,,,,,,,,,,,,*1D
{"class":"TPV","mode":2,"time":"2019-11-01T23:37:41.000Z","leapseconds":18,"ept":0.005,"lat":44.068830844,"lon":-121.314048507,"altHAE":1104.2180,"altMSL":1126.3726,"alt":1126.3726,"track":0.0000,"magtrack":14.4184,"magvar":14.4,"speed":0.000}
$GPGGA,233741.00,4404.1298506,N,12118.8429104,W,1,03,3.71,1126.37,M,-22.154,M,,*69
$GPRMC,233741.00,A,4404.1298506,N,12118.8429104,W,0.0000,0.000,011119,14.4,E*4E
$GPGSA,A,2,,,,,,,,,,,,,3.8,3.7,1.0*3D
{"class":"TPV","mode":2,"time":"2019-11-01T23:37:41.000Z","leapseconds":18,"ept":0.005,"lat":44.068830844,"lon":-121.314048507,"altHAE":1104.2180,"altMSL":1126.3726,"alt":1126.3726,"track":0.0000,"magtrack":14.4184,"magvar":14.4,"speed":0.000,"eph":70.416,"sep":72.919}
{"class":"SKY","hdop":3.71,"pdop":3.84,"tdop":0.92,"vdop":1.00}
$GPZDA,233742.00,01,11,2019,00,00*6E
$GPGGA,233742.00,4404.1298252,N,12118.8427547,W,1,03,,1126.37,M,-22.154,M,,*7A
$GPRMC,233742.00,A,4404.1298252,N,12118.8427547,W,0.4143,,011119,14.4,E*6A
$GPGSA,A,2,,,,,,,,,,,,,,,*1D
{"class":"TPV","mode":2,"time":"2019-11-01T23:37:42.000Z","leapseconds":18,"ept":0.005,"lat":44.068830420,"lon":-121.314045912,"altHAE":1104.2184,"altMSL":1126.3729,"alt":1126.3729,"magvar":14.4,"speed":0.213}
$GPZDA,233742.00,01,11,2019,00,00*6E
$GPGGA,233742.00,4404.1298506,N,12118.8429054,W,1,03,,1126.37,M,-22.154,M,,*75
$GPRMC,233742.00,A,4404.1298506,N,12118.8429054,W,0.4143,0.000,011119,14.4,E*4B
$GPGSA,A,2,,,,,,,,,,,,,,,*1D
{"class":"TPV","mode":2,"time":"2019-11-01T23:37:42.000Z","leapseconds":18,"ept":0.005,"lat":44.068830844,"lon":-121.314048423,"altHAE":1104.2180,"altMSL":1126.3729,"alt":1126.3729,"track":0.0000,"magtrack":14.4184,"magvar":14.4,"speed":0.213}
$GPGGA,233742.00,4404.1298506,N,12118.8429054,W,1,03,3.71,1126.37,M,-22.154,M,,*6E
$GPRMC,233742.00,A,4404.1298506,N,12118.8429054,W,0.4143,0.000,011119,14.4,E*4B
$GPGSA,A,2,,,,,,,,,,,,,3.8,3.7,1.0*3D
{"class":"TPV","mode":2,"time":"2019-11-01T23:37:42.000Z","leapseconds":18,"ept":0.005,"lat":44.068830844,"lon":-121.314048423,"altHAE":1104.2180,"altMSL":1126.3729,"alt":1126.3729,"track":0.0000,"magtrack":14.4184,"magvar":14.4,"speed":0.213,"eph":70.461,"sep":72.962}
{"class":"SKY","hdop":3.71,"pdop":3.84,"tdop":0.92,"vdop":1.00}
$GPZDA,233743.00,01,11,2019,00,00*6F
$GPGGA,233743.00,4404.1298461,N,12118.8427864,W,1,03,,1126.37,M,-22.154,M,,*71
$GPRMC,233743.00,A,4404.1298461,N,12118.8427864,W,0.3093,,011119,14.4,E*6A
$GPGSA,A,2,,,,,,,,,,,,,,,*1D
{"class":"TPV","mode":2,"time":"2019-11-01T23:37:43.000Z","leapseconds":18,"ept":0.005,"lat":44.068830768,"lon":-121.314046440,"altHAE":1104.2185,"altMSL":1126.3729,"alt":1126.3729,"magvar":14.4,"speed":0.159}
$GPZDA,233743.00,01,11,2019,00,00*6F
$GPGGA,233743.00,4404.1298506,N,12118.8429054,W,1,03,,1126.37,M,-22.154,M,,*74
$GPRMC,233743.00,A,4404.1298506,N,12118.8429054,W,0.3093,0.000,011119,14.4,E*41
$GPGSA,A,2,,,,,,,,,,,,,,,*1D
{"class":"TPV","mode":2,"time":"2019-11-01T23:37:43.000Z","leapseconds":18,"ept":0.005,"lat":44.068830844,"lon":-121.314048423,"altHAE":1104.2180,"altMSL":1126.3729,"alt":1126.3729,"track":0.0000,"magtrack":14.4184,"magvar":14.4,"speed":0.159}
$GPGGA,233743.00,4404.1298506,N,12118.8429054,W,1,03,3.71,1126.37,M,-22.154,M,,*6F
$GPRMC,233743.00,A,4404.1298506,N,12118.8429054,W,0.3093,0.000,011119,14.4,E*41
$GPGSA,A,2,,,,,,,,,,,,,3.8,3.7,1.0*3D
{"class":"TPV","mode":2,"time":"2019-11-01T23:37:43.000Z","leapseconds":18,"ept":0.005,"lat":44.068830844,"lon":-121.314048423,"altHAE":1104.2180,"altMSL":1126.3729,"alt":1126.3729,"track":0.0000,"magtrack":14.4184,"magvar":14.4,"speed":0.159,"eph":70.461,"sep":72.962}
{"class":"SKY","hdop":3.71,"pdop":3.84,"tdop":0.92,"vdop":1.00}
$GPGSV,1,1,01,16,18,141,26*46
{"class":"SKY","time":"2019-11-01T23:37:43.500Z","hdop":3.71,"pdop":3.84,"tdop":0.92,"vdop":1.00,"nSat":1,"uSat":1,"satellites":[{"PRN":16,"gnssid":0,"svid":16,"az":140.8,"el":18.5,"ss":26.0,"used":true}]}
$GPGSV,1,1,02,16,18,141,26,03,76,287,37*7E
{"class":"SKY","time":"2019-11-01T23:37:43.500Z","hdop":3.71,"pdop":3.84,"tdop":0.92,"vdop":1.00,"nSat":2,"uSat":2,"satellites":[{"PRN":16,"gnssid":0,"svid":16,"az":140.8,"el":18.5,"ss":26.0,"used":true},{"PRN":3,"gnssid":0,"svid":3,"az":287.3,"el":76.1,"ss":37.0,"used":true}]}
$GPGSV,1,1,03,16,18,141,26,03,76,287,37,31,40,052,40*4A
{"class":"SKY","time":"2019-11-01T23:37:43.500Z","hdop":3.71,"pdop":3.84,"tdop":0.92,"vdop":1.00,"nSat":3,"uSat":3,"satellites":[{"PRN":16,"gnssid":0,"svid":16,"az":140.8,"el":18.5,"ss":26.0,"used":true},{"PRN":3,"gnssid":0,"svid":3,"az":287.3,"el":76.1,"ss":37.0,"used":true},{"PRN":31,"gnssid":0,"svid":31,"az":52.0,"el":40.1,"ss":40.0,"used":true}]}
$GPGSV,1,1,04,16,18,141,26,03,76,287,37,31,40,052,40,26,33,113,32*7B
{"class":"SKY","time":"2019-11-01T23:37:43.500Z","gdop":9.05,"hdop":3.71,"pdop":3.84,"tdop":0.92,"xdop":2.97,"ydop":1.95,"vdop":1.00,"nSat":4,"uSat":4,"satellites":[{"PRN":16,"gnssid":0,"svid":16,"az":140.8,"el":18.5,"ss":26.0,"used":true},{"PRN":3,"gnssid":0,"svid":3,"az":287.3,"el":76.1,"ss":37.0,"used":true},{"PRN":31,"gnssid":0,"svid":31,"az":52.0,"el":40.1,"ss":40.0,"used":true},{"PRN":26,"gnssid":0,"svid":26,"az":113.4,"el":33.4,"ss":32.0,"used":true}]}
$GPGSV,2,1,05,16,18,141,26,03,76,287,37,31,40,052,40,26,33,113,32*79
$GPGSV,2,2,05,09,16,275,00*42
{"class":"SKY","time":"2019-11-01T23:37:43.500Z","gdop":9.05,"hdop":3.71,"pdop":3.84,"tdop":0.92,"xdop":2.97,"ydop":1.95,"vdop":1.00,"nSat":5,"uSat":4,"satellites":[{"PRN":16,"gnssid":0,"svid":16,"az":140.8,"el":18.5,"ss":26.0,"used":true},{"PRN":3,"gnssid":0,"svid":3,"az":287.3,"el":76.1,"ss":37.0,"used":true},{"PRN":31,"gnssid":0,"svid":31,"az":52.0,"el":40.1,"ss":40.0,"used":true},{"PRN":26,"gnssid":0,"svid":26,"az":113.4,"el":33.4,"ss":32.0,"used":true},{"PRN":9,"gnssid":0,"svid":9,"az":275.1,"el":15.6,"ss":0.0,"used":false}]}
$GPGSV,2,1,06,16,18,141,26,03,76,287,37,31,40,052,40,26,33,113,32*7A
$GPGSV,2,2,06,09,16,275,00,23,46,284,30*7F
{"class":"SKY","time":"2019-11-01T23:37:43.500Z","gdop":9.05,"hdop":3.71,"pdop":3.84,"tdop":0.92,"xdop":2.97,"ydop":1.95,"vdop":1.00,"nSat":6,"uSat":5,"satellites":[{"PRN":16,"gnssid":0,"svid":16,"az":140.8,"el":18.5,"ss":26.0,"used":true},{"PRN":3,"gnssid":0,"svid":3,"az":287.3,"el":76.1,"ss":37.0,"used":true},{"PRN":31,"gnssid":0,"svid":31,"az":52.0,"el":40.1,"ss":40.0,"used":true},{"PRN":26,"gnssid":0,"svid":26,"az":113.4,"el":33.4,"ss":32.0,"used":true},{"PRN":9,"gnssid":0,"svid":9,"az":275.1,"el":15.6,"ss":0.0,"used":false},{"PRN":23,"gnssid":0,"svid":23,"az":284.4,"el":46.0,"ss":30.0,"used":true}]}
$GPGSV,2,1,07,16,18,141,26,03,76,287,37,31,40,052,40,26,33,113,32*7B
$GPGSV,2,2,07,09,16,275,00,23,46,284,30,06,11,325,00*4C
{"class":"SKY","time":"2019-11-01T23:37:43.500Z","gdop":9.05,"hdop":3.71,"pdop":3.84,"tdop":0.92,"xdop":2.97,"ydop":1.95,"vdop":1.00,"nSat":7,"uSat":5,"satellites":[{"PRN":16,"gnssid":0,"svid":16,"az":140.8,"el":18.5,"ss":26.0,"used":true},{"PRN":3,"gnssid":0,"svid":3,"az":287.3,"el":76.1,"ss":37.0,"used":true},{"PRN":31,"gnssid":0,"svid":31,"az":52.0,"el":40.1,"ss":40.0,"used":true},{"PRN":26,"gnssid":0,"svid":26,"az":113.4,"el":33.4,"ss":32.0,"used":true},{"PRN":9,"gnssid":0,"svid":9,"az":275.1,"el":15.6,"ss":0.0,"used":false},{"PRN":23,"gnssid":0,"svid":23,"az":284.4,"el":46.0,"ss":30.0,"used":true},{"PRN":6,"gnssid":0,"svid":6,"az":325.2,"el":11.3,"ss":0.0,"used":false}]}
$GPGSV,2,1,08,16,18,141,26,03,76,287,37,31,40,052,40,26,33,113,32*74
$GPGSV,2,2,08,09,16,275,00,23,46,284,30,06,11,325,00,14,26,076,33*73
{"class":"SKY","time":"2019-11-01T23:37:43.500Z","gdop":9.05,"hdop":3.71,"pdop":3.84,"tdop":0.92,"xdop":2.97,"ydop":1.95,"vdop":1.00,"nSat":8,"uSat":6,"satellites":[{"PRN":16,"gnssid":0,"svid":16,"az":140.8,"el":18.5,"ss":26.0,"used":true},{"PRN":3,"gnssid":0,"svid":3,"az":287.3,"el":76.1,"ss":37.0,"used":true},{"PRN":31,"gnssid":0,"svid":31,"az":52.0,"el":40.1,"ss":40.0,"used":true},{"PRN":26,"gnssid":0,"svid":26,"az":113.4,"el":33.4,"ss":32.0,"used":true},{"PRN":9,"gnssid":0,"svid":9,"az":275.1,"el":15.6,"ss":0.0,"used":false},{"PRN":23,"gnssid":0,"svid":23,"az":284.4,"el":46.0,"ss":30.0,"used":true},{"PRN":6,"gnssid":0,"svid":6,"az":325.2,"el":11.3,"ss":0.0,"used":false}]}
$GPGSV,3,1,09,16,18,141,26,03,76,287,37,31,40,052,40,26,33,113,32*74
$GPGSV,3,2,09,09,16,275,00,23,46,284,30,06,11,325,00,14,26,076,33*73
$GPGSV,3,3,09,01,25,212,38*4C
{"class":"SKY","time":"2019-11-01T23:37:43.500Z","gdop":9.05,"hdop":3.71,"pdop":3.84,"tdop":0.92,"xdop":2.97,"ydop":1.95,"vdop":1.00,"nSat":9,"uSat":7,"satellites":[{"PRN":16,"gnssid":0,"svid":16,"az":140.8,"el":18.5,"ss":26.0,"used":true},{"PRN":3,"gnssid":0,"svid":3,"az":287.3,"el":76.1,"ss":37.0,"used":true},{"PRN":31,"gnssid":0,"svid":31,"az":52.0,"el":40.1,"ss":40.0,"used":true},{"PRN":26,"gnssid":0,"svid":26,"az":113.4,"el":33.4,"ss":32.0,"used":true},{"PRN":9,"gnssid":0,"svid":9,"az":275.1,"el":15.6,"ss":0.0,"used":false},{"PRN":23,"gnssid":0,"svid":23,"az":284.4,"el":46.0,"ss":30.0,"used":true},{"PRN":6,"gnssid":0,"svid":6,"az":325.2,"el":11.3,"ss":0.0,"used":false},{"PRN":14,"gnssid":0,"svid":14,"az":76.0,"el":25.8,"ss":33.0,"used":true}]}
$GPGSV,3,1,10,16,18,141,26,03,76,287,37,31,40,052,40,26,33,113,32*7C
$GPGSV,3,2,10,09,16,275,00,23,46,284,30,06,11,325,00,14,26,076,33*7B
$GPGSV,3,3,10,01,25,212,38,22,74,181,37*7B
{"class":"SKY","time":"2019-11-01T23:37:43.500Z","gdop":9.05,"hdop":3.71,"pdop":3.84,"tdop":0.92,"xdop":2.97,"ydop":1.95,"vdop":1.00,"nSat":10,"uSat":8,"satellites":[{"PRN":16,"gnssid":0,"svid":16,"az":140.8,"el":18.5,"ss":26.0,"used":true},{"PRN":3,"gnssid":0,"svid":3,"az":287.3,"el":76.1,"ss":37.0,"used":true},{"PRN":31,"gnssid":0,"svid":31,"az":52.0,"el":40.1,"ss":40.0,"used":true},{"PRN":26,"gnssid":0,"svid":26,"az":113.4,"el":33.4,"ss":32.0,"used":true},{"PRN":9,"gnssid":0,"svid":9,"az":275.1,"el":15.6,"ss":0.0,"used":false},{"PRN":23,"gnssid":0,"svid":23,"az":284.4,"el":46.0,"ss":30.0,"used":true},{"PRN":6,"gnssid":0,"svid":6,"az":325.2,"el":11.3,"ss":0.0,"used":false},{"PRN":14,"gnssid":0,"svid":14,"az":76.0,"el":25.8,"ss":33.0,"used":true},{"PRN":1,"gnssid":0,"svid":1,"az":212.4,"el":24.6,"ss":38.0,"used":true}]}
$GPZDA,233744.00,01,11,2019,00,00*68
$GPGGA,233744.00,4404.1298565,N,12118.8427896,W,1,03,,1126.37,M,-22.154,M,,*7E
$GPRMC,233744.00,A,4404.1298565,N,12118.8427896,W,0.3012,,011119,14.4,E*6C
$GPGSA,A,2,16,3,31,26,23,14,1,22,,,,,,,*1A
{"class":"TPV","mode":2,"time":"2019-11-01T23:37:44.000Z","leapseconds":18,"ept":0.005,"lat":44.068830942,"lon":-121.314046494,"altHAE":1104.2184,"altMSL":1126.3728,"alt":1126.3728,"magvar":14.4,"speed":0.155}
$GPZDA,233744.00,01,11,2019,00,00*68
$GPGGA,233744.00,4404.1298506,N,12118.8429054,W,1,03,,1126.37,M,-22.154,M,,*73
$GPRMC,233744.00,A,4404.1298506,N,12118.8429054,W,0.3012,0.000,011119,14.4,E*4F
$GPGSA,A,2,16,3,31,26,23,14,1,22,,,,,,,*1A
{"class":"TPV","mode":2,"time":"2019-11-01T23:37:44.000Z","leapseconds":18,"ept":0.005,"lat":44.068830844,"lon":-121.314048423,"altHAE":1104.2180,"altMSL":1126.3728,"alt":1126.3728,"track":0.0000,"magtrack":14.4184,"magvar":14.4,"speed":0.155}
$GPGGA,233744.00,4404.1298506,N,12118.8429054,W,1,03,3.71,1126.37,M,-22.154,M,,*68
$GPRMC,233744.00,A,4404.1298506,N,12118.8429054,W,0.3012,0.000,011119,14.4,E*4F
$GPGSA,A,2,16,3,31,26,23,14,1,22,,,,,3.8,3.7,1.0*3A
{"class":"TPV","mode":2,"time":"2019-11-01T23:37:44.000Z","leapseconds":18,"ept":0.005,"lat":44.068830844,"lon":-121.314048423,"altHAE":1104.2180,"altMSL":1126.3728,"alt":1126.3728,"track":0.0000,"magtrack":14.4184,"magvar":14.4,"speed":0.155,"eph":70.461,"sep":72.962}
{"class":"SKY","time":"2019-11-01T23:37:43.500Z","hdop":3.71,"pdop":3.84,"tdop":0.92,"vdop":1.00}
$GPZDA,233745.00,01,11,2019,00,00*69
$GPGGA,233745.00,4404.1298561,N,12118.8427833,W,1,03,,1126.37,M,-22.154,M,,*74
$GPRMC,233745.00,A,4404.1298561,N,12118.8427833,W,0.3174,,011119,14.4,E*67
$GPGSA,A,2,16,3,31,26,23,14,1,22,,,,,,,*1A
{"class":"TPV","mode":2,"time":"2019-11-01T23:37:45.000Z","leapseconds":18,"ept":0.005,"lat":44.068830935,"lon":-121.314046389,"altHAE":1104.2184,"altMSL":1126.3728,"alt":1126.3728,"magvar":14.4,"speed":0.163}
$GPZDA,233745.00,01,11,2019,00,00*69
$GPGGA,233745.00,4404.1298506,N,12118.8429054,W,1,03,,1126.37,M,-22.154,M,,*72
$GPRMC,233745.00,A,4404.1298506,N,12118.8429054,W,0.3174,0.000,011119,14.4,E*4F
$GPGSA,A,2,16,3,31,26,23,14,1,22,,,,,,,*1A
{"class":"TPV","mode":2,"time":"2019-11-01T23:37:45.000Z","leapseconds":18,"ept":0.005,"lat":44.068830844,"lon":-121.314048423,"altHAE":1104.2180,"altMSL":1126.3728,"alt":1126.3728,"track":0.0000,"magtrack":14.4184,"magvar":14.4,"speed":0.163}
$GPGGA,233745.44,,S,,W,1,03,,,M,,M,,*4A
$GPRMC,233745.44,A,,S,,W,,,011119,,*01
$GPGSA,A,2,16,3,31,26,23,14,1,22,,,,,,,*1A
{"class":"TPV","mode":2,"time":"2019-11-01T23:37:45.438Z","leapseconds":18,"ept":0.005}
$GPGGA,233745.44,,S,,W,1,03,3.71,,M,,M,,*51
$GPRMC,233745.44,A,,S,,W,,,011119,,*01
$GPGSA,A,2,16,3,31,26,23,14,1,22,,,,,3.8,3.7,1.0*3A
{"class":"TPV","mode":2,"time":"2019-11-01T23:37:45.438Z","leapseconds":18,"ept":0.005,"eph":70.511,"sep":73.011}
{"class":"SKY","time":"2019-11-01T23:37:43.500Z","hdop":3.71,"pdop":3.84,"tdop":0.92,"vdop":1.00}
$GPZDA,233746.00,01,11,2019,00,00*6A
$GPGGA,233746.00,4404.1298247,N,12118.8427435,W,1,03,,1126.37,M,-22.154,M,,*7E
$GPRMC,233746.00,A,4404.1298247,N,12118.8427435,W,,,011119,14.4,E*72
$GPGSA,A,2,16,3,31,26,23,14,1,22,,,,,,,*1A
{"class":"TPV","mode":2,"time":"2019-11-01T23:37:46.000Z","leapseconds":18,"ept":0.005,"lat":44.068830412,"lon":-121.314045725,"altHAE":1104.2182,"altMSL":1126.3726,"alt":1126.3726,"magvar":14.4}
$GPZDA,233746.00,01,11,2019,00,00*6A
$GPGGA,233746.00,4404.1298506,N,12118.8429004,W,1,03,,1126.37,M,-22.154,M,,*74
$GPRMC,233746.00,A,4404.1298506,N,12118.8429004,W,0.0000,0.000,011119,14.4,E*48
$GPGSA,A,2,16,3,31,26,23,14,1,22,,,,,,,*1A
{"class":"TPV","mode":2,"time":"2019-11-01T23:37:46.000Z","leapseconds":18,"ept":0.005,"lat":44.068830844,"lon":-121.314048339,"altHAE":1104.2180,"altMSL":1126.3726,"alt":1126.3726,"track":0.0000,"magtrack":14.4184,"magvar":14.4,"speed":0.000}
$GPGGA,233746.00,4404.1298506,N,12118.8429004,W,1,03,3.71,1126.37,M,-22.154,M,,*6F
$GPRMC,233746.00,A,4404.1298506,N,12118.8429004,W,0.0000,0.000,011119,14.4,E*48
$GPGSA,A,2,16,3,31,26,23,14,1,22,,,,,3.8,3.7,1.0*3A
{"class":"TPV","mode":2,"time":"2019-11-01T23:37:46.000Z","leapseconds":18,"ept":0.005,"lat":44.068830844,"lon":-121.314048339,"altHAE":1104.2180,"altMSL":1126.3726,"alt":1126.3726,"track":0.0000,"magtrack":14.4184,"magvar":14.4,"speed":0.000,"eph":70.511,"sep":73.011}
{"class":"SKY","time":"2019-11-01T23:37:43.500Z","hdop":3.71,"pdop":3.84,"tdop":0.92,"vdop":1.00}
$GPZDA,233747.00,01,11,2019,00,00*6B
$GPGGA,233747.00,4404.1298081,N,12118.8427364,W,1,03,,1126.37,M,-22.154,M,,*74
$GPRMC,233747.00,A,4404.1298081,N,12118.8427364,W,0.4523,,011119,14.4,E*66
$GPGSA,A,2,16,3,31,26,23,14,1,22,,,,,,,*1A
{"class":"TPV","mode":2,"time":"2019-11-01T23:37:47.000Z","leapseconds":18,"ept":0.005,"lat":44.068830135,"lon":-121.314045606,"altHAE":1104.2182,"altMSL":1126.3727,"alt":1126.3727,"magvar":14.4,"speed":0.233}
$GPZDA,233747.00,01,11,2019,00,00*6B
$GPGGA,233747.00,4404.1298506,N,12118.8429004,W,1,03,,1126.37,M,-22.154,M,,*75
$GPRMC,233747.00,A,4404.1298506,N,12118.8429004,W,0.4523,0.000,011119,14.4,E*49
$GPGSA,A,2,16,3,31,26,23,14,1,22,,,,,,,*1A
{"class":"TPV","mode":2,"time":"2019-11-01T23:37:47.000Z","leapseconds":18,"ept":0.005,"lat":44.068830844,"lon":-121.314048339,"altHAE":1104.2180,"altMSL":1126.3727,"alt":1126.3727,"track":0.0000,"magtrack":14.4184,"magvar":14.4,"speed":0.233}
$GPGGA,233747.00,4404.1298506,N,12118.8429004,W,1,03,3.71,1126.37,M,-22.154,M,,*6E
$GPRMC,233747.00,A,4404.1298506,N,12118.8429004,W,0.4523,0.000,011119,14.4,E*49
$GPGSA,A,2,16,3,31,26,23,14,1,22,,,,,3.8,3.7,1.0*3A
{"class":"TPV","mode":2,"time":"2019-11-01T23:37:47.000Z","leapseconds":18,"ept":0.005,"lat":44.068830844,"lon":-121.314048339,"altHAE":1104.2180,"altMSL":1126.3727,"alt":1126.3727,"track":0.0000,"magtrack":14.4184,"magvar":14.4,"speed":0.233,"eph":70.555,"sep":73.053}
{"class":"SKY","time":"2019-11-01T23:37:43.500Z","hdop":3.71,"pdop":3.84,"tdop":0.92,"vdop":1.00}
$GPZDA,233748.00,01,11,2019,00,00*64
$GPGGA,233748.00,4404.1298151,N,12118.8427464,W,1,03,,1126.37,M,-22.154,M,,*70
$GPRMC,233748.00,A,4404.1298151,N,12118.8427464,W,0.4195,,011119,14.4,E*6B
$GPGSA,A,2,16,3,31,26,23,14,1,22,,,,,,,*1A
{"class":"TPV","mode":2,"time":"2019-11-01T23:37:48.000Z","leapseconds":18,"ept":0.005,"lat":44.068830251,"lon":-121.314045774,"altHAE":1104.2184,"altMSL":1126.3728,"alt":1126.3728,"magvar":14.4,"speed":0.216}
$GPZDA,233748.00,01,11,2019,00,00*64
$GPGGA,233748.00,4404.1298506,N,12118.8429004,W,1,03,,1126.37,M,-22.154,M,,*7A
$GPRMC,233748.00,A,4404.1298506,N,12118.8429004,W,0.4195,0.000,011119,14.4,E*4F
$GPGSA,A,2,16,3,31,26,23,14,1,22,,,,,,,*1A
{"class":"TPV","mode":2,"time":"2019-11-01T23:37:48.000Z","leapseconds":18,"ept":0.005,"lat":44.068830844,"lon":-121.314048339,"altHAE":1104.2180,"altMSL":1126.3728,"alt":1126.3728,"track":0.0000,"magtrack":14.4184,"magvar":14.4,"speed":0.216}
$GPGGA,233748.00,4404.1298506,N,12118.8429004,W,1,03,3.71,1126.37,M,-22.154,M,,*61
$GPRMC,233748.00,A,4404.1298506,N,12118.8429004,W,0.4195,0.000,011119,14.4,E*4F
$GPGSA,A,2,16,3,31,26,23,14,1,22,,,,,3.8,3.7,1.0*3A
{"class":"TPV","mode":2,"time":"2019-11-01T23:37:48.000Z","leapseconds":18,"ept":0.005,"lat":44.068830844,"lon":-121.314048339,"altHAE":1104.2180,"altMSL":1126.3728,"alt":1126.3728,"track":0.0000,"magtrack":14.4184,"magvar":14.4,"speed":0.216,"eph":70.555,"sep":73.053}
{"class":"SKY","time":"2019-11-01T23:37:43.500Z","hdop":3.71,"pdop":3.84,"tdop":0.92,"vdop":1.00}
$GPGSV,3,1,09,16,19,141,26,03,76,287,37,31,40,052,40,26,33,113,33*74
$GPGSV,3,2,09,09,16,275,00,23,46,284,30,06,11,325,00,14,26,076,34*74
$GPGSV,3,3,09,01,25,212,38*4C
{"class":"SKY","time":"2019-11-01T23:37:48.500Z","gdop":3.74,"hdop":3.71,"pdop":3.84,"tdop":0.92,"xdop":0.80,"ydop":1.19,"vdop":1.00,"nSat":9,"uSat":7,"satellites":[{"PRN":16,"gnssid":0,"svid":16,"az":140.8,"el":18.5,"ss":26.0,"used":true},{"PRN":3,"gnssid":0,"svid":3,"az":287.2,"el":76.2,"ss":37.0,"used":true},{"PRN":31,"gnssid":0,"svid":31,"az":52.0,"el":40.1,"ss":40.0,"used":true},{"PRN":26,"gnssid":0,"svid":26,"az":113.3,"el":33.4,"ss":33.0,"used":true},{"PRN":9,"gnssid":0,"svid":9,"az":275.2,"el":15.7,"ss":0.0,"used":false},{"PRN":23,"gnssid":0,"svid":23,"az":284.4,"el":46.0,"ss":30.0,"used":true},{"PRN":6,"gnssid":0,"svid":6,"az":325.1,"el":11.3,"ss":0.0,"used":false},{"PRN":14,"gnssid":0,"svid":14,"az":76.0,"el":25.8,"ss":34.0,"used":true}]}
$GPGSV,3,1,10,16,19,141,26,03,76,287,37,31,40,052,40,26,33,113,33*7C
$GPGSV,3,2,10,09,16,275,00,23,46,284,30,06,11,325,00,14,26,076,34*7C
$GPGSV,3,3,10,01,25,212,38,22,74,181,37*7B
{"class":"SKY","time":"2019-11-01T23:37:48.500Z","gdop":3.74,"hdop":3.71,"pdop":3.84,"tdop":0.92,"xdop":0.80,"ydop":1.19,"vdop":1.00,"nSat":10,"uSat":8,"satellites":[{"PRN":16,"gnssid":0,"svid":16,"az":140.8,"el":18.5,"ss":26.0,"used":true},{"PRN":3,"gnssid":0,"svid":3,"az":287.2,"el":76.2,"ss":37.0,"used":true},{"PRN":31,"gnssid":0,"svid":31,"az":52.0,"el":40.1,"ss":40.0,"used":true},{"PRN":26,"gnssid":0,"svid":26,"az":113.3,"el":33.4,"ss":33.0,"used":true},{"PRN":9,"gnssid":0,"svid":9,"az":275.2,"el":15.7,"ss":0.0,"used":false},{"PRN":23,"gnssid":0,"svid":23,"az":284.4,"el":46.0,"ss":30.0,"used":true},{"PRN":6,"gnssid":0,"svid":6,"az":325.1,"el":11.3,"ss":0.0,"used":false},{"PRN":14,"gnssid":0,"svid":14,"az":76.0,"el":25.8,"ss":34.0,"used":true},{"PRN":1,"gnssid":0,"svid":1,"az":212.3,"el":24.6,"ss":38.0,"used":true}]}
$GPZDA,233749.00,01,11,2019,00,00*65
$GPGGA,233749.00,4404.1298210,N,12118.8427569,W,1,03,,1126.37,M,-22.154,M,,*7B
$GPRMC,233749.00,A,4404.1298210,N,12118.8427569,W,0.3874,,011119,14.4,E*61
$GPGSA,A,2,16,3,31,26,23,14,1,22,,,,,,,*1A
{"class":"TPV","mode":2,"time":"2019-11-01T23:37:49.000Z","leapseconds":18,"ept":0.005,"lat":44.068830350,"lon":-121.314045948,"altHAE":1104.2184,"altMSL":1126.3728,"alt":1126.3728,"magvar":14.4,"speed":0.199}
$GPZDA,233749.00,01,11,2019,00,00*65
$GPGGA,233749.00,4404.1298506,N,12118.8428953,W,1,03,,1126.37,M,-22.154,M,,*71
$GPRMC,233749.00,A,4404.1298506,N,12118.8428953,W,0.3874,0.000,011119,14.4,E*45
$GPGSA,A,2,16,3,31,26,23,14,1,22,,,,,,,*1A
{"class":"TPV","mode":2,"time":"2019-11-01T23:37:49.000Z","leapseconds":18,"ept":0.005,"lat":44.068830844,"lon":-121.314048255,"altHAE":1104.2180,"altMSL":1126.3728,"alt":1126.3728,"track":0.0000,"magtrack":14.4184,"magvar":14.4,"speed":0.199}
$GPGGA,233749.00,4404.1298506,N,12118.8428953,W,1,03,3.72,1126.37,M,-22.154,M,,*69
$GPRMC,233749.00,A,4404.1298506,N,12118.8428953,W,0.3874,0.000,011119,14.4,E*45
$GPGSA,A,2,16,3,31,26,23,14,1,22,,,,,3.8,3.7,1.0*3A
{"class":"TPV","mode":2,"time":"2019-11-01T23:37:49.000Z","leapseconds":18,"ept":0.005,"lat":44.068830844,"lon":-121.314048255,"altHAE":1104.2180,"altMSL":1126.3728,"alt":1126.3728,"track":0.0000,"magtrack":14.4184,"magvar":14.4,"speed":0.199,"eph":70.601,"sep":73.098}
{"class":"SKY","time":"2019-11-01T23:37:48.500Z","hdop":3.72,"pdop":3.85,"tdop":0.92,"vdop":1.00}
$GPZDA,233750.00,01,11,2019,00,00*6D
$GPGGA,233750.00,4404.1298138,N,12118.8427667,W,1,03,,1126.37,M,-22.154,M,,*77
$GPRMC,233750.00,A,4404.1298138,N,12118.8427667,W,0.3593,,011119,14.4,E*69
$GPGSA,A,2,16,3,31,26,23,14,1,22,,,,,,,*1A
{"class":"TPV","mode":2,"time":"2019-11-01T23:37:50.000Z","leapseconds":18,"ept":0.005,"lat":44.068830229,"lon":-121.314046111,"altHAE":1104.2183,"altMSL":1126.3727,"alt":1126.3727,"magvar":14.4,"speed":0.185}
$GPZDA,233750.00,01,11,2019,00,00*6D
$GPGGA,233750.00,4404.1298506,N,12118.8428953,W,1,03,,1126.37,M,-22.154,M,,*79
$GPRMC,233750.00,A,4404.1298506,N,12118.8428953,W,0.3593,0.000,011119,14.4,E*49
$GPGSA,A,2,16,3,31,26,23,14,1,22,,,,,,,*1A
{"class":"TPV","mode":2,"time":"2019-11-01T23:37:50.000Z","leapseconds":18,"ept":0.005,"lat":44.068830844,"lon":-121.314048255,"altHAE":1104.2180,"altMSL":1126.3727,"alt":1126.3727,"track":0.0000,"magtrack":14.4184,"magvar":14.4,"speed":0.185}
$GPGGA,233750.44,,S,,W,1,03,,,M,,M,,*4E
$GPRMC,233750.44,A,,S,,W,,,011119,,*05
$GPGSA,A,2,16,3,31,26,23,14,1,22,,,,,,,*1A
{"class":"TPV","mode":2,"time":"2019-11-01T23:37:50.438Z","leapseconds":18,"ept":0.005}
$GPGGA,233750.44,,S,,W,1,03,3.72,,M,,M,,*56
$GPRMC,233750.44,A,,S,,W,,,011119,,*05
$GPGSA,A,2,16,3,31,26,23,14,1,22,,,,,3.8,3.7,1.0*3A
{"class":"TPV","mode":2,"time":"2019-11-01T23:37:50.438Z","leapseconds":18,"ept":0.005,"eph":70.601,"sep":73.098}
{"class":"SKY","time":"2019-11-01T23:37:48.500Z","hdop":3.72,"pdop":3.85,"tdop":0.92,"vdop":1.00}
$GPZDA,233751.00,01,11,2019,00,00*6C
$GPGGA,233751.00,4404.1298078,N,12118.8427587,W,1,03,,1126.37,M,-22.154,M,,*7E
$GPRMC,233751.00,A,4404.1298078,N,12118.8427587,W,,,011119,14.4,E*72
$GPGSA,A,2,16,3,31,26,23,14,1,22,,,,,,,*1A
{"class":"TPV","mode":2,"time":"2019-11-01T23:37:51.000Z","leapseconds":18,"ept":0.005,"lat":44.068830130,"lon":-121.314045978,"altHAE":1104.2183,"altMSL":1126.3727,"alt":1126.3727,"magvar":14.4}
$GPZDA,233751.00,01,11,2019,00,00*6C
$GPGGA,233751.00,4404.1298506,N,12118.8428953,W,1,03,,1126.37,M,-22.154,M,,*78
$GPRMC,233751.00,A,4404.1298506,N,12118.8428953,W,0.0000,0.000,011119,14.4,E*44
$GPGSA,A,2,16,3,31,26,23,14,1,22,,,,,,,*1A
{"class":"TPV","mode":2,"time":"2019-11-01T23:37:51.000Z","leapseconds":18,"ept":0.005,"lat":44.068830844,"lon":-121.314048255,"altHAE":1104.2180,"altMSL":1126.3727,"alt":1126.3727,"track":0.0000,"magtrack":14.4184,"magvar":14.4,"speed":0.000}
$GPGGA,233751.00,4404.1298506,N,12118.8428953,W,1,03,3.72,1126.37,M,-22.154,M,,*60
$GPRMC,233751.00,A,4404.1298506,N,12118.8428953,W,0.0000,0.000,011119,14.4,E*44
$GPGSA,A,2,16,3,31,26,23,14,1,22,,,,,3.8,3.7,1.0*3A
{"class":"TPV","mode":2,"time":"2019-11-01T23:37:51.000Z","leapseconds":18,"ept":0.005,"lat":44.068830844,"lon":-121.314048255,"altHAE":1104.2180,"altMSL":1126.3727,"alt":1126.3727,"track":0.0000,"magtrack":14.4184,"magvar":14.4,"speed":0.000,"eph":70.645,"sep":73.141}
{"class":"SKY","time":"2019-11-01T23:37:48.500Z","hdop":3.72,"pdop":3.85,"tdop":0.92,"vdop":1.00}
$GPZDA,233752.00,01,11,2019,00,00*6F
$GPGGA,233752.00,4404.1298126,N,12118.8427608,W,1,03,,1126.37,M,-22.154,M,,*73
$GPRMC,233752.00,A,4404.1298126,N,12118.8427608,W,0.3751,,011119,14.4,E*61
$GPGSA,A,2,16,3,31,26,23,14,1,22,,,,,,,*1A
{"class":"TPV","mode":2,"time":"2019-11-01T23:37:52.000Z","leapseconds":18,"ept":0.005,"lat":44.068830210,"lon":-121.314046013,"altHAE":1104.2184,"altMSL":1126.3728,"alt":1126.3728,"magvar":14.4,"speed":0.193}
$GPZDA,233752.00,01,11,2019,00,00*6F
$GPGGA,233752.00,4404.1298506,N,12118.8428903,W,1,03,,1126.37,M,-22.154,M,,*7E
$GPRMC,233752.00,A,4404.1298506,N,12118.8428903,W,0.3751,0.000,011119,14.4,E*42
$GPGSA,A,2,16,3,31,26,23,14,1,22,,,,,,,*1A
{"class":"TPV","mode":2,"time":"2019-11-01T23:37:52.000Z","leapseconds":18,"ept":0.005,"lat":44.068830844,"lon":-121.314048172,"altHAE":1104.2180,"altMSL":1126.3728,"alt":1126.3728,"track":0.0000,"magtrack":14.4184,"magvar":14.4,"speed":0.193}
$GPGGA,233752.00,4404.1298506,N,12118.8428903,W,1,03,3.72,1126.37,M,-22.154,M,,*66
$GPRMC,233752.00,A,4404.1298506,N,12118.8428903,W,0.3751,0.000,011119,14.4,E*42
$GPGSA,A,2,16,3,31,26,23,14,1,22,,,,,3.8,3.7,1.0*3A
{"class":"TPV","mode":2,"time":"2019-11-01T23:37:52.000Z","leapseconds":18,"ept":0.005,"lat":44.068830844,"lon":-121.314048172,"altHAE":1104.2180,"altMSL":1126.3728,"alt":1126.3728,"track":0.0000,"magtrack":14.4184,"magvar":14.4,"speed":0.193,"eph":70.645,"sep":73.141}
{"class":"SKY","time":"2019-11-01T23:37:48.500Z","hdop":3.72,"pdop":3.85,"tdop":0.92,"vdop":1.00}
$GPZDA,233753.00,01,11,2019,00,00*6E
$GPGGA,233753.00,4404.1298062,N,12118.8427583,W,1,03,,1126.37,M,-22.154,M,,*73
$GPRMC,233753.00,A,4404.1298062,N,12118.8427583,W,0.3782,,011119,14.4,E*6F
$GPGSA,A,2,16,3,31,26,23,14,1,22,,,,,,,*1A
{"class":"TPV","mode":2,"time":"2019-11-01T23:37:53.000Z","leapseconds":18,"ept":0.005,"lat":44.068830103,"lon":-121.314045971,"altHAE":1104.2183,"altMSL":1126.3727,"alt":1126.3727,"magvar":14.4,"speed":0.195}
$GPZDA,233753.00,01,11,2019,00,00*6E
$GPGGA,233753.00,4404.1298506,N,12118.8428903,W,1,03,,1126.37,M,-22.154,M,,*7F
$GPRMC,233753.00,A,4404.1298506,N,12118.8428903,W,0.3782,0.000,011119,14.4,E*4D
$GPGSA,A,2,16,3,31,26,23,14,1,22,,,,,,,*1A
{"class":"TPV","mode":2,"time":"2019-11-01T23:37:53.000Z","leapseconds":18,"ept":0.005,"lat":44.068830844,"lon":-121.314048172,"altHAE":1104.2180,"altMSL":1126.3727,"alt":1126.3727,"track":0.0000,"magtrack":14.4184,"magvar":14.4,"speed":0.195}
$GPGGA,233753.00,4404.1298506,N,12118.8428903,W,1,03,3.72,1126.37,M,-22.154,M,,*67
$GPRMC,233753.00,A,4404.1298506,N,12118.8428903,W,0.3782,0.000,011119,14.4,E*4D
$GPGSA,A,2,16,3,31,26,23,14,1,22,,,,,3.9,3.7,1.0*3B
{"class":"TPV","mode":2,"time":"2019-11-01T23:37:53.000Z","leapseconds":18,"ept":0.005,"lat":44.068830844,"lon":-121.314048172,"altHAE":1104.2180,"altMSL":1126.3727,"alt":1126.3727,"track":0.0000,"magtrack":14.4184,"magvar":14.4,"speed":0.195,"eph":70.691,"sep":73.185}
{"class":"SKY","time":"2019-11-01T23:37:48.500Z","hdop":3.72,"pdop":3.85,"tdop":0.92,"vdop":1.00}
$GPGSV,3,1,09,16,19,141,26,03,76,287,37,31,40,052,40,26,33,113,33*74
$GPGSV,3,2,09,09,16,275,00,23,46,284,30,06,11,325,00,14,26,076,34*74
$GPGSV,3,3,09,01,25,212,37*43
{"class":"SKY","time":"2019-11-01T23:37:53.500Z","gdop":3.74,"hdop":3.72,"pdop":3.85,"tdop":0.92,"xdop":0.80,"ydop":1.18,"vdop":1.00,"nSat":9,"uSat":7,"satellites":[{"PRN":16,"gnssid":0,"svid":16,"az":140.8,"el":18.6,"ss":26.0,"used":true},{"PRN":3,"gnssid":0,"svid":3,"az":287.1,"el":76.2,"ss":37.0,"used":true},{"PRN":31,"gnssid":0,"svid":31,"az":51.9,"el":40.1,"ss":40.0,"used":true},{"PRN":26,"gnssid":0,"svid":26,"az":113.3,"el":33.5,"ss":33.0,"used":true},{"PRN":9,"gnssid":0,"svid":9,"az":275.2,"el":15.7,"ss":0.0,"used":false},{"PRN":23,"gnssid":0,"svid":23,"az":284.5,"el":46.1,"ss":30.0,"used":true},{"PRN":6,"gnssid":0,"svid":6,"az":325.1,"el":11.4,"ss":0.0,"used":false},{"PRN":14,"gnssid":0,"svid":14,"az":76.1,"el":25.8,"ss":34.0,"used":true}]}
$GPGSV,3,1,10,16,19,141,26,03,76,287,37,31,40,052,40,26,33,113,33*7C
$GPGSV,3,2,10,09,16,275,00,23,46,284,30,06,11,325,00,14,26,076,34*7C
$GPGSV,3,3,10,01,25,212,37,22,74,181,37*74
{"class":"SKY","time":"2019-11-01T23:37:53.500Z","gdop":3.74,"hdop":3.72,"pdop":3.85,"tdop":0.92,"xdop":0.80,"ydop":1.18,"vdop":1.00,"nSat":10,"uSat":8,"satellites":[{"PRN":16,"gnssid":0,"svid":16,"az":140.8,"el":18.6,"ss":26.0,"used":true},{"PRN":3,"gnssid":0,"svid":3,"az":287.1,"el":76.2,"ss":37.0,"used":true},{"PRN":31,"gnssid":0,"svid":31,"az":51.9,"el":40.1,"ss":40.0,"used":true},{"PRN":26,"gnssid":0,"svid":26,"az":113.3,"el":33.5,"ss":33.0,"used":true},{"PRN":9,"gnssid":0,"svid":9,"az":275.2,"el":15.7,"ss":0.0,"used":false},{"PRN":23,"gnssid":0,"svid":23,"az":284.5,"el":46.1,"ss":30.0,"used":true},{"PRN":6,"gnssid":0,"svid":6,"az":325.1,"el":11.4,"ss":0.0,"used":false},{"PRN":14,"gnssid":0,"svid":14,"az":76.1,"el":25.8,"ss":34.0,"used":true},{"PRN":1,"gnssid":0,"svid":1,"az":212.3,"el":24.5,"ss":37.0,"used":true}]}
$GPZDA,233754.00,01,11,2019,00,00*69
$GPGGA,233754.00,4404.1297802,N,12118.8427293,W,1,03,,1126.37,M,-22.154,M,,*73
$GPRMC,233754.00,A,4404.1297802,N,12118.8427293,W,0.4887,,011119,14.4,E*62
$GPGSA,A,2,16,3,31,26,23,14,1,22,,,,,,,*1A
{"class":"TPV","mode":2,"time":"2019-11-01T23:37:54.000Z","leapseconds":18,"ept":0.005,"lat":44.068829669,"lon":-121.314045489,"altHAE":1104.2182,"altMSL":1126.3726,"alt":1126.3726,"magvar":14.4,"speed":0.251}
$GPZDA,233754.00,01,11,2019,00,00*69
$GPGGA,233754.00,4404.1298506,N,12118.8428903,W,1,03,,1126.37,M,-22.154,M,,*78
$GPRMC,233754.00,A,4404.1298506,N,12118.8428903,W,0.4887,0.000,011119,14.4,E*47
$GPGSA,A,2,16,3,31,26,23,14,1,22,,,,,,,*1A
{"class":"TPV","mode":2,"time":"2019-11-01T23:37:54.000Z","leapseconds":18,"ept":0.005,"lat":44.068830844,"lon":-121.314048172,"altHAE":1104.2180,"altMSL":1126.3726,"alt":1126.3726,"track":0.0000,"magtrack":14.4184,"magvar":14.4,"speed":0.251}
$GPGGA,233754.00,4404.1298506,N,12118.8428903,W,1,03,3.72,1126.37,M,-22.154,M,,*60
$GPRMC,233754.00,A,4404.1298506,N,12118.8428903,W,0.4887,0.000,011119,14.4,E*47
$GPGSA,A,2,16,3,31,26,23,14,1,22,,,,,3.9,3.7,1.0*3B
{"class":"TPV","mode":2,"time":"2019-11-01T23:37:54.000Z","leapseconds":18,"ept":0.005,"lat":44.068830844,"lon":-121.314048172,"altHAE":1104.2180,"altMSL":1126.3726,"alt":1126.3726,"track":0.0000,"magtrack":14.4184,"magvar":14.4,"speed":0.251,"eph":70.691,"sep":73.185}
{"class":"SKY","time":"2019-11-01T23:37:53.500Z","hdop":3.72,"pdop":3.85,"tdop":0.92,"vdop":1.00}
$GPZDA,233755.00,01,11,2019,00,00*68
$GPGGA,233755.00,4404.1297699,N,12118.8427322,W,1,03,,1126.37,M,-22.154,M,,*75
$GPRMC,233755.00,A,4404.1297699,N,12118.8427322,W,0.5030,,011119,14.4,E*61
$GPGSA,A,2,16,3,31,26,23,14,1,22,,,,,,,*1A
{"class":"TPV","mode":2,"time":"2019-11-01T23:37:55.000Z","leapseconds":18,"ept":0.005,"lat":44.068829498,"lon":-121.314045536,"altHAE":1104.2183,"altMSL":1126.3727,"alt":1126.3727,"magvar":14.4,"speed":0.259}
$GPZDA,233755.00,01,11,2019,00,00*68
$GPGGA,233755.00,4404.1298456,N,12118.8428903,W,1,03,,1126.37,M,-22.154,M,,*7D
$GPRMC,233755.00,A,4404.1298456,N,12118.8428903,W,0.5030,0.000,011119,14.4,E*47
$GPGSA,A,2,16,3,31,26,23,14,1,22,,,,,,,*1A
{"class":"TPV","mode":2,"time":"2019-11-01T23:37:55.000Z","leapseconds":18,"ept":0.005,"lat":44.068830760,"lon":-121.314048172,"altHAE":1104.2180,"altMSL":1126.3727,"alt":1126.3727,"track":0.0000,"magtrack":14.4184,"magvar":14.4,"speed":0.259}
$GPGGA,233755.44,,S,,W,1,03,,,M,,M,,*4B
$GPRMC,233755.44,A,,S,,W,,,011119,,*00
$GPGSA,A,2,16,3,31,26,23,14,1,22,,,,,,,*1A
{"class":"TPV","mode":2,"time":"2019-11-01T23:37:55.438Z","leapseconds":18,"ept":0.005}
$GPGGA,233755.44,,S,,W,1,03,3.72,,M,,M,,*53
$GPRMC,233755.44,A,,S,,W,,,011119,,*00
$GPGSA,A,2,16,3,31,26,23,14,1,22,,,,,3.9,3.7,1.0*3B
{"class":"TPV","mode":2,"time":"2019-11-01T23:37:55.438Z","leapseconds":18,"ept":0.005,"eph":70.748,"sep":73.240}
{"class":"SKY","time":"2019-11-01T23:37:53.500Z","hdop":3.72,"pdop":3.85,"tdop":0.92,"vdop":1.00}
$GPZDA,233756.00,01,11,2019,00,00*6B
$GPGGA,233756.00,4404.1297735,N,12118.8427558,W,1,03,,1126.37,M,-22.154,M,,*7A
$GPRMC,233756.00,A,4404.1297735,N,12118.8427558,W,,,011119,14.4,E*76
$GPGSA,A,2,16,3,31,26,23,14,1,22,,,,,,,*1A
{"class":"TPV","mode":2,"time":"2019-11-01T23:37:56.000Z","leapseconds":18,"ept":0.005,"lat":44.068829558,"lon":-121.314045929,"altHAE":1104.2184,"altMSL":1126.3728,"alt":1126.3728,"magvar":14.4}
$GPZDA,233756.00,01,11,2019,00,00*6B
$GPGGA,233756.00,4404.1298456,N,12118.8428853,W,1,03,,1126.37,M,-22.154,M,,*7A
$GPRMC,233756.00,A,4404.1298456,N,12118.8428853,W,0.0000,0.000,011119,14.4,E*46
$GPGSA,A,2,16,3,31,26,23,14,1,22,,,,,,,*1A
{"class":"TPV","mode":2,"time":"2019-11-01T23:37:56.000Z","leapseconds":18,"ept":0.005,"lat":44.068830760,"lon":-121.314048088,"altHAE":1104.2180,"altMSL":1126.3728,"alt":1126.3728,"track":0.0000,"magtrack":14.4184,"magvar":14.4,"speed":0.000}
$GPGGA,233756.00,4404.1298456,N,12118.8428853,W,1,03,3.72,1126.37,M,-22.154,M,,*62
$GPRMC,233756.00,A,4404.1298456,N,12118.8428853,W,0.0000,0.000,011119,14.4,E*46
$GPGSA,A,2,16,3,31,26,23,14,1,22,,,,,3.9,3.7,1.0*3B
{"class":"TPV","mode":2,"time":"2019-11-01T23:37:56.000Z","leapseconds":18,"ept":0.005,"lat":44.068830760,"lon":-121.314048088,"altHAE":1104.2180,"altMSL":1126.3728,"alt":1126.3728,"track":0.0000,"magtrack":14.4184,"magvar":14.4,"speed":0.000,"eph":70.736,"sep":73.229}
{"class":"SKY","time":"2019-11-01T23:37:53.500Z","hdop":3.72,"pdop":3.85,"tdop":0.92,"vdop":1.00}
$GPZDA,233757.00,01,11,2019,00,00*6A
$GPGGA,233757.00,4404.1297897,N,12118.8427924,W,1,03,,1126.37,M,-22.154,M,,*7B
$GPRMC,233757.00,A,4404.1297897,N,12118.8427924,W,0.3139,,011119,14.4,E*61
$GPGSA,A,2,16,3,31,26,23,14,1,22,,,,,,,*1A
{"class":"TPV","mode":2,"time":"2019-11-01T23:37:57.000Z","leapseconds":18,"ept":0.005,"lat":44.068829829,"lon":-121.314046540,"altHAE":1104.2185,"altMSL":1126.3729,"alt":1126.3729,"magvar":14.4,"speed":0.161}
$GPZDA,233757.00,01,11,2019,00,00*6A
$GPGGA,233757.00,4404.1298456,N,12118.8428853,W,1,03,,1126.37,M,-22.154,M,,*7B
$GPRMC,233757.00,A,4404.1298456,N,12118.8428853,W,0.3139,0.000,011119,14.4,E*4F
$GPGSA,A,2,16,3,31,26,23,14,1,22,,,,,,,*1A
{"class":"TPV","mode":2,"time":"2019-11-01T23:37:57.000Z","leapseconds":18,"ept":0.005,"lat":44.068830760,"lon":-121.314048088,"altHAE":1104.2180,"altMSL":1126.3729,"alt":1126.3729,"track":0.0000,"magtrack":14.4184,"magvar":14.4,"speed":0.161}
$GPGGA,233757.00,4404.1298456,N,12118.8428853,W,1,03,3.72,1126.37,M,-22.154,M,,*63
$GPRMC,233757.00,A,4404.1298456,N,12118.8428853,W,0.3139,0.000,011119,14.4,E*4F
$GPGSA,A,2,16,3,31,26,23,14,1,22,,,,,3.9,3.7,1.0*3B
{"class":"TPV","mode":2,"time":"2019-11-01T23:37:57.000Z","leapseconds":18,"ept":0.005,"lat":44.068830760,"lon":-121.314048088,"altHAE":1104.2180,"altMSL":1126.3729,"alt":1126.3729,"track":0.0000,"magtrack":14.4184,"magvar":14.4,"speed":0.161,"eph":70.736,"sep":73.229}
{"class":"SKY","time":"2019-11-01T23:37:53.500Z","hdop":3.72,"pdop":3.85,"tdop":0.92,"vdop":1.00}
$GPZDA,233758.00,01,11,2019,00,00*65
$GPGGA,233758.00,4404.1298161,N,12118.8428388,W,1,03,,1126.37,M,-22.154,M,,*78
$GPRMC,233758.00,A,4404.1298161,N,12118.8428388,W,0.1607,,011119,14.4,E*6A
$GPGSA,A,2,16,3,31,26,23,14,1,22,,,,,,,*1A
{"class":"TPV","mode":2,"time":"2019-11-01T23:37:58.000Z","leapseconds":18,"ept":0.005,"lat":44.068830269,"lon":-121.314047313,"altHAE":1104.2185,"altMSL":1126.3729,"alt":1126.3729,"magvar":14.4,"speed":0.083}
$GPZDA,233758.00,01,11,2019,00,00*65
$GPGGA,233758.00,4404.1298456,N,12118.8428853,W,1,03,,1126.37,M,-22.154,M,,*74
$GPRMC,233758.00,A,4404.1298456,N,12118.8428853,W,0.1607,0.000,011119,14.4,E*48
$GPGSA,A,2,16,3,31,26,23,14,1,22,,,,,,,*1A
{"class":"TPV","mode":2,"time":"2019-11-01T23:37:58.000Z","leapseconds":18,"ept":0.005,"lat":44.068830760,"lon":-121.314048088,"altHAE":1104.2180,"altMSL":1126.3729,"alt":1126.3729,"track":0.0000,"magtrack":14.4184,"magvar":14.4,"speed":0.083}
$GPGGA,233758.00,4404.1298456,N,12118.8428853,W,1,03,3.73,1126.37,M,-22.154,M,,*6D
$GPRMC,233758.00,A,4404.1298456,N,12118.8428853,W,0.1607,0.000,011119,14.4,E*48
$GPGSA,A,2,16,3,31,26,23,14,1,22,,,,,3.9,3.7,1.0*3B
{"class":"TPV","mode":2,"time":"2019-11-01T23:37:58.000Z","leapseconds":18,"ept":0.005,"lat":44.068830760,"lon":-121.314048088,"altHAE":1104.2180,"altMSL":1126.3729,"alt":1126.3729,"track":0.0000,"magtrack":14.4184,"magvar":14.4,"speed":0.083,"eph":70.787,"sep":73.277}
{"class":"SKY","time":"2019-11-01T23:37:53.500Z","hdop":3.73,"pdop":3.86,"tdop":0.92,"vdop":1.00}
$GPGSV,3,1,09,16,19,141,26,03,76,287,37,31,40,052,40,26,33,113,33*74
$GPGSV,3,2,09,09,16,275,00,23,46,284,30,06,11,325,00,14,26,076,34*74
$GPGSV,3,3,09,01,25,212,37*43
{"class":"SKY","time":"2019-11-01T23:37:58.500Z","gdop":3.73,"hdop":3.73,"pdop":3.86,"tdop":0.92,"xdop":0.80,"ydop":1.18,"vdop":1.00,"nSat":9,"uSat":7,"satellites":[{"PRN":16,"gnssid":0,"svid":16,"az":140.7,"el":18.6,"ss":26.0,"used":true},{"PRN":3,"gnssid":0,"svid":3,"az":287.0,"el":76.2,"ss":37.0,"used":true},{"PRN":31,"gnssid":0,"svid":31,"az":51.9,"el":40.0,"ss":40.0,"used":true},{"PRN":26,"gnssid":0,"svid":26,"az":113.2,"el":33.5,"ss":33.0,"used":true},{"PRN":9,"gnssid":0,"svid":9,"az":275.2,"el":15.7,"ss":0.0,"used":false},{"PRN":23,"gnssid":0,"svid":23,"az":284.5,"el":46.1,"ss":30.0,"used":true},{"PRN":6,"gnssid":0,"svid":6,"az":325.1,"el":11.4,"ss":0.0,"used":false},{"PRN":14,"gnssid":0,"svid":14,"az":76.1,"el":25.7,"ss":34.0,"used":true}]}
$GPGSV,3,1,10,16,19,141,26,03,76,287,37,31,40,052,40,26,33,113,33*7C
$GPGSV,3,2,10,09,16,275,00,23,46,284,30,06,11,325,00,14,26,076,34*7C
$GPGSV,3,3,10,01,25,212,37,22,74,181,37*74
{"class":"SKY","time":"2019-11-01T23:37:58.500Z","gdop":3.73,"hdop":3.73,"pdop":3.86,"tdop":0.92,"xdop":0.80,"ydop":1.18,"vdop":1.00,"nSat":10,"uSat":8,"satellites":[{"PRN":16,"gnssid":0,"svid":16,"az":140.7,"el":18.6,"ss":26.0,"used":true},{"PRN":3,"gnssid":0,"svid":3,"az":287.0,"el":76.2,"ss":37.0,"used":true},{"PRN":31,"gnssid":0,"svid":31,"az":51.9,"el":40.0,"ss":40.0,"used":true},{"PRN":26,"gnssid":0,"svid":26,"az":113.2,"el":33.5,"ss":33.0,"used":true},{"PRN":9,"gnssid":0,"svid":9,"az":275.2,"el":15.7,"ss":0.0,"used":false},{"PRN":23,"gnssid":0,"svid":23,"az":284.5,"el":46.1,"ss":30.0,"used":true},{"PRN":6,"gnssid":0,"svid":6,"az":325.1,"el":11.4,"ss":0.0,"used":false},{"PRN":14,"gnssid":0,"svid":14,"az":76.1,"el":25.7,"ss":34.0,"used":true},{"PRN":1,"gnssid":0,"svid":1,"az":212.3,"el":24.5,"ss":37.0,"used":true}]}
$GPZDA,233759.00,01,11,2019,00,00*64
$GPGGA,233759.00,4404.1297993,N,12118.8428312,W,1,03,,1126.37,M,-22.154,M,,*70
$GPRMC,233759.00,A,4404.1297993,N,12118.8428312,W,0.2181,,011119,14.4,E*68
$GPGSA,A,2,16,3,31,26,23,14,1,22,,,,,,,*1A
{"class":"TPV","mode":2,"time":"2019-11-01T23:37:59.000Z","leapseconds":18,"ept":0.005,"lat":44.068829988,"lon":-121.314047186,"altHAE":1104.2182,"altMSL":1126.3727,"alt":1126.3727,"magvar":14.4,"speed":0.112}
$GPZDA,233759.00,01,11,2019,00,00*64
$GPGGA,233759.00,4404.1298456,N,12118.8428853,W,1,03,,1126.37,M,-22.154,M,,*75
$GPRMC,233759.00,A,4404.1298456,N,12118.8428853,W,0.2181,0.000,011119,14.4,E*43
$GPGSA,A,2,16,3,31,26,23,14,1,22,,,,,,,*1A
{"class":"TPV","mode":2,"time":"2019-11-01T23:37:59.000Z","leapseconds":18,"ept":0.005,"lat":44.068830760,"lon":-121.314048088,"altHAE":1104.2180,"altMSL":1126.3727,"alt":1126.3727,"track":0.0000,"magtrack":14.4184,"magvar":14.4,"speed":0.112}
$GPGGA,233759.00,4404.1298456,N,12118.8428853,W,1,03,3.73,1126.37,M,-22.154,M,,*6C
$GPRMC,233759.00,A,4404.1298456,N,12118.8428853,W,0.2181,0.000,011119,14.4,E*43
$GPGSA,A,2,16,3,31,26,23,14,1,22,,,,,3.9,3.7,1.0*3B
{"class":"TPV","mode":2,"time":"2019-11-01T23:37:59.000Z","leapseconds":18,"ept":0.005,"lat":44.068830760,"lon":-121.314048088,"altHAE":1104.2180,"altMSL":1126.3727,"alt":1126.3727,"track":0.0000,"magtrack":14.4184,"magvar":14.4,"speed":0.112,"eph":70.787,"sep":73.277}
{"class":"SKY","time":"2019-11-01T23:37:58.500Z","hdop":3.73,"pdop":3.86,"tdop":0.92,"vdop":1.00}
$GPZDA,233800.00,01,11,2019,00,00*67
$GPGGA,233800.00,4404.1297871,N,12118.8428290,W,1,03,,1126.37,M,-22.154,M,,*75
$GPRMC,233800.00,A,4404.1297871,N,12118.8428290,W,0.2563,,011119,14.4,E*65
$GPGSA,A,2,16,3,31,26,23,14,1,22,,,,,,,*1A
{"class":"TPV","mode":2,"time":"2019-11-01T23:38:00.000Z","leapseconds":18,"ept":0.005,"lat":44.068829785,"lon":-121.314047151,"altHAE":1104.2183,"altMSL":1126.3727,"alt":1126.3727,"magvar":14.4,"speed":0.132}
$GPZDA,233800.00,01,11,2019,00,00*67
$GPGGA,233800.00,4404.1298456,N,12118.8428853,W,1,03,,1126.37,M,-22.154,M,,*76
$GPRMC,233800.00,A,4404.1298456,N,12118.8428853,W,0.2563,0.000,011119,14.4,E*48
$GPGSA,A,2,16,3,31,26,23,14,1,22,,,,,,,*1A
{"class":"TPV","mode":2,"time":"2019-11-01T23:38:00.000Z","leapseconds":18,"ept":0.005,"lat":44.068830760,"lon":-121.314048088,"altHAE":1104.2180,"altMSL":1126.3727,"alt":1126.3727,"track":0.0000,"magtrack":14.4184,"magvar":14.4,"speed":0.132}
$GPGGA,233800.47,,S,,W,1,03,,,M,,M,,*47
$GPRMC,233800.47,A,,S,,W,,,011119,,*0C
$GPGSA,A,2,16,3,31,26,23,14,1,22,,,,,,,*1A
{"class":"TPV","mode":2,"time":"2019-11-01T23:38:00.469Z","leapseconds":18,"ept":0.005}
$GPGGA,233800.47,,S,,W,1,03,3.73,,M,,M,,*5E
$GPRMC,233800.47,A,,S,,W,,,011119,,*0C
$GPGSA,A,2,16,3,31,26,23,14,1,22,,,,,3.9,3.7,1.0*3B
{"class":"TPV","mode":2,"time":"2019-11-01T23:38:00.469Z","leapseconds":18,"ept":0.005,"eph":70.831,"sep":73.320}
{"class":"SKY","time":"2019-11-01T23:37:58.500Z","hdop":3.73,"pdop":3.86,"tdop":0.92,"vdop":1.00}
$GPZDA,233801.00,01,11,2019,00,00*66
$GPGGA,233801.00,4404.1297573,N,12118.8427970,W,1,03,,1126.37,M,-22.154,M,,*71
$GPRMC,233801.00,A,4404.1297573,N,12118.8427970,W,,,011119,14.4,E*7D
$GPGSA,A,2,16,3,31,26,23,14,1,22,,,,,,,*1A
{"class":"TPV","mode":2,"time":"2019-11-01T23:38:01.000Z","leapseconds":18,"ept":0.005,"lat":44.068829288,"lon":-121.314046617,"altHAE":1104.2182,"altMSL":1126.3726,"alt":1126.3726,"magvar":14.4}
$GPZDA,233801.00,01,11,2019,00,00*66
$GPGGA,233801.00,4404.1298456,N,12118.8428853,W,1,03,,1126.37,M,-22.154,M,,*77
$GPRMC,233801.00,A,4404.1298456,N,12118.8428853,W,0.0000,0.000,011119,14.4,E*4B
$GPGSA,A,2,16,3,31,26,23,14,1,22,,,,,,,*1A
{"class":"TPV","mode":2,"time":"2019-11-01T23:38:01.000Z","leapseconds":18,"ept":0.005,"lat":44.068830760,"lon":-121.314048088,"altHAE":1104.2180,"altMSL":1126.3726,"alt":1126.3726,"track":0.0000,"magtrack":14.4184,"magvar":14.4,"speed":0.000}
$GPGGA,233801.00,4404.1298456,N,12118.8428853,W,1,03,3.73,1126.37,M,-22.154,M,,*6E
$GPRMC,233801.00,A,4404.1298456,N,12118.8428853,W,0.0000,0.000,011119,14.4,E*4B
$GPGSA,A,2,16,3,31,26,23,14,1,22,,,,,3.9,3.7,1.0*3B
{"class":"TPV","mode":2,"time":"2019-11-01T23:38:01.000Z","leapseconds":18,"ept":0.005,"lat":44.068830760,"lon":-121.314048088,"altHAE":1104.2180,"altMSL":1126.3726,"alt":1126.3726,"track":0.0000,"magtrack":14.4184,"magvar":14.4,"speed":0.000,"eph":70.831,"sep":73.320}
{"class":"SKY","time":"2019-11-01T23:37:58.500Z","hdop":3.73,"pdop":3.86,"tdop":0.92,"vdop":1.00}
$GPZDA,233802.00,01,11,2019,00,00*65
$GPGGA,233802.00,4404.1297550,N,12118.8427912,W,1,03,,1126.37,M,-22.154,M,,*77
$GPRMC,233802.00,A,4404.1297550,N,12118.8427912,W,0.4073,,011119,14.4,E*65
$GPGSA,A,2,16,3,31,26,23,14,1,22,,,,,,,*1A
{"class":"TPV","mode":2,"time":"2019-11-01T23:38:02.000Z","leapseconds":18,"ept":0.005,"lat":44.068829250,"lon":-121.314046521,"altHAE":1104.2183,"altMSL":1126.3728,"alt":1126.3728,"magvar":14.4,"speed":0.210}
$GPZDA,233802.00,01,11,2019,00,00*65
$GPGGA,233802.00,4404.1298456,N,12118.8428802,W,1,03,,1126.37,M,-22.154,M,,*70
$GPRMC,233802.00,A,4404.1298456,N,12118.8428802,W,0.4073,0.000,011119,14.4,E*4C
$GPGSA,A,2,16,3,31,26,23,14,1,22,,,,,,,*1A
{"class":"TPV","mode":2,"time":"2019-11-01T23:38:02.000Z","leapseconds":18,"ept":0.005,"lat":44.068830760,"lon":-121.314048004,"altHAE":1104.2180,"altMSL":1126.3728,"alt":1126.3728,"track":0.0000,"magtrack":14.4184,"magvar":14.4,"speed":0.210}
$GPGGA,233802.00,4404.1298456,N,12118.8428802,W,1,03,3.73,1126.37,M,-22.154,M,,*69
$GPRMC,233802.00,A,4404.1298456,N,12118.8428802,W,0.4073,0.000,011119,14.4,E*4C
$GPGSA,A,2,16,3,31,26,23,14,1,22,,,,,3.9,3.7,1.0*3B
{"class":"TPV","mode":2,"time":"2019-11-01T23:38:02.000Z","leapseconds":18,"ept":0.005,"lat":44.068830760,"lon":-121.314048004,"altHAE":1104.2180,"altMSL":1126.3728,"alt":1126.3728,"track":0.0000,"magtrack":14.4184,"magvar":14.4,"speed":0.210,"eph":70.877,"sep":73.365}
{"class":"SKY","time":"2019-11-01T23:37:58.500Z","hdop":3.73,"pdop":3.86,"tdop":0.92,"vdop":1.00}
$GPZDA,233803.00,01,11,2019,00,00*64
$GPGGA,233803.00,4404.1297575,N,12118.8428158,W,1,03,,1126.37,M,-22.154,M,,*78
$GPRMC,233803.00,A,4404.1297575,N,12118.8428158,W,0.3585,,011119,14.4,E*61
$GPGSA,A,2,16,3,31,26,23,14,1,22,,,,,,,*1A
{"class":"TPV","mode":2,"time":"2019-11-01T23:38:03.000Z","leapseconds":18,"ept":0.005,"lat":44.068829292,"lon":-121.314046931,"altHAE":1104.2184,"altMSL":1126.3728,"alt":1126.3728,"magvar":14.4,"speed":0.184}
$GPZDA,233803.00,01,11,2019,00,00*64
$GPGGA,233803.00,4404.1298406,N,12118.8428802,W,1,03,,1126.37,M,-22.154,M,,*74
$GPRMC,233803.00,A,4404.1298406,N,12118.8428802,W,0.3585,0.000,011119,14.4,E*43
$GPGSA,A,2,16,3,31,26,23,14,1,22,,,,,,,*1A
{"class":"TPV","mode":2,"time":"2019-11-01T23:38:03.000Z","leapseconds":18,"ept":0.005,"lat":44.068830676,"lon":-121.314048004,"altHAE":1104.2180,"altMSL":1126.3728,"alt":1126.3728,"track":0.0000,"magtrack":14.4184,"magvar":14.4,"speed":0.184}
$GPGGA,233803.00,4404.1298406,N,12118.8428802,W,1,03,3.73,1126.37,M,-22.154,M,,*6D
$GPRMC,233803.00,A,4404.1298406,N,12118.8428802,W,0.3585,0.000,011119,14.4,E*43
$GPGSA,A,2,16,3,31,26,23,14,1,22,,,,,3.9,3.7,1.0*3B
{"class":"TPV","mode":2,"time":"2019-11-01T23:38:03.000Z","leapseconds":18,"ept":0.005,"lat":44.068830676,"lon":-121.314048004,"altHAE":1104.2180,"altMSL":1126.3728,"alt":1126.3728,"track":0.0000,"magtrack":14.4184,"magvar":14.4,"speed":0.184,"eph":70.877,"sep":73.365}
{"class":"SKY","time":"2019-11-01T23:37:58.500Z","hdop":3.73,"pdop":3.86,"tdop":0.92,"vdop":1.00}
$GPGSV,3,1,09,16,19,141,26,03,76,287,37,31,40,052,41,26,33,113,34*72
$GPGSV,3,2,09,09,16,275,00,23,46,285,29,06,11,325,00,14,26,076,34*7D
$GPGSV,3,3,09,01,24,212,37*42
{"class":"SKY","time":"2019-11-01T23:38:03.531Z","gdop":3.73,"hdop":3.73,"pdop":3.86,"tdop":0.92,"xdop":0.80,"ydop":1.18,"vdop":1.00,"nSat":9,"uSat":7,"satellites":[{"PRN":16,"gnssid":0,"svid":16,"az":140.7,"el":18.6,"ss":26.0,"used":true},{"PRN":3,"gnssid":0,"svid":3,"az":286.9,"el":76.3,"ss":37.0,"used":true},{"PRN":31,"gnssid":0,"svid":31,"az":51.9,"el":40.0,"ss":41.0,"used":true},{"PRN":26,"gnssid":0,"svid":26,"az":113.2,"el":33.5,"ss":34.0,"used":true},{"PRN":9,"gnssid":0,"svid":9,"az":275.2,"el":15.7,"ss":0.0,"used":false},{"PRN":23,"gnssid":0,"svid":23,"az":284.5,"el":46.1,"ss":29.0,"used":true},{"PRN":6,"gnssid":0,"svid":6,"az":325.1,"el":11.4,"ss":0.0,"used":false},{"PRN":14,"gnssid":0,"svid":14,"az":76.1,"el":25.7,"ss":34.0,"used":true}]}
$GPGSV,3,1,10,16,19,141,26,03,76,287,37,31,40,052,41,26,33,113,34*7A
$GPGSV,3,2,10,09,16,275,00,23,46,285,29,06,11,325,00,14,26,076,34*75
$GPGSV,3,3,10,01,24,212,37,22,74,181,37*75
{"class":"SKY","time":"2019-11-01T23:38:03.531Z","gdop":3.73,"hdop":3.73,"pdop":3.86,"tdop":0.92,"xdop":0.80,"ydop":1.18,"vdop":1.00,"nSat":10,"uSat":8,"satellites":[{"PRN":16,"gnssid":0,"svid":16,"az":140.7,"el":18.6,"ss":26.0,"used":true},{"PRN":3,"gnssid":0,"svid":3,"az":286.9,"el":76.3,"ss":37.0,"used":true},{"PRN":31,"gnssid":0,"svid":31,"az":51.9,"el":40.0,"ss":41.0,"used":true},{"PRN":26,"gnssid":0,"svid":26,"az":113.2,"el":33.5,"ss":34.0,"used":true},{"PRN":9,"gnssid":0,"svid":9,"az":275.2,"el":15.7,"ss":0.0,"used":false},{"PRN":23,"gnssid":0,"svid":23,"az":284.5,"el":46.1,"ss":29.0,"used":true},{"PRN":6,"gnssid":0,"svid":6,"az":325.1,"el":11.4,"ss":0.0,"used":false},{"PRN":14,"gnssid":0,"svid":14,"az":76.1,"el":25.7,"ss":34.0,"used":true},{"PRN":1,"gnssid":0,"svid":1,"az":212.3,"el":24.5,"ss":37.0,"used":true}]}
$GPZDA,233804.00,01,11,2019,00,00*63
$GPGGA,233804.00,4404.1297638,N,12118.8428374,W,1,03,,1126.37,M,-22.154,M,,*79
$GPRMC,233804.00,A,4404.1297638,N,12118.8428374,W,0.2979,,011119,14.4,E*6E
$GPGSA,A,2,16,3,31,26,23,14,1,22,,,,,,,*1A
{"class":"TPV","mode":2,"time":"2019-11-01T23:38:04.000Z","leapseconds":18,"ept":0.005,"lat":44.068829397,"lon":-121.314047290,"altHAE":1104.2184,"altMSL":1126.3728,"alt":1126.3728,"magvar":14.4,"speed":0.153}
$GPZDA,233804.00,01,11,2019,00,00*63
$GPGGA,233804.00,4404.1298406,N,12118.8428802,W,1,03,,1126.37,M,-22.154,M,,*73
$GPRMC,233804.00,A,4404.1298406,N,12118.8428802,W,0.2979,0.000,011119,14.4,E*4A
$GPGSA,A,2,16,3,31,26,23,14,1,22,,,,,,,*1A
{"class":"TPV","mode":2,"time":"2019-11-01T23:38:04.000Z","leapseconds":18,"ept":0.005,"lat":44.068830676,"lon":-121.314048004,"altHAE":1104.2180,"altMSL":1126.3728,"alt":1126.3728,"track":0.0000,"magtrack":14.4184,"magvar":14.4,"speed":0.153}
$GPGGA,233804.00,4404.1298406,N,12118.8428802,W,1,03,3.73,1126.37,M,-22.154,M,,*6A
$GPRMC,233804.00,A,4404.1298406,N,12118.8428802,W,0.2979,0.000,011119,14.4,E*4A
$GPGSA,A,2,16,3,31,26,23,14,1,22,,,,,3.9,3.7,1.0*3B
{"class":"TPV","mode":2,"time":"2019-11-01T23:38:04.000Z","leapseconds":18,"ept":0.005,"lat":44.068830676,"lon":-121.314048004,"altHAE":1104.2180,"altMSL":1126.3728,"alt":1126.3728,"track":0.0000,"magtrack":14.4184,"magvar":14.4,"speed":0.153,"eph":70.922,"sep":73.408}
{"class":"SKY","time":"2019-11-01T23:38:03.531Z","hdop":3.73,"pdop":3.86,"tdop":0.92,"vdop":1.00}
$GPZDA,233805.00,01,11,2019,00,00*62
$GPGGA,233805.00,4404.1297752,N,12118.8428690,W,1,03,,1126.37,M,-22.154,M,,*7A
$GPRMC,233805.00,A,4404.1297752,N,12118.8428690,W,0.2373,,011119,14.4,E*6D
$GPGSA,A,2,16,3,31,26,23,14,1,22,,,,,,,*1A
{"class":"TPV","mode":2,"time":"2019-11-01T23:38:05.000Z","leapseconds":18,"ept":0.005,"lat":44.068829586,"lon":-121.314047817,"altHAE":1104.2184,"altMSL":1126.3729,"alt":1126.3729,"magvar":14.4,"speed":0.122}
$GPZDA,233805.00,01,11,2019,00,00*62
$GPGGA,233805.00,4404.1298406,N,12118.8428802,W,1,03,,1126.37,M,-22.154,M,,*72
$GPRMC,233805.00,A,4404.1298406,N,12118.8428802,W,0.2373,0.000,011119,14.4,E*4B
$GPGSA,A,2,16,3,31,26,23,14,1,22,,,,,,,*1A
{"class":"TPV","mode":2,"time":"2019-11-01T23:38:05.000Z","leapseconds":18,"ept":0.005,"lat":44.068830676,"lon":-121.314048004,"altHAE":1104.2180,"altMSL":1126.3729,"alt":1126.3729,"track":0.0000,"magtrack":14.4184,"magvar":14.4,"speed":0.122}
$GPGGA,233805.44,,S,,W,1,03,,,M,,M,,*41
$GPRMC,233805.44,A,,S,,W,,,011119,,*0A
$GPGSA,A,2,16,3,31,26,23,14,1,22,,,,,,,*1A
{"class":"TPV","mode":2,"time":"2019-11-01T23:38:05.438Z","leapseconds":18,"ept":0.005}
$GPGGA,233805.44,,S,,W,1,03,3.73,,M,,M,,*58
$GPRMC,233805.44,A,,S,,W,,,011119,,*0A
$GPGSA,A,2,16,3,31,26,23,14,1,22,,,,,3.9,3.7,1.0*3B
{"class":"TPV","mode":2,"time":"2019-11-01T23:38:05.438Z","leapseconds":18,"ept":0.005,"eph":70.922,"sep":73.408}
{"class":"SKY","time":"2019-11-01T23:38:03.531Z","hdop":3.73,"pdop":3.86,"tdop":0.92,"vdop":1.00}
$GPZDA,233806.00,01,11,2019,00,00*61
$GPGGA,233806.00,4404.1297953,N,12118.8429362,W,1,03,,1126.37,M,-22.154,M,,*7F
$GPRMC,233806.00,A,4404.1297953,N,12118.8429362,W,,,011119,14.4,E*73
$GPGSA,A,2,16,3,31,26,23,14,1,22,,,,,,,*1A
{"class":"TPV","mode":2,"time":"2019-11-01T23:38:06.000Z","leapseconds":18,"ept":0.005,"lat":44.068829921,"lon":-121.314048936,"altHAE":1104.2185,"altMSL":1126.3729,"alt":1126.3729,"magvar":14.4}
$GPZDA,233806.00,01,11,2019,00,00*61
$GPGGA,233806.00,4404.1298406,N,12118.8428802,W,1,03,,1126.37,M,-22.154,M,,*71
$GPRMC,233806.00,A,4404.1298406,N,12118.8428802,W,0.0000,0.000,011119,14.4,E*4D
$GPGSA,A,2,16,3,31,26,23,14,1,22,,,,,,,*1A
{"class":"TPV","mode":2,"time":"2019-11-01T23:38:06.000Z","leapseconds":18,"ept":0.005,"lat":44.068830676,"lon":-121.314048004,"altHAE":1104.2180,"altMSL":1126.3729,"alt":1126.3729,"track":0.0000,"magtrack":14.4184,"magvar":14.4,"speed":0.000}
$GPGGA,233806.00,4404.1298406,N,12118.8428802,W,1,03,3.74,1126.37,M,-22.154,M,,*6F
$GPRMC,233806.00,A,4404.1298406,N,12118.8428802,W,0.0000,0.000,011119,14.4,E*4D
$GPGSA,A,2,16,3,31,26,23,14,1,22,,,,,3.9,3.7,1.0*3B
{"class":"TPV","mode":2,"time":"2019-11-01T23:38:06.000Z","leapseconds":18,"ept":0.005,"lat":44.068830676,"lon":-121.314048004,"altHAE":1104.2180,"altMSL":1126.3729,"alt":1126.3729,"track":0.0000,"magtrack":14.4184,"magvar":14.4,"speed":0.000,"eph":70.969,"sep":73.453}
{"class":"SKY","time":"2019-11-01T23:38:03.531Z","hdop":3.74,"pdop":3.87,"tdop":0.92,"vdop":1.00}
$GPZDA,233807.00,01,11,2019,00,00*60
$GPGGA,233807.00,4404.1298315,N,12118.8430213,W,1,03,,1126.37,M,-22.154,M,,*76
$GPRMC,233807.00,A,4404.1298315,N,12118.8430213,W,0.3676,,011119,14.4,E*60
$GPGSA,A,2,16,3,31,26,23,14,1,22,,,,,,,*1A
{"class":"TPV","mode":2,"time":"2019-11-01T23:38:07.000Z","leapseconds":18,"ept":0.005,"lat":44.068830525,"lon":-121.314050355,"altHAE":1104.2186,"altMSL":1126.3730,"alt":1126.3730,"magvar":14.4,"speed":0.189}
$GPZDA,233807.00,01,11,2019,00,00*60
$GPGGA,233807.00,4404.1298406,N,12118.8428802,W,1,03,,1126.37,M,-22.154,M,,*70
$GPRMC,233807.00,A,4404.1298406,N,12118.8428802,W,0.3676,0.000,011119,14.4,E*48
$GPGSA,A,2,16,3,31,26,23,14,1,22,,,,,,,*1A
{"class":"TPV","mode":2,"time":"2019-11-01T23:38:07.000Z","leapseconds":18,"ept":0.005,"lat":44.068830676,"lon":-121.314048004,"altHAE":1104.2180,"altMSL":1126.3730,"alt":1126.3730,"track":0.0000,"magtrack":14.4184,"magvar":14.4,"speed":0.189}
$GPGGA,233807.00,4404.1298406,N,12118.8428802,W,1,03,3.74,1126.37,M,-22.154,M,,*6E
$GPRMC,233807.00,A,4404.1298406,N,12118.8428802,W,0.3676,0.000,011119,14.4,E*48
$GPGSA,A,2,16,3,31,26,23,14,1,22,,,,,3.9,3.7,1.0*3B
{"class":"TPV","mode":2,"time":"2019-11-01T23:38:07.000Z","leapseconds":18,"ept":0.005,"lat":44.068830676,"lon":-121.314048004,"altHAE":1104.2180,"altMSL":1126.3730,"alt":1126.3730,"track":0.0000,"magtrack":14.4184,"magvar":14.4,"speed":0.189,"eph":70.969,"sep":73.453}
{"class":"SKY","time":"2019-11-01T23:38:03.531Z","hdop":3.74,"pdop":3.87,"tdop":0.92,"vdop":1.00}
$GPZDA,233808.00,01,11,2019,00,00*6F
$GPGGA,233808.00,4404.1298485,N,12118.8430808,W,1,03,,1126.37,M,-22.154,M,,*77
$GPRMC,233808.00,A,4404.1298485,N,12118.8430808,W,0.5213,,011119,14.4,E*60
$GPGSA,A,2,16,3,31,26,23,14,1,22,,,,,,,*1A
{"class":"TPV","mode":2,"time":"2019-11-01T23:38:08.000Z","leapseconds":18,"ept":0.005,"lat":44.068830809,"lon":-121.314051347,"altHAE":1104.2185,"altMSL":1126.3729,"alt":1126.3729,"magvar":14.4,"speed":0.268}
$GPZDA,233808.00,01,11,2019,00,00*6F
$GPGGA,233808.00,4404.1298406,N,12118.8428853,W,1,03,,1126.37,M,-22.154,M,,*7B
$GPRMC,233808.00,A,4404.1298406,N,12118.8428853,W,0.5213,0.000,011119,14.4,E*42
$GPGSA,A,2,16,3,31,26,23,14,1,22,,,,,,,*1A
{"class":"TPV","mode":2,"time":"2019-11-01T23:38:08.000Z","leapseconds":18,"ept":0.005,"lat":44.068830676,"lon":-121.314048088,"altHAE":1104.2180,"altMSL":1126.3729,"alt":1126.3729,"track":0.0000,"magtrack":14.4184,"magvar":14.4,"speed":0.268}
$GPGGA,233808.00,4404.1298406,N,12118.8428853,W,1,03,3.74,1126.37,M,-22.154,M,,*65
$GPRMC,233808.00,A,4404.1298406,N,12118.8428853,W,0.5213,0.000,011119,14.4,E*42
$GPGSA,A,2,16,3,31,26,23,14,1,22,,,,,3.9,3.7,1.0*3B
{"class":"TPV","mode":2,"time":"2019-11-01T23:38:08.000Z","leapseconds":18,"ept":0.005,"lat":44.068830676,"lon":-121.314048088,"altHAE":1104.2180,"altMSL":1126.3729,"alt":1126.3729,"track":0.0000,"magtrack":14.4184,"magvar":14.4,"speed":0.268,"eph":71.025,"sep":73.508}
{"class":"SKY","time":"2019-11-01T23:38:03.531Z","hdop":3.74,"pdop":3.87,"tdop":0.92,"vdop":1.00}
$GPGSV,3,1,09,16,19,141,26,03,76,287,37,31,40,052,41,26,34,113,33*72
$GPGSV,3,2,09,09,16,275,00,23,46,285,29,06,11,325,00,14,26,076,34*7D
$GPGSV,3,3,09,01,24,212,37*42
