{"class":"SKY","time":"2019-04-13T02:05:14.000Z","nSat":0,"uSat":0}
{"class":"SKY","time":"2019-04-13T02:05:14.000Z","nSat":0,"uSat":0}
{"class":"SKY","time":"2019-04-13T02:05:14.000Z","nSat":0,"uSat":0}
{"class":"SKY","time":"2019-04-13T02:05:14.000Z","nSat":0,"uSat":0}
{"class":"SKY","time":"2019-04-13T02:05:14.000Z","nSat":0,"uSat":0}
{"class":"SKY","time":"2019-04-13T02:05:14.000Z","nSat":0,"uSat":0}
{"class":"SKY","time":"2019-04-13T02:05:14.000Z","nSat":0,"uSat":0}
{"class":"SKY","time":"2019-04-13T02:05:14.000Z","nSat":0,"uSat":0}
{"class":"SKY","time":"2019-04-13T02:05:14.000Z","nSat":0,"uSat":0}
{"class":"SKY","time":"2019-04-13T02:05:14.000Z","nSat":0,"uSat":0}
{"class":"SKY","time":"2019-04-13T02:05:14.000Z","nSat":0,"uSat":0}
{"class":"SKY","time":"2019-04-13T02:05:14.000Z","nSat":0,"uSat":0}
{"class":"SKY","time":"2019-04-13T02:05:14.000Z","nSat":0,"uSat":0}
{"class":"SKY","time":"2019-04-13T02:05:14.000Z","nSat":0,"uSat":0}
{"class":"SKY","time":"2019-04-13T02:05:14.000Z","nSat":0,"uSat":0}
{"class":"SKY","time":"2019-04-13T02:05:14.000Z","nSat":0,"uSat":0}
{"class":"SKY","time":"2019-04-13T02:05:14.000Z","nSat":0,"uSat":0}
{"class":"SKY","time":"2019-04-13T02:05:14.000Z","nSat":0,"uSat":0}
{"class":"SKY","time":"2019-04-13T02:05:14.000Z","nSat":0,"uSat":0}
{"class":"SKY","time":"2019-04-13T02:05:14.000Z","nSat":0,"uSat":0}
{"class":"SKY","time":"2019-04-13T02:05:14.000Z","nSat":0,"uSat":0}
{"class":"SKY","time":"2019-04-13T02:05:14.000Z","nSat":0,"uSat":0}
{"class":"SKY","time":"2019-04-13T02:05:14.000Z","nSat":0,"uSat":0}
{"class":"SKY","time":"2019-04-13T02:05:14.000Z","nSat":0,"uSat":0}
{"class":"SKY","time":"2019-04-13T02:05:14.000Z","nSat":0,"uSat":0}
{"class":"SKY","time":"2019-04-13T02:05:14.000Z","nSat":0,"uSat":0}
{"class":"SKY","time":"2019-04-13T02:05:14.000Z","nSat":0,"uSat":0}
{"class":"SKY","time":"2019-04-13T02:05:14.000Z","nSat":0,"uSat":0}
{"class":"SKY","time":"2019-04-13T02:05:14.000Z","nSat":0,"uSat":0}
{"class":"SKY","time":"2019-04-13T02:05:14.000Z","nSat":0,"uSat":0}
{"class":"SKY","time":"2019-04-13T02:05:14.000Z","nSat":0,"uSat":0}
{"class":"SKY","time":"2019-04-13T02:05:14.000Z","nSat":0,"uSat":0}
{"class":"SKY","time":"2019-04-13T02:05:14.000Z","nSat":0,"uSat":0}
{"class":"SKY","time":"2019-04-13T02:05:14.000Z","nSat":0,"uSat":0}
{"class":"SKY","time":"2019-04-13T02:05:14.000Z","nSat":0,"uSat":0}
{"class":"SKY","time":"2019-04-13T02:05:14.000Z","nSat":0,"uSat":0}
{"class":"SKY","time":"2019-04-13T02:05:14.000Z","nSat":0,"uSat":0}
{"class":"SKY","time":"2019-04-13T02:05:14.000Z","nSat":0,"uSat":0}
{"class":"SKY","time":"2019-04-13T02:05:14.000Z","nSat":0,"uSat":0}
{"class":"SKY","time":"2019-04-13T02:05:14.000Z","nSat":0,"uSat":0}
{"class":"SKY","time":"2019-04-13T02:05:14.000Z","nSat":0,"uSat":0}
{"class":"SKY","time":"2019-04-13T02:05:14.000Z","nSat":0,"uSat":0}
{"class":"SKY","time":"2019-04-13T02:05:14.000Z","nSat":0,"uSat":0}
{"class":"SKY","time":"2019-04-13T02:05:14.000Z","nSat":0,"uSat":0}
{"class":"SKY","time":"2019-04-13T02:05:14.000Z","nSat":0,"uSat":0}
$GPGGA,020516.00,4404.1297220,N,12118.8439480,W,1,00,,1133.41,M,-22.154,M,,*70
$GPRMC,020516.00,A,4404.1297220,N,12118.8439480,W,0.0043,241.897,240224,14.4,E*47
$GPGSA,A,3,327,327,321,321,412,20,315,315,330,330,429,429,1.1,,*07
{"class":"TPV","mode":3,"time":"2024-02-24T02:05:16.000Z","leapseconds":18,"ept":0.005,"lat":44.068828700,"lon":-121.314065800,"altHAE":1111.2570,"altMSL":1133.4115,"alt":1133.4115,"epv":12.632,"track":241.8970,"magtrack":256.3154,"magvar":14.4,"speed":0.002,"climb":0.000,"velN":-0.001,"velE":-0.002,"velD":0.000,"geoidSep":-22.154,"eph":4.022,"sep":20.900}
{"class":"SKY","time":"2019-04-13T02:05:14.000Z","pdop":1.10}
$GPZDA,020516.00,24,02,2024,00,00*66
$GPGGA,020516.00,4404.1297220,N,12118.8439480,W,7,00,0.54,1133.41,M,-22.154,M,,*69
$GPRMC,020516.00,A,4404.1297220,N,12118.8439480,W,0.0043,241.897,240224,14.4,E*47
$GPGSA,A,3,327,327,321,321,412,20,315,315,330,330,429,429,1.1,0.5,1.0*03
{"class":"TPV","status":7,"mode":3,"time":"2024-02-24T02:05:16.000Z","leapseconds":18,"ept":0.005,"lat":44.068828700,"lon":-121.314065800,"altHAE":1111.2570,"altMSL":1133.4115,"alt":1133.4115,"epv":12.632,"track":241.8970,"magtrack":256.3154,"magvar":14.4,"speed":0.002,"climb":0.000,"velN":-0.001,"velE":-0.002,"velD":0.000,"geoidSep":-22.154,"eph":4.022,"sep":20.900,"temp":30.841}
{"class":"SKY","time":"2019-04-13T02:05:14.000Z","hdop":0.54,"pdop":1.10,"tdop":0.60,"vdop":0.96}
$GPGSV,11,1,42,327,62,232,36,327,62,232,40,321,34,310,44,321,34,310,40*4B
$GPGSV,11,2,42,412,25,280,30,20,41,056,20,315,78,003,40,315,78,003,36*73
$GPGSV,11,3,42,330,26,170,34,330,26,170,41,429,19,086,30,429,19,086,22*4D
$GPGSV,11,4,42,11,19,059,33,11,19,059,33,72,29,112,41,435,73,040,37*74
$GPGSV,11,5,42,435,73,040,36,12,24,168,32,71,30,056,29,78,41,299,45*72
$GPGSV,11,6,42,422,18,159,28,419,38,103,27,419,38,103,34,420,22,048,36*4E
$GPGSV,11,7,42,420,22,048,24,334,30,056,38,334,30,056,32,15,00,000,28*70
$GPGSV,11,8,42,424,32,276,40,424,32,276,32,18,32,251,28,18,32,251,24*4E
$GPGSV,11,9,42,426,24,220,30,05,62,114,37,313,38,253,24,313,38,253,22*74
$GPGSV,11,10,42,29,70,324,39,303,07,115,18,303,07,115,25,25,48,197,36*72
$GPGSV,11,11,42,25,48,197,37,31,00,000,23*7C
{"class":"SKY","time":"2024-02-24T02:05:15.000Z","gdop":0.99,"hdop":0.54,"pdop":1.10,"tdop":0.60,"xdop":0.27,"ydop":0.35,"vdop":0.96,"nSat":43,"uSat":41,"satellites":[{"PRN":327,"gnssid":2,"svid":27,"az":232.0,"el":62.0,"ss":36.0,"used":true},{"PRN":327,"gnssid":2,"svid":27,"sigid":3,"az":232.0,"el":62.0,"ss":40.0,"used":true},{"PRN":321,"gnssid":2,"svid":21,"az":310.0,"el":34.0,"ss":44.0,"used":true},{"PRN":321,"gnssid":2,"svid":21,"sigid":3,"az":310.0,"el":34.0,"ss":40.0,"used":true},{"PRN":412,"gnssid":3,"svid":12,"az":280.0,"el":25.0,"ss":30.0,"used":true},{"PRN":20,"gnssid":0,"svid":20,"az":56.0,"el":41.0,"ss":20.0,"used":true},{"PRN":315,"gnssid":2,"svid":15,"az":3.0,"el":78.0,"ss":40.0,"used":true},{"PRN":315,"gnssid":2,"svid":15,"sigid":3,"az":3.0,"el":78.0,"ss":36.0,"used":true},{"PRN":330,"gnssid":2,"svid":30,"az":170.0,"el":26.0,"ss":34.0,"used":true},{"PRN":330,"gnssid":2,"svid":30,"sigid":3,"az":170.0,"el":26.0,"ss":41.0,"used":true},{"PRN":429,"gnssid":3,"svid":29,"az":86.0,"el":19.0,"ss":30.0,"used":true},{"PRN":429,"gnssid":3,"svid":29,"sigid":3,"az":86.0,"el":19.0,"ss":22.0,"used":true},{"PRN":11,"gnssid":0,"svid":11,"az":59.0,"el":19.0,"ss":33.0,"used":true},{"PRN":11,"gnssid":0,"svid":11,"sigid":6,"az":59.0,"el":19.0,"ss":33.0,"used":true},{"PRN":72,"gnssid":6,"svid":8,"az":112.0,"el":29.0,"ss":41.0,"used":true},{"PRN":435,"gnssid":3,"svid":35,"az":40.0,"el":73.0,"ss":37.0,"used":true},{"PRN":435,"gnssid":3,"svid":35,"sigid":3,"az":40.0,"el":73.0,"ss":36.0,"used":true},{"PRN":12,"gnssid":0,"svid":12,"az":168.0,"el":24.0,"ss":32.0,"used":true},{"PRN":71,"gnssid":6,"svid":7,"az":56.0,"el":30.0,"ss":29.0,"used":true},{"PRN":78,"gnssid":6,"svid":14,"az":299.0,"el":41.0,"ss":45.0,"used":true},{"PRN":422,"gnssid":3,"svid":22,"az":159.0,"el":18.0,"ss":28.0,"used":true},{"PRN":422,"gnssid":3,"svid":22,"sigid":3,"ss":32.0,"used":true},{"PRN":419,"gnssid":3,"svid":19,"az":103.0,"el":38.0,"ss":27.0,"used":true},{"PRN":419,"gnssid":3,"svid":19,"sigid":3,"az":103.0,"el":38.0,"ss":34.0,"used":true},{"PRN":420,"gnssid":3,"svid":20,"az":48.0,"el":22.0,"ss":36.0,"used":true},{"PRN":420,"gnssid":3,"svid":20,"sigid":3,"az":48.0,"el":22.0,"ss":24.0,"used":true},{"PRN":334,"gnssid":2,"svid":34,"az":56.0,"el":30.0,"ss":38.0,"used":true},{"PRN":334,"gnssid":2,"svid":34,"sigid":3,"az":56.0,"el":30.0,"ss":32.0,"used":true},{"PRN":15,"gnssid":0,"svid":15,"az":0.0,"el":0.0,"ss":28.0,"used":false},{"PRN":424,"gnssid":3,"svid":24,"az":276.0,"el":32.0,"ss":40.0,"used":true},{"PRN":424,"gnssid":3,"svid":24,"sigid":3,"az":276.0,"el":32.0,"ss":32.0,"used":true},{"PRN":18,"gnssid":0,"svid":18,"az":251.0,"el":32.0,"ss":28.0,"used":true},{"PRN":18,"gnssid":0,"svid":18,"sigid":6,"az":251.0,"el":32.0,"ss":24.0,"used":true},{"PRN":426,"gnssid":3,"svid":26,"az":220.0,"el":24.0,"ss":30.0,"used":true},{"PRN":5,"gnssid":0,"svid":5,"az":114.0,"el":62.0,"ss":37.0,"used":true},{"PRN":313,"gnssid":2,"svid":13,"az":253.0,"el":38.0,"ss":24.0,"used":true},{"PRN":313,"gnssid":2,"svid":13,"sigid":3,"az":253.0,"el":38.0,"ss":22.0,"used":true},{"PRN":29,"gnssid":0,"svid":29,"az":324.0,"el":70.0,"ss":39.0,"used":true},{"PRN":303,"gnssid":2,"svid":3,"az":115.0,"el":7.0,"ss":18.0,"used":true},{"PRN":303,"gnssid":2,"svid":3,"sigid":3,"az":115.0,"el":7.0,"ss":25.0,"used":true},{"PRN":25,"gnssid":0,"svid":25,"az":197.0,"el":48.0,"ss":36.0,"used":true}]}
$GPGGA,020517.00,4404.1297220,N,12118.8439540,W,1,00,,1133.41,M,-22.154,M,,*7C
$GPRMC,020517.00,A,4404.1297220,N,12118.8439540,W,0.0000,180.000,240224,14.4,E*44
$GPGSA,A,3,327,327,321,321,412,20,315,315,330,330,429,429,1.1,,*07
{"class":"TPV","mode":3,"time":"2024-02-24T02:05:17.000Z","leapseconds":18,"ept":0.005,"lat":44.068828700,"lon":-121.314065900,"altHAE":1111.2570,"altMSL":1133.4115,"alt":1133.4115,"epv":12.668,"track":180.0000,"magtrack":194.4184,"magvar":14.4,"speed":0.000,"climb":0.000,"epc":25.30,"velN":0.000,"velE":0.000,"velD":0.000,"geoidSep":-22.154,"eph":4.060,"sep":20.900}
{"class":"SKY","time":"2024-02-24T02:05:15.000Z","pdop":1.10}
$GPZDA,020517.00,24,02,2024,00,00*67
$GPGGA,020517.00,4404.1297220,N,12118.8439540,W,7,00,0.54,1133.41,M,-22.154,M,,*65
$GPRMC,020517.00,A,4404.1297220,N,12118.8439540,W,0.0000,180.000,240224,14.4,E*44
$GPGSA,A,3,327,327,321,321,412,20,315,315,330,330,429,429,1.1,0.5,1.0*03
{"class":"TPV","status":7,"mode":3,"time":"2024-02-24T02:05:17.000Z","leapseconds":18,"ept":0.005,"lat":44.068828700,"lon":-121.314065900,"altHAE":1111.2570,"altMSL":1133.4115,"alt":1133.4115,"epv":12.668,"track":180.0000,"magtrack":194.4184,"magvar":14.4,"speed":0.000,"climb":0.000,"epc":25.30,"velN":0.000,"velE":0.000,"velD":0.000,"geoidSep":-22.154,"eph":4.060,"sep":20.900,"temp":30.893}
{"class":"SKY","time":"2024-02-24T02:05:15.000Z","hdop":0.54,"pdop":1.10,"tdop":0.60,"vdop":0.96}
$GPGSV,11,1,42,327,62,232,36,327,62,232,39,321,34,310,44,321,34,310,39*4B
$GPGSV,11,2,42,412,25,280,29,20,41,056,20,315,78,003,39,315,78,003,35*76
$GPGSV,11,3,42,330,26,170,34,330,26,170,40,429,19,086,30,429,19,086,21*4F
$GPGSV,11,4,42,11,19,059,33,11,19,059,31,72,29,112,41,435,73,040,37*76
$GPGSV,11,5,42,435,73,040,35,12,24,168,31,71,30,056,29,78,41,299,45*72
$GPGSV,11,6,42,422,18,159,27,419,38,103,27,419,38,103,33,420,22,048,35*45
$GPGSV,11,7,42,420,22,048,23,334,30,056,38,334,30,056,31,15,00,000,26*7A
$GPGSV,11,8,42,424,32,276,40,424,32,276,30,18,32,251,30,18,32,251,22*43
$GPGSV,11,9,42,426,24,220,30,05,62,114,38,313,38,253,25,313,38,253,22*7A
$GPGSV,11,10,42,29,70,324,39,303,07,115,16,303,07,115,24,25,48,197,36*7D
$GPGSV,11,11,42,25,48,197,36,31,00,000,22*7C
{"class":"SKY","time":"2024-02-24T02:05:16.000Z","gdop":0.99,"hdop":0.54,"pdop":1.10,"tdop":0.60,"xdop":0.27,"ydop":0.35,"vdop":0.96,"nSat":43,"uSat":41,"satellites":[{"PRN":327,"gnssid":2,"svid":27,"az":232.0,"el":62.0,"ss":36.0,"used":true},{"PRN":327,"gnssid":2,"svid":27,"sigid":3,"az":232.0,"el":62.0,"ss":39.0,"used":true},{"PRN":321,"gnssid":2,"svid":21,"az":310.0,"el":34.0,"ss":44.0,"used":true},{"PRN":321,"gnssid":2,"svid":21,"sigid":3,"az":310.0,"el":34.0,"ss":39.0,"used":true},{"PRN":412,"gnssid":3,"svid":12,"az":280.0,"el":25.0,"ss":29.0,"used":true},{"PRN":20,"gnssid":0,"svid":20,"az":56.0,"el":41.0,"ss":20.0,"used":true},{"PRN":315,"gnssid":2,"svid":15,"az":3.0,"el":78.0,"ss":39.0,"used":true},{"PRN":315,"gnssid":2,"svid":15,"sigid":3,"az":3.0,"el":78.0,"ss":35.0,"used":true},{"PRN":330,"gnssid":2,"svid":30,"az":170.0,"el":26.0,"ss":34.0,"used":true},{"PRN":330,"gnssid":2,"svid":30,"sigid":3,"az":170.0,"el":26.0,"ss":40.0,"used":true},{"PRN":429,"gnssid":3,"svid":29,"az":86.0,"el":19.0,"ss":30.0,"used":true},{"PRN":429,"gnssid":3,"svid":29,"sigid":3,"az":86.0,"el":19.0,"ss":21.0,"used":true},{"PRN":11,"gnssid":0,"svid":11,"az":59.0,"el":19.0,"ss":33.0,"used":true},{"PRN":11,"gnssid":0,"svid":11,"sigid":6,"az":59.0,"el":19.0,"ss":31.0,"used":true},{"PRN":72,"gnssid":6,"svid":8,"az":112.0,"el":29.0,"ss":41.0,"used":true},{"PRN":435,"gnssid":3,"svid":35,"az":40.0,"el":73.0,"ss":37.0,"used":true},{"PRN":435,"gnssid":3,"svid":35,"sigid":3,"az":40.0,"el":73.0,"ss":35.0,"used":true},{"PRN":12,"gnssid":0,"svid":12,"az":168.0,"el":24.0,"ss":31.0,"used":true},{"PRN":71,"gnssid":6,"svid":7,"az":56.0,"el":30.0,"ss":29.0,"used":true},{"PRN":78,"gnssid":6,"svid":14,"az":299.0,"el":41.0,"ss":45.0,"used":true},{"PRN":422,"gnssid":3,"svid":22,"az":159.0,"el":18.0,"ss":27.0,"used":true},{"PRN":422,"gnssid":3,"svid":22,"sigid":3,"ss":32.0,"used":true},{"PRN":419,"gnssid":3,"svid":19,"az":103.0,"el":38.0,"ss":27.0,"used":true},{"PRN":419,"gnssid":3,"svid":19,"sigid":3,"az":103.0,"el":38.0,"ss":33.0,"used":true},{"PRN":420,"gnssid":3,"svid":20,"az":48.0,"el":22.0,"ss":35.0,"used":true},{"PRN":420,"gnssid":3,"svid":20,"sigid":3,"az":48.0,"el":22.0,"ss":23.0,"used":true},{"PRN":334,"gnssid":2,"svid":34,"az":56.0,"el":30.0,"ss":38.0,"used":true},{"PRN":334,"gnssid":2,"svid":34,"sigid":3,"az":56.0,"el":30.0,"ss":31.0,"used":true},{"PRN":15,"gnssid":0,"svid":15,"az":0.0,"el":0.0,"ss":26.0,"used":false},{"PRN":424,"gnssid":3,"svid":24,"az":276.0,"el":32.0,"ss":40.0,"used":true},{"PRN":424,"gnssid":3,"svid":24,"sigid":3,"az":276.0,"el":32.0,"ss":30.0,"used":true},{"PRN":18,"gnssid":0,"svid":18,"az":251.0,"el":32.0,"ss":30.0,"used":true},{"PRN":18,"gnssid":0,"svid":18,"sigid":6,"az":251.0,"el":32.0,"ss":22.0,"used":true},{"PRN":426,"gnssid":3,"svid":26,"az":220.0,"el":24.0,"ss":30.0,"used":true},{"PRN":5,"gnssid":0,"svid":5,"az":114.0,"el":62.0,"ss":38.0,"used":true},{"PRN":313,"gnssid":2,"svid":13,"az":253.0,"el":38.0,"ss":25.0,"used":true},{"PRN":313,"gnssid":2,"svid":13,"sigid":3,"az":253.0,"el":38.0,"ss":22.0,"used":true},{"PRN":29,"gnssid":0,"svid":29,"az":324.0,"el":70.0,"ss":39.0,"used":true},{"PRN":303,"gnssid":2,"svid":3,"az":115.0,"el":7.0,"ss":16.0,"used":true},{"PRN":303,"gnssid":2,"svid":3,"sigid":3,"az":115.0,"el":7.0,"ss":24.0,"used":true},{"PRN":25,"gnssid":0,"svid":25,"az":197.0,"el":48.0,"ss":36.0,"used":true}]}
$GPGGA,020518.00,4404.1297220,N,12118.8439480,W,1,00,,1133.41,M,-22.154,M,,*7E
$GPRMC,020518.00,A,4404.1297220,N,12118.8439480,W,0.0070,241.897,240224,14.4,E*49
$GPGSA,A,3,327,327,321,321,412,20,315,315,330,330,429,429,1.1,,*07
{"class":"TPV","mode":3,"time":"2024-02-24T02:05:18.000Z","leapseconds":18,"ept":0.005,"lat":44.068828700,"lon":-121.314065800,"altHAE":1111.2570,"altMSL":1133.4115,"alt":1133.4115,"epv":12.575,"track":241.8970,"magtrack":256.3155,"magvar":14.4,"speed":0.004,"climb":0.000,"epc":25.24,"velN":-0.002,"velE":-0.003,"velD":0.000,"geoidSep":-22.154,"eph":4.101,"sep":21.090}
{"class":"SKY","time":"2024-02-24T02:05:16.000Z","pdop":1.11}
$GPZDA,020518.00,24,02,2024,00,00*68
$GPGGA,020518.00,4404.1297220,N,12118.8439480,W,7,00,0.54,1133.41,M,-22.154,M,,*67
$GPRMC,020518.00,A,4404.1297220,N,12118.8439480,W,0.0070,241.897,240224,14.4,E*49
$GPGSA,A,3,327,327,321,321,412,20,315,315,330,330,429,429,1.1,0.5,1.0*03
{"class":"TPV","status":7,"mode":3,"time":"2024-02-24T02:05:18.000Z","leapseconds":18,"ept":0.005,"lat":44.068828700,"lon":-121.314065800,"altHAE":1111.2570,"altMSL":1133.4115,"alt":1133.4115,"epv":12.575,"track":241.8970,"magtrack":256.3155,"magvar":14.4,"speed":0.004,"climb":0.000,"epc":25.24,"velN":-0.002,"velE":-0.003,"velD":0.000,"geoidSep":-22.154,"eph":4.101,"sep":21.090,"temp":30.934}
{"class":"SKY","time":"2024-02-24T02:05:16.000Z","hdop":0.54,"pdop":1.11,"tdop":0.60,"vdop":0.97}
$GPGSV,11,1,42,327,62,232,36,327,62,232,40,321,34,310,45,321,34,310,40*4A
$GPGSV,11,2,42,412,25,280,30,20,41,056,21,315,78,003,40,315,78,003,35*71
$GPGSV,11,3,42,330,26,170,34,330,26,170,40,429,19,086,32,429,19,086,22*4E
$GPGSV,11,4,42,11,19,059,33,11,19,059,32,72,29,112,41,435,73,040,38*7A
$GPGSV,11,5,42,435,73,040,36,12,24,168,31,71,30,056,26,78,41,299,45*7E
$GPGSV,11,6,42,422,18,159,25,419,38,103,26,419,38,103,33,420,22,048,36*45
$GPGSV,11,7,42,420,22,048,24,334,30,056,38,334,30,056,31,15,00,000,28*73
$GPGSV,11,8,42,424,32,276,40,424,32,276,32,18,32,251,31,18,32,251,23*41
$GPGSV,11,9,42,426,24,220,30,05,62,114,38,313,38,253,24,313,38,253,22*7B
$GPGSV,11,10,42,29,70,324,39,303,07,115,18,303,07,115,26,25,48,197,36*71
$GPGSV,11,11,42,25,48,197,37,31,00,000,23*7C
{"class":"SKY","time":"2024-02-24T02:05:17.000Z","gdop":0.99,"hdop":0.54,"pdop":1.11,"tdop":0.60,"xdop":0.27,"ydop":0.35,"vdop":0.97,"nSat":43,"uSat":41,"satellites":[{"PRN":327,"gnssid":2,"svid":27,"az":232.0,"el":62.0,"ss":36.0,"used":true},{"PRN":327,"gnssid":2,"svid":27,"sigid":3,"az":232.0,"el":62.0,"ss":40.0,"used":true},{"PRN":321,"gnssid":2,"svid":21,"az":310.0,"el":34.0,"ss":45.0,"used":true},{"PRN":321,"gnssid":2,"svid":21,"sigid":3,"az":310.0,"el":34.0,"ss":40.0,"used":true},{"PRN":412,"gnssid":3,"svid":12,"az":280.0,"el":25.0,"ss":30.0,"used":true},{"PRN":20,"gnssid":0,"svid":20,"az":56.0,"el":41.0,"ss":21.0,"used":true},{"PRN":315,"gnssid":2,"svid":15,"az":3.0,"el":78.0,"ss":40.0,"used":true},{"PRN":315,"gnssid":2,"svid":15,"sigid":3,"az":3.0,"el":78.0,"ss":35.0,"used":true},{"PRN":330,"gnssid":2,"svid":30,"az":170.0,"el":26.0,"ss":34.0,"used":true},{"PRN":330,"gnssid":2,"svid":30,"sigid":3,"az":170.0,"el":26.0,"ss":40.0,"used":true},{"PRN":429,"gnssid":3,"svid":29,"az":86.0,"el":19.0,"ss":32.0,"used":true},{"PRN":429,"gnssid":3,"svid":29,"sigid":3,"az":86.0,"el":19.0,"ss":22.0,"used":true},{"PRN":11,"gnssid":0,"svid":11,"az":59.0,"el":19.0,"ss":33.0,"used":true},{"PRN":11,"gnssid":0,"svid":11,"sigid":6,"az":59.0,"el":19.0,"ss":32.0,"used":true},{"PRN":72,"gnssid":6,"svid":8,"az":112.0,"el":29.0,"ss":41.0,"used":true},{"PRN":435,"gnssid":3,"svid":35,"az":40.0,"el":73.0,"ss":38.0,"used":true},{"PRN":435,"gnssid":3,"svid":35,"sigid":3,"az":40.0,"el":73.0,"ss":36.0,"used":true},{"PRN":12,"gnssid":0,"svid":12,"az":168.0,"el":24.0,"ss":31.0,"used":true},{"PRN":71,"gnssid":6,"svid":7,"az":56.0,"el":30.0,"ss":26.0,"used":true},{"PRN":78,"gnssid":6,"svid":14,"az":299.0,"el":41.0,"ss":45.0,"used":true},{"PRN":422,"gnssid":3,"svid":22,"az":159.0,"el":18.0,"ss":25.0,"used":true},{"PRN":422,"gnssid":3,"svid":22,"sigid":3,"ss":33.0,"used":true},{"PRN":419,"gnssid":3,"svid":19,"az":103.0,"el":38.0,"ss":26.0,"used":true},{"PRN":419,"gnssid":3,"svid":19,"sigid":3,"az":103.0,"el":38.0,"ss":33.0,"used":true},{"PRN":420,"gnssid":3,"svid":20,"az":48.0,"el":22.0,"ss":36.0,"used":true},{"PRN":420,"gnssid":3,"svid":20,"sigid":3,"az":48.0,"el":22.0,"ss":24.0,"used":true},{"PRN":334,"gnssid":2,"svid":34,"az":56.0,"el":30.0,"ss":38.0,"used":true},{"PRN":334,"gnssid":2,"svid":34,"sigid":3,"az":56.0,"el":30.0,"ss":31.0,"used":true},{"PRN":15,"gnssid":0,"svid":15,"az":0.0,"el":0.0,"ss":28.0,"used":false},{"PRN":424,"gnssid":3,"svid":24,"az":276.0,"el":32.0,"ss":40.0,"used":true},{"PRN":424,"gnssid":3,"svid":24,"sigid":3,"az":276.0,"el":32.0,"ss":32.0,"used":true},{"PRN":18,"gnssid":0,"svid":18,"az":251.0,"el":32.0,"ss":31.0,"used":true},{"PRN":18,"gnssid":0,"svid":18,"sigid":6,"az":251.0,"el":32.0,"ss":23.0,"used":true},{"PRN":426,"gnssid":3,"svid":26,"az":220.0,"el":24.0,"ss":30.0,"used":true},{"PRN":5,"gnssid":0,"svid":5,"az":114.0,"el":62.0,"ss":38.0,"used":true},{"PRN":313,"gnssid":2,"svid":13,"az":253.0,"el":38.0,"ss":24.0,"used":true},{"PRN":313,"gnssid":2,"svid":13,"sigid":3,"az":253.0,"el":38.0,"ss":22.0,"used":true},{"PRN":29,"gnssid":0,"svid":29,"az":324.0,"el":70.0,"ss":39.0,"used":true},{"PRN":303,"gnssid":2,"svid":3,"az":115.0,"el":7.0,"ss":18.0,"used":true},{"PRN":303,"gnssid":2,"svid":3,"sigid":3,"az":115.0,"el":7.0,"ss":26.0,"used":true},{"PRN":25,"gnssid":0,"svid":25,"az":197.0,"el":48.0,"ss":36.0,"used":true}]}
$GPGGA,020519.00,4404.1297160,N,12118.8439600,W,1,00,,1133.41,M,-22.154,M,,*72
$GPRMC,020519.00,A,4404.1297160,N,12118.8439600,W,0.0058,241.897,240224,14.4,E*4F
$GPGSA,A,3,327,327,321,321,412,20,315,315,330,330,429,429,1.1,,*07
{"class":"TPV","mode":3,"time":"2024-02-24T02:05:19.000Z","leapseconds":18,"ept":0.005,"lat":44.068828600,"lon":-121.314066000,"altHAE":1111.2560,"altMSL":1133.4105,"alt":1133.4105,"epv":12.727,"track":241.8970,"magtrack":256.3155,"magvar":14.4,"speed":0.003,"climb":0.000,"epc":25.30,"velN":-0.001,"velE":-0.003,"velD":0.000,"geoidSep":-22.154,"eph":4.151,"sep":20.900}
{"class":"SKY","time":"2024-02-24T02:05:17.000Z","pdop":1.10}
$GPZDA,020519.00,24,02,2024,00,00*69
$GPGGA,020519.00,4404.1297160,N,12118.8439600,W,7,00,0.54,1133.41,M,-22.154,M,,*6B
$GPRMC,020519.00,A,4404.1297160,N,12118.8439600,W,0.0058,241.897,240224,14.4,E*4F
$GPGSA,A,3,327,327,321,321,412,20,315,315,330,330,429,429,1.1,0.5,1.0*03
{"class":"TPV","status":7,"mode":3,"time":"2024-02-24T02:05:19.000Z","leapseconds":18,"ept":0.005,"lat":44.068828600,"lon":-121.314066000,"altHAE":1111.2560,"altMSL":1133.4105,"alt":1133.4105,"epv":12.727,"track":241.8970,"magtrack":256.3155,"magvar":14.4,"speed":0.003,"climb":0.000,"epc":25.30,"velN":-0.001,"velE":-0.003,"velD":0.000,"geoidSep":-22.154,"eph":4.151,"sep":20.900,"temp":30.915}
{"class":"SKY","time":"2024-02-24T02:05:17.000Z","hdop":0.54,"pdop":1.10,"tdop":0.60,"vdop":0.96}
$GPGSV,11,1,42,327,62,232,36,327,62,232,40,321,34,310,44,321,34,310,40*4B
$GPGSV,11,2,42,412,25,280,30,20,41,056,24,315,78,003,40,315,78,003,36*77
$GPGSV,11,3,42,330,26,170,34,330,26,170,41,429,19,086,31,429,19,086,21*4F
$GPGSV,11,4,42,11,19,059,34,11,19,059,32,72,29,112,42,435,73,040,38*7E
$GPGSV,11,5,42,435,73,040,36,12,24,168,31,71,30,056,28,78,41,299,46*73
$GPGSV,11,6,42,422,18,159,27,419,38,103,27,419,38,103,33,420,22,048,36*46
$GPGSV,11,7,42,420,22,048,23,334,30,056,38,334,30,056,31,15,00,000,28*74
$GPGSV,11,8,42,424,32,276,39,424,32,276,32,18,32,251,30,18,32,251,22*4F
$GPGSV,11,9,42,426,24,220,30,05,62,114,36,313,38,253,23,313,38,253,23*73
$GPGSV,11,10,42,29,70,324,39,303,07,115,18,303,07,115,25,25,48,197,36*72
$GPGSV,11,11,42,25,48,197,36,31,00,000,23*7D
{"class":"SKY","time":"2024-02-24T02:05:18.000Z","gdop":0.99,"hdop":0.54,"pdop":1.10,"tdop":0.60,"xdop":0.27,"ydop":0.35,"vdop":0.96,"nSat":43,"uSat":41,"satellites":[{"PRN":327,"gnssid":2,"svid":27,"az":232.0,"el":62.0,"ss":36.0,"used":true},{"PRN":327,"gnssid":2,"svid":27,"sigid":3,"az":232.0,"el":62.0,"ss":40.0,"used":true},{"PRN":321,"gnssid":2,"svid":21,"az":310.0,"el":34.0,"ss":44.0,"used":true},{"PRN":321,"gnssid":2,"svid":21,"sigid":3,"az":310.0,"el":34.0,"ss":40.0,"used":true},{"PRN":412,"gnssid":3,"svid":12,"az":280.0,"el":25.0,"ss":30.0,"used":true},{"PRN":20,"gnssid":0,"svid":20,"az":56.0,"el":41.0,"ss":24.0,"used":true},{"PRN":315,"gnssid":2,"svid":15,"az":3.0,"el":78.0,"ss":40.0,"used":true},{"PRN":315,"gnssid":2,"svid":15,"sigid":3,"az":3.0,"el":78.0,"ss":36.0,"used":true},{"PRN":330,"gnssid":2,"svid":30,"az":170.0,"el":26.0,"ss":34.0,"used":true},{"PRN":330,"gnssid":2,"svid":30,"sigid":3,"az":170.0,"el":26.0,"ss":41.0,"used":true},{"PRN":429,"gnssid":3,"svid":29,"az":86.0,"el":19.0,"ss":31.0,"used":true},{"PRN":429,"gnssid":3,"svid":29,"sigid":3,"az":86.0,"el":19.0,"ss":21.0,"used":true},{"PRN":11,"gnssid":0,"svid":11,"az":59.0,"el":19.0,"ss":34.0,"used":true},{"PRN":11,"gnssid":0,"svid":11,"sigid":6,"az":59.0,"el":19.0,"ss":32.0,"used":true},{"PRN":72,"gnssid":6,"svid":8,"az":112.0,"el":29.0,"ss":42.0,"used":true},{"PRN":435,"gnssid":3,"svid":35,"az":40.0,"el":73.0,"ss":38.0,"used":true},{"PRN":435,"gnssid":3,"svid":35,"sigid":3,"az":40.0,"el":73.0,"ss":36.0,"used":true},{"PRN":12,"gnssid":0,"svid":12,"az":168.0,"el":24.0,"ss":31.0,"used":true},{"PRN":71,"gnssid":6,"svid":7,"az":56.0,"el":30.0,"ss":28.0,"used":true},{"PRN":78,"gnssid":6,"svid":14,"az":299.0,"el":41.0,"ss":46.0,"used":true},{"PRN":422,"gnssid":3,"svid":22,"az":159.0,"el":18.0,"ss":27.0,"used":true},{"PRN":422,"gnssid":3,"svid":22,"sigid":3,"ss":32.0,"used":true},{"PRN":419,"gnssid":3,"svid":19,"az":103.0,"el":38.0,"ss":27.0,"used":true},{"PRN":419,"gnssid":3,"svid":19,"sigid":3,"az":103.0,"el":38.0,"ss":33.0,"used":true},{"PRN":420,"gnssid":3,"svid":20,"az":48.0,"el":22.0,"ss":36.0,"used":true},{"PRN":420,"gnssid":3,"svid":20,"sigid":3,"az":48.0,"el":22.0,"ss":23.0,"used":true},{"PRN":334,"gnssid":2,"svid":34,"az":56.0,"el":30.0,"ss":38.0,"used":true},{"PRN":334,"gnssid":2,"svid":34,"sigid":3,"az":56.0,"el":30.0,"ss":31.0,"used":true},{"PRN":15,"gnssid":0,"svid":15,"az":0.0,"el":0.0,"ss":28.0,"used":false},{"PRN":424,"gnssid":3,"svid":24,"az":276.0,"el":32.0,"ss":39.0,"used":true},{"PRN":424,"gnssid":3,"svid":24,"sigid":3,"az":276.0,"el":32.0,"ss":32.0,"used":true},{"PRN":18,"gnssid":0,"svid":18,"az":251.0,"el":32.0,"ss":30.0,"used":true},{"PRN":18,"gnssid":0,"svid":18,"sigid":6,"az":251.0,"el":32.0,"ss":22.0,"used":true},{"PRN":426,"gnssid":3,"svid":26,"az":220.0,"el":24.0,"ss":30.0,"used":true},{"PRN":5,"gnssid":0,"svid":5,"az":114.0,"el":62.0,"ss":36.0,"used":true},{"PRN":313,"gnssid":2,"svid":13,"az":253.0,"el":38.0,"ss":23.0,"used":true},{"PRN":313,"gnssid":2,"svid":13,"sigid":3,"az":253.0,"el":38.0,"ss":23.0,"used":true},{"PRN":29,"gnssid":0,"svid":29,"az":324.0,"el":70.0,"ss":39.0,"used":true},{"PRN":303,"gnssid":2,"svid":3,"az":115.0,"el":7.0,"ss":18.0,"used":true},{"PRN":303,"gnssid":2,"svid":3,"sigid":3,"az":115.0,"el":7.0,"ss":25.0,"used":true},{"PRN":25,"gnssid":0,"svid":25,"az":197.0,"el":48.0,"ss":36.0,"used":true}]}
$GPGGA,020520.00,4404.1297220,N,12118.8439540,W,1,00,,1133.41,M,-22.154,M,,*78
$GPRMC,020520.00,A,4404.1297220,N,12118.8439540,W,0.1168,241.897,240224,14.4,E*46
$GPGSA,A,3,327,327,321,321,412,20,315,315,330,330,429,429,1.1,,*07
{"class":"TPV","mode":3,"time":"2024-02-24T02:05:20.000Z","leapseconds":18,"ept":0.005,"lat":44.068828700,"lon":-121.314065900,"altHAE":1111.2570,"altMSL":1133.4115,"alt":1133.4115,"epv":12.738,"track":241.8970,"magtrack":256.3154,"magvar":14.4,"speed":0.060,"climb":0.333,"epc":25.47,"velN":-0.028,"velE":-0.053,"velD":-0.333,"geoidSep":-22.154,"eph":4.028,"sep":21.090}
{"class":"SKY","time":"2024-02-24T02:05:18.000Z","pdop":1.11}
$GPZDA,020520.00,24,02,2024,00,00*63
$GPGGA,020520.00,4404.1297220,N,12118.8439540,W,7,00,0.54,1133.41,M,-22.154,M,,*61
$GPRMC,020520.00,A,4404.1297220,N,12118.8439540,W,0.1168,241.897,240224,14.4,E*46
$GPGSA,A,3,327,327,321,321,412,20,315,315,330,330,429,429,1.1,0.5,1.0*03
{"class":"TPV","status":7,"mode":3,"time":"2024-02-24T02:05:20.000Z","leapseconds":18,"ept":0.005,"lat":44.068828700,"lon":-121.314065900,"altHAE":1111.2570,"altMSL":1133.4115,"alt":1133.4115,"epv":12.738,"track":241.8970,"magtrack":256.3154,"magvar":14.4,"speed":0.060,"climb":0.333,"epc":25.47,"velN":-0.028,"velE":-0.053,"velD":-0.333,"geoidSep":-22.154,"eph":4.028,"sep":21.090,"temp":30.849}
{"class":"SKY","time":"2024-02-24T02:05:18.000Z","hdop":0.54,"pdop":1.11,"tdop":0.60,"vdop":0.97}
$GPGSV,11,1,42,327,62,232,36,327,62,232,39,321,34,310,44,321,34,310,39*4B
$GPGSV,11,2,42,412,25,280,30,20,41,056,19,315,78,003,40,315,78,003,35*7A
$GPGSV,11,3,42,330,26,170,33,330,26,170,40,429,19,086,31,429,19,086,20*48
$GPGSV,11,4,42,11,19,059,34,11,19,059,32,72,29,112,41,435,73,040,38*7D
$GPGSV,11,5,42,435,73,040,35,12,24,168,34,71,30,056,27,78,41,299,46*7A
$GPGSV,11,6,42,422,18,159,28,419,38,103,28,419,38,103,32,420,22,048,35*44
$GPGSV,11,7,42,420,22,048,24,334,30,056,38,334,30,056,32,15,00,000,26*7E
$GPGSV,11,8,42,424,32,276,39,424,32,276,31,18,32,251,29,18,32,251,22*44
$GPGSV,11,9,42,426,24,220,30,05,62,114,38,313,38,253,23,313,38,253,22*7C
$GPGSV,11,10,42,29,70,324,39,303,07,115,18,303,07,115,25,25,48,197,36*72
$GPGSV,11,11,42,25,48,197,35,31,00,000,23*7E
{"class":"SKY","time":"2024-02-24T02:05:19.000Z","gdop":0.99,"hdop":0.54,"pdop":1.11,"tdop":0.60,"xdop":0.27,"ydop":0.35,"vdop":0.97,"nSat":43,"uSat":41,"satellites":[{"PRN":327,"gnssid":2,"svid":27,"az":232.0,"el":62.0,"ss":36.0,"used":true},{"PRN":327,"gnssid":2,"svid":27,"sigid":3,"az":232.0,"el":62.0,"ss":39.0,"used":true},{"PRN":321,"gnssid":2,"svid":21,"az":310.0,"el":34.0,"ss":44.0,"used":true},{"PRN":321,"gnssid":2,"svid":21,"sigid":3,"az":310.0,"el":34.0,"ss":39.0,"used":true},{"PRN":412,"gnssid":3,"svid":12,"az":280.0,"el":25.0,"ss":30.0,"used":true},{"PRN":20,"gnssid":0,"svid":20,"az":56.0,"el":41.0,"ss":19.0,"used":true},{"PRN":315,"gnssid":2,"svid":15,"az":3.0,"el":78.0,"ss":40.0,"used":true},{"PRN":315,"gnssid":2,"svid":15,"sigid":3,"az":3.0,"el":78.0,"ss":35.0,"used":true},{"PRN":330,"gnssid":2,"svid":30,"az":170.0,"el":26.0,"ss":33.0,"used":true},{"PRN":330,"gnssid":2,"svid":30,"sigid":3,"az":170.0,"el":26.0,"ss":40.0,"used":true},{"PRN":429,"gnssid":3,"svid":29,"az":86.0,"el":19.0,"ss":31.0,"used":true},{"PRN":429,"gnssid":3,"svid":29,"sigid":3,"az":86.0,"el":19.0,"ss":20.0,"used":true},{"PRN":11,"gnssid":0,"svid":11,"az":59.0,"el":19.0,"ss":34.0,"used":true},{"PRN":11,"gnssid":0,"svid":11,"sigid":6,"az":59.0,"el":19.0,"ss":32.0,"used":true},{"PRN":72,"gnssid":6,"svid":8,"az":112.0,"el":29.0,"ss":41.0,"used":true},{"PRN":435,"gnssid":3,"svid":35,"az":40.0,"el":73.0,"ss":38.0,"used":true},{"PRN":435,"gnssid":3,"svid":35,"sigid":3,"az":40.0,"el":73.0,"ss":35.0,"used":true},{"PRN":12,"gnssid":0,"svid":12,"az":168.0,"el":24.0,"ss":34.0,"used":true},{"PRN":71,"gnssid":6,"svid":7,"az":56.0,"el":30.0,"ss":27.0,"used":true},{"PRN":78,"gnssid":6,"svid":14,"az":299.0,"el":41.0,"ss":46.0,"used":true},{"PRN":422,"gnssid":3,"svid":22,"az":159.0,"el":18.0,"ss":28.0,"used":true},{"PRN":422,"gnssid":3,"svid":22,"sigid":3,"ss":31.0,"used":true},{"PRN":419,"gnssid":3,"svid":19,"az":103.0,"el":38.0,"ss":28.0,"used":true},{"PRN":419,"gnssid":3,"svid":19,"sigid":3,"az":103.0,"el":38.0,"ss":32.0,"used":true},{"PRN":420,"gnssid":3,"svid":20,"az":48.0,"el":22.0,"ss":35.0,"used":true},{"PRN":420,"gnssid":3,"svid":20,"sigid":3,"az":48.0,"el":22.0,"ss":24.0,"used":true},{"PRN":334,"gnssid":2,"svid":34,"az":56.0,"el":30.0,"ss":38.0,"used":true},{"PRN":334,"gnssid":2,"svid":34,"sigid":3,"az":56.0,"el":30.0,"ss":32.0,"used":true},{"PRN":15,"gnssid":0,"svid":15,"az":0.0,"el":0.0,"ss":26.0,"used":false},{"PRN":424,"gnssid":3,"svid":24,"az":276.0,"el":32.0,"ss":39.0,"used":true},{"PRN":424,"gnssid":3,"svid":24,"sigid":3,"az":276.0,"el":32.0,"ss":31.0,"used":true},{"PRN":18,"gnssid":0,"svid":18,"az":251.0,"el":32.0,"ss":29.0,"used":true},{"PRN":18,"gnssid":0,"svid":18,"sigid":6,"az":251.0,"el":32.0,"ss":22.0,"used":true},{"PRN":426,"gnssid":3,"svid":26,"az":220.0,"el":24.0,"ss":30.0,"used":true},{"PRN":5,"gnssid":0,"svid":5,"az":114.0,"el":62.0,"ss":38.0,"used":true},{"PRN":313,"gnssid":2,"svid":13,"az":253.0,"el":38.0,"ss":23.0,"used":true},{"PRN":313,"gnssid":2,"svid":13,"sigid":3,"az":253.0,"el":38.0,"ss":22.0,"used":true},{"PRN":29,"gnssid":0,"svid":29,"az":324.0,"el":70.0,"ss":39.0,"used":true},{"PRN":303,"gnssid":2,"svid":3,"az":115.0,"el":7.0,"ss":18.0,"used":true},{"PRN":303,"gnssid":2,"svid":3,"sigid":3,"az":115.0,"el":7.0,"ss":25.0,"used":true},{"PRN":25,"gnssid":0,"svid":25,"az":197.0,"el":48.0,"ss":36.0,"used":true}]}
$GPGGA,020521.00,4404.1297400,N,12118.8439300,W,1,00,,1133.20,M,-22.154,M,,*78
$GPRMC,020521.00,A,4404.1297400,N,12118.8439300,W,0.3018,241.897,240224,14.4,E*45
$GPGSA,A,3,327,327,321,321,412,20,315,315,330,330,429,429,1.1,,*07
{"class":"TPV","mode":3,"time":"2024-02-24T02:05:21.000Z","leapseconds":18,"ept":0.005,"lat":44.068829000,"lon":-121.314065500,"altHAE":1111.0410,"altMSL":1133.1955,"alt":1133.1955,"epv":12.810,"track":241.8970,"magtrack":256.3154,"magvar":14.4,"speed":0.155,"climb":-0.211,"epc":25.55,"velN":-0.073,"velE":-0.137,"velD":0.211,"geoidSep":-22.154,"eph":4.067,"sep":21.090}
{"class":"SKY","time":"2024-02-24T02:05:19.000Z","pdop":1.11}
$GPZDA,020521.00,24,02,2024,00,00*62
$GPGGA,020521.00,4404.1297400,N,12118.8439300,W,7,00,0.54,1133.20,M,-22.154,M,,*61
$GPRMC,020521.00,A,4404.1297400,N,12118.8439300,W,0.3018,241.897,240224,14.4,E*45
$GPGSA,A,3,327,327,321,321,412,20,315,315,330,330,429,429,1.1,0.5,1.0*03
{"class":"TPV","status":7,"mode":3,"time":"2024-02-24T02:05:21.000Z","leapseconds":18,"ept":0.005,"lat":44.068829000,"lon":-121.314065500,"altHAE":1111.0410,"altMSL":1133.1955,"alt":1133.1955,"epv":12.810,"track":241.8970,"magtrack":256.3154,"magvar":14.4,"speed":0.155,"climb":-0.211,"epc":25.55,"velN":-0.073,"velE":-0.137,"velD":0.211,"geoidSep":-22.154,"eph":4.067,"sep":21.090,"temp":30.848}
{"class":"SKY","time":"2024-02-24T02:05:19.000Z","hdop":0.54,"pdop":1.11,"tdop":0.60,"vdop":0.97}
$GPGSV,11,1,42,327,62,232,37,327,62,232,40,321,34,309,45,321,34,309,39*45
$GPGSV,11,2,42,412,25,280,30,20,41,056,20,315,78,003,40,315,78,003,35*70
$GPGSV,11,3,42,330,26,170,33,330,26,170,40,429,19,086,31,429,19,086,20*48
$GPGSV,11,4,42,11,19,059,34,11,19,059,32,72,29,112,41,435,73,040,38*7D
$GPGSV,11,5,42,435,73,040,34,12,24,168,33,71,30,056,26,78,41,299,46*7D
$GPGSV,11,6,42,422,18,159,29,419,38,103,28,419,38,103,32,420,22,048,35*45
$GPGSV,11,7,42,420,22,048,24,334,30,056,38,334,30,056,30,15,00,000,29*73
$GPGSV,11,8,42,424,32,276,39,424,32,276,32,18,32,251,28,18,32,251,21*45
$GPGSV,11,9,42,426,24,220,30,05,62,114,38,313,38,253,22,313,38,253,23*7C
$GPGSV,11,10,42,29,70,324,40,303,07,115,19,303,07,115,25,25,48,197,36*7D
$GPGSV,11,11,42,25,48,197,35,31,00,000,22*7F
{"class":"SKY","time":"2024-02-24T02:05:20.000Z","gdop":0.99,"hdop":0.54,"pdop":1.11,"tdop":0.60,"xdop":0.27,"ydop":0.35,"vdop":0.97,"nSat":43,"uSat":41,"satellites":[{"PRN":327,"gnssid":2,"svid":27,"az":232.0,"el":62.0,"ss":37.0,"used":true},{"PRN":327,"gnssid":2,"svid":27,"sigid":3,"az":232.0,"el":62.0,"ss":40.0,"used":true},{"PRN":321,"gnssid":2,"svid":21,"az":309.0,"el":34.0,"ss":45.0,"used":true},{"PRN":321,"gnssid":2,"svid":21,"sigid":3,"az":309.0,"el":34.0,"ss":39.0,"used":true},{"PRN":412,"gnssid":3,"svid":12,"az":280.0,"el":25.0,"ss":30.0,"used":true},{"PRN":20,"gnssid":0,"svid":20,"az":56.0,"el":41.0,"ss":20.0,"used":true},{"PRN":315,"gnssid":2,"svid":15,"az":3.0,"el":78.0,"ss":40.0,"used":true},{"PRN":315,"gnssid":2,"svid":15,"sigid":3,"az":3.0,"el":78.0,"ss":35.0,"used":true},{"PRN":330,"gnssid":2,"svid":30,"az":170.0,"el":26.0,"ss":33.0,"used":true},{"PRN":330,"gnssid":2,"svid":30,"sigid":3,"az":170.0,"el":26.0,"ss":40.0,"used":true},{"PRN":429,"gnssid":3,"svid":29,"az":86.0,"el":19.0,"ss":31.0,"used":true},{"PRN":429,"gnssid":3,"svid":29,"sigid":3,"az":86.0,"el":19.0,"ss":20.0,"used":true},{"PRN":11,"gnssid":0,"svid":11,"az":59.0,"el":19.0,"ss":34.0,"used":true},{"PRN":11,"gnssid":0,"svid":11,"sigid":6,"az":59.0,"el":19.0,"ss":32.0,"used":true},{"PRN":72,"gnssid":6,"svid":8,"az":112.0,"el":29.0,"ss":41.0,"used":true},{"PRN":435,"gnssid":3,"svid":35,"az":40.0,"el":73.0,"ss":38.0,"used":true},{"PRN":435,"gnssid":3,"svid":35,"sigid":3,"az":40.0,"el":73.0,"ss":34.0,"used":true},{"PRN":12,"gnssid":0,"svid":12,"az":168.0,"el":24.0,"ss":33.0,"used":true},{"PRN":71,"gnssid":6,"svid":7,"az":56.0,"el":30.0,"ss":26.0,"used":true},{"PRN":78,"gnssid":6,"svid":14,"az":299.0,"el":41.0,"ss":46.0,"used":true},{"PRN":422,"gnssid":3,"svid":22,"az":159.0,"el":18.0,"ss":29.0,"used":true},{"PRN":422,"gnssid":3,"svid":22,"sigid":3,"ss":31.0,"used":true},{"PRN":419,"gnssid":3,"svid":19,"az":103.0,"el":38.0,"ss":28.0,"used":true},{"PRN":419,"gnssid":3,"svid":19,"sigid":3,"az":103.0,"el":38.0,"ss":32.0,"used":true},{"PRN":420,"gnssid":3,"svid":20,"az":48.0,"el":22.0,"ss":35.0,"used":true},{"PRN":420,"gnssid":3,"svid":20,"sigid":3,"az":48.0,"el":22.0,"ss":24.0,"used":true},{"PRN":334,"gnssid":2,"svid":34,"az":56.0,"el":30.0,"ss":38.0,"used":true},{"PRN":334,"gnssid":2,"svid":34,"sigid":3,"az":56.0,"el":30.0,"ss":30.0,"used":true},{"PRN":15,"gnssid":0,"svid":15,"az":0.0,"el":0.0,"ss":29.0,"used":false},{"PRN":424,"gnssid":3,"svid":24,"az":276.0,"el":32.0,"ss":39.0,"used":true},{"PRN":424,"gnssid":3,"svid":24,"sigid":3,"az":276.0,"el":32.0,"ss":32.0,"used":true},{"PRN":18,"gnssid":0,"svid":18,"az":251.0,"el":32.0,"ss":28.0,"used":true},{"PRN":18,"gnssid":0,"svid":18,"sigid":6,"az":251.0,"el":32.0,"ss":21.0,"used":true},{"PRN":426,"gnssid":3,"svid":26,"az":220.0,"el":24.0,"ss":30.0,"used":true},{"PRN":5,"gnssid":0,"svid":5,"az":114.0,"el":62.0,"ss":38.0,"used":true},{"PRN":313,"gnssid":2,"svid":13,"az":253.0,"el":38.0,"ss":22.0,"used":true},{"PRN":313,"gnssid":2,"svid":13,"sigid":3,"az":253.0,"el":38.0,"ss":23.0,"used":true},{"PRN":29,"gnssid":0,"svid":29,"az":324.0,"el":70.0,"ss":40.0,"used":true},{"PRN":303,"gnssid":2,"svid":3,"az":115.0,"el":7.0,"ss":19.0,"used":true},{"PRN":303,"gnssid":2,"svid":3,"sigid":3,"az":115.0,"el":7.0,"ss":25.0,"used":true},{"PRN":25,"gnssid":0,"svid":25,"az":197.0,"el":48.0,"ss":36.0,"used":true}]}
$GPGGA,020522.00,4404.1296980,N,12118.8439720,W,1,00,,1133.13,M,-22.154,M,,*79
$GPRMC,020522.00,A,4404.1296980,N,12118.8439720,W,0.0973,241.897,240224,14.4,E*43
$GPGSA,A,3,327,327,321,321,412,20,315,315,330,330,429,429,1.1,,*07
{"class":"TPV","mode":3,"time":"2024-02-24T02:05:22.000Z","leapseconds":18,"ept":0.005,"lat":44.068828300,"lon":-121.314066200,"altHAE":1110.9710,"altMSL":1133.1255,"alt":1133.1255,"epv":12.590,"track":241.8970,"magtrack":256.3154,"magvar":14.4,"speed":0.050,"climb":-0.443,"epc":25.40,"velN":-0.024,"velE":-0.044,"velD":0.443,"geoidSep":-22.154,"eph":4.073,"sep":21.090}
{"class":"SKY","time":"2024-02-24T02:05:20.000Z","pdop":1.11}
$GPZDA,020522.00,24,02,2024,00,00*61
$GPGGA,020522.00,4404.1296980,N,12118.8439720,W,7,00,0.54,1133.13,M,-22.154,M,,*60
$GPRMC,020522.00,A,4404.1296980,N,12118.8439720,W,0.0973,241.897,240224,14.4,E*43
$GPGSA,A,3,327,327,321,321,412,20,315,315,330,330,429,429,1.1,0.5,1.0*03
{"class":"TPV","status":7,"mode":3,"time":"2024-02-24T02:05:22.000Z","leapseconds":18,"ept":0.005,"lat":44.068828300,"lon":-121.314066200,"altHAE":1110.9710,"altMSL":1133.1255,"alt":1133.1255,"epv":12.590,"track":241.8970,"magtrack":256.3154,"magvar":14.4,"speed":0.050,"climb":-0.443,"epc":25.40,"velN":-0.024,"velE":-0.044,"velD":0.443,"geoidSep":-22.154,"eph":4.073,"sep":21.090,"temp":30.795}
{"class":"SKY","time":"2024-02-24T02:05:20.000Z","hdop":0.54,"pdop":1.11,"tdop":0.60,"vdop":0.97}
$GPGSV,11,1,42,327,62,232,37,327,62,232,39,321,34,309,45,321,34,309,39*4B
$GPGSV,11,2,42,412,25,280,31,20,41,056,22,315,78,003,40,315,78,003,35*73
$GPGSV,11,3,42,330,26,170,33,330,26,170,39,429,19,086,30,429,19,086,20*47
$GPGSV,11,4,42,11,19,059,35,11,19,059,32,72,29,112,40,435,73,040,38*7D
$GPGSV,11,5,42,435,73,040,34,12,24,168,35,71,30,056,27,78,41,299,44*78
$GPGSV,11,6,42,422,18,159,27,419,38,103,29,419,38,103,33,420,22,048,35*4B
$GPGSV,11,7,42,420,22,048,23,334,30,056,38,334,30,056,31,15,00,000,28*74
$GPGSV,11,8,42,424,32,276,39,424,32,276,32,18,32,251,30,18,32,251,22*4F
$GPGSV,11,9,42,426,24,220,30,05,62,114,39,313,38,253,23,313,38,253,23*7C
$GPGSV,11,10,42,29,70,324,40,303,07,115,19,303,07,115,25,25,48,197,37*7C
$GPGSV,11,11,42,25,48,197,35,31,00,000,23*7E
{"class":"SKY","time":"2024-02-24T02:05:21.000Z","gdop":0.99,"hdop":0.54,"pdop":1.11,"tdop":0.60,"xdop":0.27,"ydop":0.35,"vdop":0.97,"nSat":43,"uSat":41,"satellites":[{"PRN":327,"gnssid":2,"svid":27,"az":232.0,"el":62.0,"ss":37.0,"used":true},{"PRN":327,"gnssid":2,"svid":27,"sigid":3,"az":232.0,"el":62.0,"ss":39.0,"used":true},{"PRN":321,"gnssid":2,"svid":21,"az":309.0,"el":34.0,"ss":45.0,"used":true},{"PRN":321,"gnssid":2,"svid":21,"sigid":3,"az":309.0,"el":34.0,"ss":39.0,"used":true},{"PRN":412,"gnssid":3,"svid":12,"az":280.0,"el":25.0,"ss":31.0,"used":true},{"PRN":20,"gnssid":0,"svid":20,"az":56.0,"el":41.0,"ss":22.0,"used":true},{"PRN":315,"gnssid":2,"svid":15,"az":3.0,"el":78.0,"ss":40.0,"used":true},{"PRN":315,"gnssid":2,"svid":15,"sigid":3,"az":3.0,"el":78.0,"ss":35.0,"used":true},{"PRN":330,"gnssid":2,"svid":30,"az":170.0,"el":26.0,"ss":33.0,"used":true},{"PRN":330,"gnssid":2,"svid":30,"sigid":3,"az":170.0,"el":26.0,"ss":39.0,"used":true},{"PRN":429,"gnssid":3,"svid":29,"az":86.0,"el":19.0,"ss":30.0,"used":true},{"PRN":429,"gnssid":3,"svid":29,"sigid":3,"az":86.0,"el":19.0,"ss":20.0,"used":true},{"PRN":11,"gnssid":0,"svid":11,"az":59.0,"el":19.0,"ss":35.0,"used":true},{"PRN":11,"gnssid":0,"svid":11,"sigid":6,"az":59.0,"el":19.0,"ss":32.0,"used":true},{"PRN":72,"gnssid":6,"svid":8,"az":112.0,"el":29.0,"ss":40.0,"used":true},{"PRN":435,"gnssid":3,"svid":35,"az":40.0,"el":73.0,"ss":38.0,"used":true},{"PRN":435,"gnssid":3,"svid":35,"sigid":3,"az":40.0,"el":73.0,"ss":34.0,"used":true},{"PRN":12,"gnssid":0,"svid":12,"az":168.0,"el":24.0,"ss":35.0,"used":true},{"PRN":71,"gnssid":6,"svid":7,"az":56.0,"el":30.0,"ss":27.0,"used":true},{"PRN":78,"gnssid":6,"svid":14,"az":299.0,"el":41.0,"ss":44.0,"used":true},{"PRN":422,"gnssid":3,"svid":22,"az":159.0,"el":18.0,"ss":27.0,"used":true},{"PRN":422,"gnssid":3,"svid":22,"sigid":3,"ss":31.0,"used":true},{"PRN":419,"gnssid":3,"svid":19,"az":103.0,"el":38.0,"ss":29.0,"used":true},{"PRN":419,"gnssid":3,"svid":19,"sigid":3,"az":103.0,"el":38.0,"ss":33.0,"used":true},{"PRN":420,"gnssid":3,"svid":20,"az":48.0,"el":22.0,"ss":35.0,"used":true},{"PRN":420,"gnssid":3,"svid":20,"sigid":3,"az":48.0,"el":22.0,"ss":23.0,"used":true},{"PRN":334,"gnssid":2,"svid":34,"az":56.0,"el":30.0,"ss":38.0,"used":true},{"PRN":334,"gnssid":2,"svid":34,"sigid":3,"az":56.0,"el":30.0,"ss":31.0,"used":true},{"PRN":15,"gnssid":0,"svid":15,"az":0.0,"el":0.0,"ss":28.0,"used":false},{"PRN":424,"gnssid":3,"svid":24,"az":276.0,"el":32.0,"ss":39.0,"used":true},{"PRN":424,"gnssid":3,"svid":24,"sigid":3,"az":276.0,"el":32.0,"ss":32.0,"used":true},{"PRN":18,"gnssid":0,"svid":18,"az":251.0,"el":32.0,"ss":30.0,"used":true},{"PRN":18,"gnssid":0,"svid":18,"sigid":6,"az":251.0,"el":32.0,"ss":22.0,"used":true},{"PRN":426,"gnssid":3,"svid":26,"az":220.0,"el":24.0,"ss":30.0,"used":true},{"PRN":5,"gnssid":0,"svid":5,"az":114.0,"el":62.0,"ss":39.0,"used":true},{"PRN":313,"gnssid":2,"svid":13,"az":253.0,"el":38.0,"ss":23.0,"used":true},{"PRN":313,"gnssid":2,"svid":13,"sigid":3,"az":253.0,"el":38.0,"ss":23.0,"used":true},{"PRN":29,"gnssid":0,"svid":29,"az":324.0,"el":70.0,"ss":40.0,"used":true},{"PRN":303,"gnssid":2,"svid":3,"az":115.0,"el":7.0,"ss":19.0,"used":true},{"PRN":303,"gnssid":2,"svid":3,"sigid":3,"az":115.0,"el":7.0,"ss":25.0,"used":true},{"PRN":25,"gnssid":0,"svid":25,"az":197.0,"el":48.0,"ss":37.0,"used":true}]}
$GPGGA,020523.00,4404.1296620,N,12118.8439780,W,1,00,,1133.38,M,-22.154,M,,*7E
$GPRMC,020523.00,A,4404.1296620,N,12118.8439780,W,0.0642,241.897,240224,14.4,E*40
$GPGSA,A,3,327,327,321,321,412,20,315,315,330,330,429,429,1.1,,*07
{"class":"TPV","mode":3,"time":"2024-02-24T02:05:23.000Z","leapseconds":18,"ept":0.005,"lat":44.068827700,"lon":-121.314066300,"altHAE":1111.2250,"altMSL":1133.3795,"alt":1133.3795,"epv":12.805,"track":241.8970,"magtrack":256.3155,"magvar":14.4,"speed":0.033,"climb":0.023,"epc":25.40,"velN":-0.016,"velE":-0.029,"velD":-0.023,"geoidSep":-22.154,"eph":4.033,"sep":20.900}
{"class":"SKY","time":"2024-02-24T02:05:21.000Z","pdop":1.10}
$GPZDA,020523.00,24,02,2024,00,00*60
$GPGGA,020523.00,4404.1296620,N,12118.8439780,W,7,00,0.54,1133.38,M,-22.154,M,,*67
$GPRMC,020523.00,A,4404.1296620,N,12118.8439780,W,0.0642,241.897,240224,14.4,E*40
$GPGSA,A,3,327,327,321,321,412,20,315,315,330,330,429,429,1.1,0.5,1.0*03
{"class":"TPV","status":7,"mode":3,"time":"2024-02-24T02:05:23.000Z","leapseconds":18,"ept":0.005,"lat":44.068827700,"lon":-121.314066300,"altHAE":1111.2250,"altMSL":1133.3795,"alt":1133.3795,"epv":12.805,"track":241.8970,"magtrack":256.3155,"magvar":14.4,"speed":0.033,"climb":0.023,"epc":25.40,"velN":-0.016,"velE":-0.029,"velD":-0.023,"geoidSep":-22.154,"eph":4.033,"sep":20.900,"temp":30.753}
{"class":"SKY","time":"2024-02-24T02:05:21.000Z","hdop":0.54,"pdop":1.10,"tdop":0.60,"vdop":0.96}
$GPGSV,11,1,42,327,62,232,36,327,62,232,38,321,34,309,44,321,34,309,38*4B
$GPGSV,11,2,42,412,25,280,30,20,41,056,22,315,78,003,40,315,78,003,34*73
$GPGSV,11,3,42,330,26,170,33,330,26,170,38,429,19,086,30,429,19,086,19*4C
$GPGSV,11,4,42,11,19,059,33,11,19,059,30,72,29,112,41,435,73,040,37*77
$GPGSV,11,5,42,435,73,040,33,12,24,168,33,71,30,056,28,78,41,299,44*76
$GPGSV,11,6,42,422,18,159,26,419,38,103,27,419,38,103,32,420,22,048,35*45
$GPGSV,11,7,42,420,22,048,23,334,30,056,37,334,30,056,30,15,00,000,27*75
$GPGSV,11,8,42,424,32,276,39,424,32,276,30,18,32,251,29,18,32,251,19*4D
$GPGSV,11,9,42,426,24,220,31,05,62,114,38,313,38,253,21,313,38,253,21*7C
$GPGSV,11,10,42,29,70,324,40,303,07,115,19,303,07,115,24,25,48,197,36*7C
$GPGSV,11,11,42,25,48,197,33,31,00,000,22*79
{"class":"SKY","time":"2024-02-24T02:05:22.000Z","gdop":0.99,"hdop":0.54,"pdop":1.10,"tdop":0.60,"xdop":0.27,"ydop":0.35,"vdop":0.96,"nSat":43,"uSat":41,"satellites":[{"PRN":327,"gnssid":2,"svid":27,"az":232.0,"el":62.0,"ss":36.0,"used":true},{"PRN":327,"gnssid":2,"svid":27,"sigid":3,"az":232.0,"el":62.0,"ss":38.0,"used":true},{"PRN":321,"gnssid":2,"svid":21,"az":309.0,"el":34.0,"ss":44.0,"used":true},{"PRN":321,"gnssid":2,"svid":21,"sigid":3,"az":309.0,"el":34.0,"ss":38.0,"used":true},{"PRN":412,"gnssid":3,"svid":12,"az":280.0,"el":25.0,"ss":30.0,"used":true},{"PRN":20,"gnssid":0,"svid":20,"az":56.0,"el":41.0,"ss":22.0,"used":true},{"PRN":315,"gnssid":2,"svid":15,"az":3.0,"el":78.0,"ss":40.0,"used":true},{"PRN":315,"gnssid":2,"svid":15,"sigid":3,"az":3.0,"el":78.0,"ss":34.0,"used":true},{"PRN":330,"gnssid":2,"svid":30,"az":170.0,"el":26.0,"ss":33.0,"used":true},{"PRN":330,"gnssid":2,"svid":30,"sigid":3,"az":170.0,"el":26.0,"ss":38.0,"used":true},{"PRN":429,"gnssid":3,"svid":29,"az":86.0,"el":19.0,"ss":30.0,"used":true},{"PRN":429,"gnssid":3,"svid":29,"sigid":3,"az":86.0,"el":19.0,"ss":19.0,"used":true},{"PRN":11,"gnssid":0,"svid":11,"az":59.0,"el":19.0,"ss":33.0,"used":true},{"PRN":11,"gnssid":0,"svid":11,"sigid":6,"az":59.0,"el":19.0,"ss":30.0,"used":true},{"PRN":72,"gnssid":6,"svid":8,"az":112.0,"el":29.0,"ss":41.0,"used":true},{"PRN":435,"gnssid":3,"svid":35,"az":40.0,"el":73.0,"ss":37.0,"used":true},{"PRN":435,"gnssid":3,"svid":35,"sigid":3,"az":40.0,"el":73.0,"ss":33.0,"used":true},{"PRN":12,"gnssid":0,"svid":12,"az":168.0,"el":24.0,"ss":33.0,"used":true},{"PRN":71,"gnssid":6,"svid":7,"az":56.0,"el":30.0,"ss":28.0,"used":true},{"PRN":78,"gnssid":6,"svid":14,"az":299.0,"el":41.0,"ss":44.0,"used":true},{"PRN":422,"gnssid":3,"svid":22,"az":159.0,"el":18.0,"ss":26.0,"used":true},{"PRN":422,"gnssid":3,"svid":22,"sigid":3,"ss":30.0,"used":true},{"PRN":419,"gnssid":3,"svid":19,"az":103.0,"el":38.0,"ss":27.0,"used":true},{"PRN":419,"gnssid":3,"svid":19,"sigid":3,"az":103.0,"el":38.0,"ss":32.0,"used":true},{"PRN":420,"gnssid":3,"svid":20,"az":48.0,"el":22.0,"ss":35.0,"used":true},{"PRN":420,"gnssid":3,"svid":20,"sigid":3,"az":48.0,"el":22.0,"ss":23.0,"used":true},{"PRN":334,"gnssid":2,"svid":34,"az":56.0,"el":30.0,"ss":37.0,"used":true},{"PRN":334,"gnssid":2,"svid":34,"sigid":3,"az":56.0,"el":30.0,"ss":30.0,"used":true},{"PRN":15,"gnssid":0,"svid":15,"az":0.0,"el":0.0,"ss":27.0,"used":false},{"PRN":424,"gnssid":3,"svid":24,"az":276.0,"el":32.0,"ss":39.0,"used":true},{"PRN":424,"gnssid":3,"svid":24,"sigid":3,"az":276.0,"el":32.0,"ss":30.0,"used":true},{"PRN":18,"gnssid":0,"svid":18,"az":251.0,"el":32.0,"ss":29.0,"used":true},{"PRN":18,"gnssid":0,"svid":18,"sigid":6,"az":251.0,"el":32.0,"ss":19.0,"used":true},{"PRN":426,"gnssid":3,"svid":26,"az":220.0,"el":24.0,"ss":31.0,"used":true},{"PRN":5,"gnssid":0,"svid":5,"az":114.0,"el":62.0,"ss":38.0,"used":true},{"PRN":313,"gnssid":2,"svid":13,"az":253.0,"el":38.0,"ss":21.0,"used":true},{"PRN":313,"gnssid":2,"svid":13,"sigid":3,"az":253.0,"el":38.0,"ss":21.0,"used":true},{"PRN":29,"gnssid":0,"svid":29,"az":324.0,"el":70.0,"ss":40.0,"used":true},{"PRN":303,"gnssid":2,"svid":3,"az":115.0,"el":7.0,"ss":19.0,"used":true},{"PRN":303,"gnssid":2,"svid":3,"sigid":3,"az":115.0,"el":7.0,"ss":24.0,"used":true},{"PRN":25,"gnssid":0,"svid":25,"az":197.0,"el":48.0,"ss":36.0,"used":true}]}
$GPGGA,020524.00,4404.1296920,N,12118.8439360,W,1,00,,1133.55,M,-22.154,M,,*77
$GPRMC,020524.00,A,4404.1296920,N,12118.8439360,W,0.4235,241.897,240224,14.4,E*42
$GPGSA,A,3,327,327,321,321,412,20,315,315,330,330,429,429,1.1,,*07
{"class":"TPV","mode":3,"time":"2024-02-24T02:05:24.000Z","leapseconds":18,"ept":0.005,"lat":44.068828200,"lon":-121.314065600,"altHAE":1111.3930,"altMSL":1133.5475,"alt":1133.5475,"epv":13.180,"track":241.8970,"magtrack":256.3155,"magvar":14.4,"speed":0.218,"climb":1.087,"epc":25.99,"velN":-0.103,"velE":-0.192,"velD":-1.087,"geoidSep":-22.154,"eph":4.111,"sep":21.090}
{"class":"SKY","time":"2024-02-24T02:05:22.000Z","pdop":1.11}
$GPZDA,020524.00,24,02,2024,00,00*67
$GPGGA,020524.00,4404.1296920,N,12118.8439360,W,7,00,0.54,1133.55,M,-22.154,M,,*6E
$GPRMC,020524.00,A,4404.1296920,N,12118.8439360,W,0.4235,241.897,240224,14.4,E*42
$GPGSA,A,3,327,327,321,321,412,20,315,315,330,330,429,429,1.1,0.5,1.0*03
{"class":"TPV","status":7,"mode":3,"time":"2024-02-24T02:05:24.000Z","leapseconds":18,"ept":0.005,"lat":44.068828200,"lon":-121.314065600,"altHAE":1111.3930,"altMSL":1133.5475,"alt":1133.5475,"epv":13.180,"track":241.8970,"magtrack":256.3155,"magvar":14.4,"speed":0.218,"climb":1.087,"epc":25.99,"velN":-0.103,"velE":-0.192,"velD":-1.087,"geoidSep":-22.154,"eph":4.111,"sep":21.090,"ant":2,"temp":30.668}
{"class":"SKY","time":"2024-02-24T02:05:22.000Z","hdop":0.54,"pdop":1.11,"tdop":0.60,"vdop":0.97}
$GPGSV,11,1,42,327,62,232,34,327,62,232,37,321,34,309,42,321,34,309,37*4F
$GPGSV,11,2,42,412,25,280,30,20,41,056,22,315,78,003,38,315,78,003,33*7B
$GPGSV,11,3,42,330,26,170,31,330,26,170,37,429,19,086,29,429,19,086,19*49
$GPGSV,11,4,42,11,19,059,32,11,19,059,29,72,29,112,40,435,73,040,38*70
$GPGSV,11,5,42,435,73,040,33,12,24,168,32,71,30,056,24,78,41,299,43*7C
$GPGSV,11,6,42,422,18,159,26,419,38,103,27,419,38,103,30,420,22,048,32*40
$GPGSV,11,7,42,420,22,048,24,334,30,056,35,334,30,056,29,15,00,000,26*79
$GPGSV,11,8,42,424,32,276,36,424,32,276,29,18,32,251,27,18,32,251,20*4E
$GPGSV,11,9,42,426,24,220,29,05,62,114,37,313,38,253,23,313,38,253,21*78
$GPGSV,11,10,42,29,70,324,38,303,07,115,18,303,07,115,24,25,48,197,36*72
$GPGSV,11,11,42,25,48,197,33,31,00,000,22*79
{"class":"SKY","time":"2024-02-24T02:05:23.000Z","gdop":0.99,"hdop":0.54,"pdop":1.11,"tdop":0.60,"xdop":0.27,"ydop":0.35,"vdop":0.97,"nSat":43,"uSat":41,"satellites":[{"PRN":327,"gnssid":2,"svid":27,"az":232.0,"el":62.0,"ss":34.0,"used":true},{"PRN":327,"gnssid":2,"svid":27,"sigid":3,"az":232.0,"el":62.0,"ss":37.0,"used":true},{"PRN":321,"gnssid":2,"svid":21,"az":309.0,"el":34.0,"ss":42.0,"used":true},{"PRN":321,"gnssid":2,"svid":21,"sigid":3,"az":309.0,"el":34.0,"ss":37.0,"used":true},{"PRN":412,"gnssid":3,"svid":12,"az":280.0,"el":25.0,"ss":30.0,"used":true},{"PRN":20,"gnssid":0,"svid":20,"az":56.0,"el":41.0,"ss":22.0,"used":true},{"PRN":315,"gnssid":2,"svid":15,"az":3.0,"el":78.0,"ss":38.0,"used":true},{"PRN":315,"gnssid":2,"svid":15,"sigid":3,"az":3.0,"el":78.0,"ss":33.0,"used":true},{"PRN":330,"gnssid":2,"svid":30,"az":170.0,"el":26.0,"ss":31.0,"used":true},{"PRN":330,"gnssid":2,"svid":30,"sigid":3,"az":170.0,"el":26.0,"ss":37.0,"used":true},{"PRN":429,"gnssid":3,"svid":29,"az":86.0,"el":19.0,"ss":29.0,"used":true},{"PRN":429,"gnssid":3,"svid":29,"sigid":3,"az":86.0,"el":19.0,"ss":19.0,"used":true},{"PRN":11,"gnssid":0,"svid":11,"az":59.0,"el":19.0,"ss":32.0,"used":true},{"PRN":11,"gnssid":0,"svid":11,"sigid":6,"az":59.0,"el":19.0,"ss":29.0,"used":true},{"PRN":72,"gnssid":6,"svid":8,"az":112.0,"el":29.0,"ss":40.0,"used":true},{"PRN":435,"gnssid":3,"svid":35,"az":40.0,"el":73.0,"ss":38.0,"used":true},{"PRN":435,"gnssid":3,"svid":35,"sigid":3,"az":40.0,"el":73.0,"ss":33.0,"used":true},{"PRN":12,"gnssid":0,"svid":12,"az":168.0,"el":24.0,"ss":32.0,"used":true},{"PRN":71,"gnssid":6,"svid":7,"az":56.0,"el":30.0,"ss":24.0,"used":true},{"PRN":78,"gnssid":6,"svid":14,"az":299.0,"el":41.0,"ss":43.0,"used":true},{"PRN":422,"gnssid":3,"svid":22,"az":159.0,"el":18.0,"ss":26.0,"used":true},{"PRN":422,"gnssid":3,"svid":22,"sigid":3,"ss":29.0,"used":true},{"PRN":419,"gnssid":3,"svid":19,"az":103.0,"el":38.0,"ss":27.0,"used":true},{"PRN":419,"gnssid":3,"svid":19,"sigid":3,"az":103.0,"el":38.0,"ss":30.0,"used":true},{"PRN":420,"gnssid":3,"svid":20,"az":48.0,"el":22.0,"ss":32.0,"used":true},{"PRN":420,"gnssid":3,"svid":20,"sigid":3,"az":48.0,"el":22.0,"ss":24.0,"used":true},{"PRN":334,"gnssid":2,"svid":34,"az":56.0,"el":30.0,"ss":35.0,"used":true},{"PRN":334,"gnssid":2,"svid":34,"sigid":3,"az":56.0,"el":30.0,"ss":29.0,"used":true},{"PRN":15,"gnssid":0,"svid":15,"az":0.0,"el":0.0,"ss":26.0,"used":false},{"PRN":424,"gnssid":3,"svid":24,"az":276.0,"el":32.0,"ss":36.0,"used":true},{"PRN":424,"gnssid":3,"svid":24,"sigid":3,"az":276.0,"el":32.0,"ss":29.0,"used":true},{"PRN":18,"gnssid":0,"svid":18,"az":251.0,"el":32.0,"ss":27.0,"used":true},{"PRN":18,"gnssid":0,"svid":18,"sigid":6,"az":251.0,"el":32.0,"ss":20.0,"used":true},{"PRN":426,"gnssid":3,"svid":26,"az":220.0,"el":24.0,"ss":29.0,"used":true},{"PRN":5,"gnssid":0,"svid":5,"az":114.0,"el":62.0,"ss":37.0,"used":true},{"PRN":313,"gnssid":2,"svid":13,"az":253.0,"el":38.0,"ss":23.0,"used":true},{"PRN":313,"gnssid":2,"svid":13,"sigid":3,"az":253.0,"el":38.0,"ss":21.0,"used":true},{"PRN":29,"gnssid":0,"svid":29,"az":324.0,"el":70.0,"ss":38.0,"used":true},{"PRN":303,"gnssid":2,"svid":3,"az":115.0,"el":7.0,"ss":18.0,"used":true},{"PRN":303,"gnssid":2,"svid":3,"sigid":3,"az":115.0,"el":7.0,"ss":24.0,"used":true},{"PRN":25,"gnssid":0,"svid":25,"az":197.0,"el":48.0,"ss":36.0,"used":true}]}
$GPGGA,020525.00,4404.1296500,N,12118.8440080,W,1,00,,1133.00,M,-22.154,M,,*7B
$GPRMC,020525.00,A,4404.1296500,N,12118.8440080,W,0.2197,241.897,240224,14.4,E*43
$GPGSA,A,3,327,327,321,321,412,20,315,315,330,330,429,429,1.0,,*06
{"class":"TPV","mode":3,"time":"2024-02-24T02:05:25.000Z","leapseconds":18,"ept":0.005,"lat":44.068827500,"lon":-121.314066800,"altHAE":1110.8460,"altMSL":1133.0005,"alt":1133.0005,"epv":13.839,"track":241.8970,"magtrack":256.3155,"magvar":14.4,"speed":0.113,"climb":-0.007,"epc":27.02,"velN":-0.053,"velE":-0.100,"velD":0.007,"geoidSep":-22.154,"eph":4.346,"sep":18.240}
{"class":"SKY","time":"2024-02-24T02:05:23.000Z","pdop":0.96}
$GPZDA,020525.00,24,02,2024,00,00*66
$GPGGA,020525.00,4404.1296500,N,12118.8440080,W,7,00,0.60,1133.00,M,-22.154,M,,*65
$GPRMC,020525.00,A,4404.1296500,N,12118.8440080,W,0.2197,241.897,240224,14.4,E*43
$GPGSA,A,3,327,327,321,321,412,20,315,315,330,330,429,429,1.0,0.6,0.7*07
{"class":"TPV","status":7,"mode":3,"time":"2024-02-24T02:05:25.000Z","leapseconds":18,"ept":0.005,"lat":44.068827500,"lon":-121.314066800,"altHAE":1110.8460,"altMSL":1133.0005,"alt":1133.0005,"epv":13.839,"track":241.8970,"magtrack":256.3155,"magvar":14.4,"speed":0.113,"climb":-0.007,"epc":27.02,"velN":-0.053,"velE":-0.100,"velD":0.007,"geoidSep":-22.154,"eph":4.346,"sep":18.240,"ant":2,"temp":30.806}
{"class":"SKY","time":"2024-02-24T02:05:23.000Z","hdop":0.60,"pdop":0.96,"tdop":0.48,"vdop":0.74}
$GPGGA,020526.00,4404.1296320,N,12118.8440680,W,1,00,,1132.75,M,-22.154,M,,*79
$GPRMC,020526.00,A,4404.1296320,N,12118.8440680,W,0.1553,241.897,240224,14.4,E*4D
$GPGSA,A,3,412,20,429,429,11,11,72,435,12,71,78,422,1.0,,*0F
{"class":"TPV","mode":3,"time":"2024-02-24T02:05:26.000Z","leapseconds":18,"ept":0.005,"lat":44.068827200,"lon":-121.314067800,"altHAE":1110.5940,"altMSL":1132.7485,"alt":1132.7485,"epv":14.648,"track":241.8970,"magtrack":256.3154,"magvar":14.4,"speed":0.080,"climb":-0.002,"epc":28.49,"velN":-0.038,"velE":-0.070,"velD":0.002,"geoidSep":-22.154,"eph":4.608,"sep":18.240}
{"class":"SKY","time":"2024-02-24T02:05:24.000Z","pdop":0.96}
$GPZDA,020526.00,24,02,2024,00,00*65
$GPGGA,020526.00,4404.1296320,N,12118.8440680,W,7,00,0.60,1132.75,M,-22.154,M,,*67
$GPRMC,020526.00,A,4404.1296320,N,12118.8440680,W,0.1553,241.897,240224,14.4,E*4D
$GPGSA,A,3,412,20,429,429,11,11,72,435,12,71,78,422,1.0,0.6,0.7*0E
$GPGBS,020526.00,4.911,7.056,14.648,,,,*74
$GPGSV,7,1,26,412,25,280,19,20,41,056,17,429,19,086,18,429,19,086,15*46
$GPGSV,7,2,26,11,19,059,19,11,19,059,16,72,29,112,19,435,73,040,19*49
$GPGSV,7,3,26,12,24,168,18,71,30,056,18,78,41,299,19,422,18,159,17*43
$GPGSV,7,4,26,419,38,103,18,420,22,048,18,420,22,048,15,15,00,000,18*42
$GPGSV,7,5,26,424,32,276,18,18,32,251,18,18,32,251,15,426,24,220,17*7B
$GPGSV,7,6,26,05,62,114,19,313,38,253,17,313,38,253,15,29,70,324,19*72
$GPGSV,7,7,26,303,07,115,15,25,48,197,19*47
{"class":"TPV","status":7,"mode":3,"time":"2024-02-24T02:05:26.000Z","leapseconds":18,"ept":0.005,"lat":44.068827200,"lon":-121.314067800,"altHAE":1110.5940,"altMSL":1132.7485,"alt":1132.7485,"epx":4.911,"epy":7.056,"epv":14.648,"track":241.8970,"magtrack":256.3154,"magvar":14.4,"speed":0.080,"climb":-0.002,"epc":28.49,"velN":-0.038,"velE":-0.070,"velD":0.002,"geoidSep":-22.154,"eph":4.608,"sep":18.240,"ant":2,"temp":30.864}
{"class":"SKY","time":"2024-02-24T02:05:24.000Z","gdop":1.35,"hdop":0.60,"pdop":0.96,"tdop":0.48,"xdop":0.33,"ydop":0.47,"vdop":0.74,"nSat":26,"uSat":25,"satellites":[{"PRN":412,"gnssid":3,"svid":12,"az":280.0,"el":25.0,"ss":19.0,"used":true},{"PRN":20,"gnssid":0,"svid":20,"az":56.0,"el":41.0,"ss":17.0,"used":true},{"PRN":429,"gnssid":3,"svid":29,"az":86.0,"el":19.0,"ss":18.0,"used":true},{"PRN":429,"gnssid":3,"svid":29,"sigid":3,"az":86.0,"el":19.0,"ss":15.0,"used":true},{"PRN":11,"gnssid":0,"svid":11,"az":59.0,"el":19.0,"ss":19.0,"used":true},{"PRN":11,"gnssid":0,"svid":11,"sigid":6,"az":59.0,"el":19.0,"ss":16.0,"used":true},{"PRN":72,"gnssid":6,"svid":8,"az":112.0,"el":29.0,"ss":19.0,"used":true},{"PRN":435,"gnssid":3,"svid":35,"az":40.0,"el":73.0,"ss":19.0,"used":true},{"PRN":12,"gnssid":0,"svid":12,"az":168.0,"el":24.0,"ss":18.0,"used":true},{"PRN":71,"gnssid":6,"svid":7,"az":56.0,"el":30.0,"ss":18.0,"used":true},{"PRN":78,"gnssid":6,"svid":14,"az":299.0,"el":41.0,"ss":19.0,"used":true},{"PRN":422,"gnssid":3,"svid":22,"az":159.0,"el":18.0,"ss":17.0,"used":true},{"PRN":419,"gnssid":3,"svid":19,"az":103.0,"el":38.0,"ss":18.0,"used":true},{"PRN":420,"gnssid":3,"svid":20,"az":48.0,"el":22.0,"ss":18.0,"used":true},{"PRN":420,"gnssid":3,"svid":20,"sigid":3,"az":48.0,"el":22.0,"ss":15.0,"used":true},{"PRN":15,"gnssid":0,"svid":15,"az":0.0,"el":0.0,"ss":18.0,"used":false},{"PRN":424,"gnssid":3,"svid":24,"az":276.0,"el":32.0,"ss":18.0,"used":true},{"PRN":18,"gnssid":0,"svid":18,"az":251.0,"el":32.0,"ss":18.0,"used":true},{"PRN":18,"gnssid":0,"svid":18,"sigid":6,"az":251.0,"el":32.0,"ss":15.0,"used":true},{"PRN":426,"gnssid":3,"svid":26,"az":220.0,"el":24.0,"ss":17.0,"used":true},{"PRN":5,"gnssid":0,"svid":5,"az":114.0,"el":62.0,"ss":19.0,"used":true},{"PRN":313,"gnssid":2,"svid":13,"az":253.0,"el":38.0,"ss":17.0,"used":true},{"PRN":313,"gnssid":2,"svid":13,"sigid":3,"az":253.0,"el":38.0,"ss":15.0,"used":true},{"PRN":29,"gnssid":0,"svid":29,"az":324.0,"el":70.0,"ss":19.0,"used":true},{"PRN":303,"gnssid":2,"svid":3,"az":115.0,"el":7.0,"ss":15.0,"used":true}]}
$GPGGA,020527.00,4404.1295960,N,12118.8440140,W,1,00,,1132.98,M,-22.154,M,,*7D
$GPRMC,020527.00,A,4404.1295960,N,12118.8440140,W,0.0744,241.897,240224,14.4,E*4F
$GPGSA,A,3,412,20,429,429,11,72,435,12,71,78,422,419,1.0,,*33
{"class":"TPV","mode":3,"time":"2024-02-24T02:05:27.000Z","leapseconds":18,"ept":0.005,"lat":44.068826600,"lon":-121.314066900,"altHAE":1110.8250,"altMSL":1132.9795,"alt":1132.9795,"epv":15.339,"track":241.8970,"magtrack":256.3155,"magvar":14.4,"speed":0.038,"climb":-0.011,"epc":29.99,"velN":-0.018,"velE":-0.034,"velD":0.011,"geoidSep":-22.154,"eph":4.634,"sep":18.810}
{"class":"SKY","time":"2024-02-24T02:05:25.000Z","pdop":0.99}
$GPZDA,020527.00,24,02,2024,00,00*64
$GPGGA,020527.00,4404.1295960,N,12118.8440140,W,7,00,0.62,1132.98,M,-22.154,M,,*61
$GPRMC,020527.00,A,4404.1295960,N,12118.8440140,W,0.0744,241.897,240224,14.4,E*4F
$GPGSA,A,3,412,20,429,429,11,72,435,12,71,78,422,419,1.0,0.6,0.8*3D
$GPGBS,020527.00,5.236,7.655,15.339,,,,*7D
$GPGSV,6,1,22,412,25,280,16,20,41,056,15,429,19,086,14,429,19,086,17*40
