$GPGGA,205127.00,4404.1320440,N,12118.8465580,W,1,00,,1139.22,M,-22.154,M,,*79
$GPRMC,205127.00,A,4404.1320440,N,12118.8465580,W,0.0000,0.000,210222,14.4,E*44
$GPGSA,A,3,,,,,,,,,,,,,0.9,,*3B
{"class":"TPV","mode":3,"time":"2022-02-21T20:51:27.000Z","leapseconds":18,"ept":0.005,"lat":44.068867400,"lon":-121.314109300,"altHAE":1117.0610,"altMSL":1139.2155,"alt":1139.2155,"epv":9.448,"track":0.0000,"magtrack":14.4184,"magvar":14.4,"speed":0.000,"climb":-0.055,"velN":0.000,"velE":0.000,"velD":0.055,"geoidSep":-22.154,"eph":3.859,"sep":16.340}
{"class":"SKY","pdop":0.86}
$GPZDA,205127.00,21,02,2022,00,00*66
$GPGGA,205127.00,4404.1320440,N,12118.8465580,W,7,00,0.48,1139.22,M,-22.154,M,,*6D
$GPRMC,205127.00,A,4404.1320440,N,12118.8465580,W,0.0000,0.000,210222,14.4,E*44
$GPGSA,A,3,,,,,,,,,,,,,0.9,0.5,0.7*39
{"class":"TPV","status":7,"mode":3,"time":"2022-02-21T20:51:27.000Z","leapseconds":18,"ept":0.005,"lat":44.068867400,"lon":-121.314109300,"altHAE":1117.0610,"altMSL":1139.2155,"alt":1139.2155,"epv":9.448,"track":0.0000,"magtrack":14.4184,"magvar":14.4,"speed":0.000,"climb":-0.055,"velN":0.000,"velE":0.000,"velD":0.055,"geoidSep":-22.154,"eph":3.859,"sep":16.340}
{"class":"SKY","hdop":0.48,"pdop":0.86,"tdop":0.42,"vdop":0.71}
{"class":"SKY","time":"2022-02-21T20:51:26.000Z","hdop":0.48,"pdop":0.86,"tdop":0.42,"vdop":0.71,"nSat":0,"uSat":0}
{"class":"SKY","time":"2022-02-21T20:51:26.000Z","hdop":0.48,"pdop":0.86,"tdop":0.42,"vdop":0.71,"nSat":0,"uSat":0}
{"class":"SKY","time":"2022-02-21T20:51:26.000Z","hdop":0.48,"pdop":0.86,"tdop":0.42,"vdop":0.71,"nSat":0,"uSat":0}
{"class":"SKY","time":"2022-02-21T20:51:26.000Z","hdop":0.48,"pdop":0.86,"tdop":0.42,"vdop":0.71,"nSat":0,"uSat":0}
{"class":"SKY","time":"2022-02-21T20:51:26.000Z","hdop":0.48,"pdop":0.86,"tdop":0.42,"vdop":0.71,"nSat":0,"uSat":0}
{"class":"SKY","time":"2022-02-21T20:51:26.000Z","hdop":0.48,"pdop":0.86,"tdop":0.42,"vdop":0.71,"nSat":0,"uSat":0}
{"class":"SKY","time":"2022-02-21T20:51:26.000Z","hdop":0.48,"pdop":0.86,"tdop":0.42,"vdop":0.71,"nSat":0,"uSat":0}
{"class":"SKY","time":"2022-02-21T20:51:26.000Z","hdop":0.48,"pdop":0.86,"tdop":0.42,"vdop":0.71,"nSat":0,"uSat":0}
{"class":"SKY","time":"2022-02-21T20:51:26.000Z","hdop":0.48,"pdop":0.86,"tdop":0.42,"vdop":0.71,"nSat":0,"uSat":0}
{"class":"SKY","time":"2022-02-21T20:51:26.000Z","hdop":0.48,"pdop":0.86,"tdop":0.42,"vdop":0.71,"nSat":0,"uSat":0}
{"class":"SKY","time":"2022-02-21T20:51:26.000Z","hdop":0.48,"pdop":0.86,"tdop":0.42,"vdop":0.71,"nSat":0,"uSat":0}
{"class":"SKY","time":"2022-02-21T20:51:26.000Z","hdop":0.48,"pdop":0.86,"tdop":0.42,"vdop":0.71,"nSat":0,"uSat":0}
{"class":"SKY","time":"2022-02-21T20:51:26.000Z","hdop":0.48,"pdop":0.86,"tdop":0.42,"vdop":0.71,"nSat":0,"uSat":0}
{"class":"SKY","time":"2022-02-21T20:51:26.000Z","hdop":0.48,"pdop":0.86,"tdop":0.42,"vdop":0.71,"nSat":0,"uSat":0}
{"class":"SKY","time":"2022-02-21T20:51:26.000Z","hdop":0.48,"pdop":0.86,"tdop":0.42,"vdop":0.71,"nSat":0,"uSat":0}
{"class":"SKY","time":"2022-02-21T20:51:26.000Z","hdop":0.48,"pdop":0.86,"tdop":0.42,"vdop":0.71,"nSat":0,"uSat":0}
{"class":"SKY","time":"2022-02-21T20:51:26.000Z","hdop":0.48,"pdop":0.86,"tdop":0.42,"vdop":0.71,"nSat":0,"uSat":0}
{"class":"SKY","time":"2022-02-21T20:51:26.000Z","hdop":0.48,"pdop":0.86,"tdop":0.42,"vdop":0.71,"nSat":0,"uSat":0}
{"class":"SKY","time":"2022-02-21T20:51:26.000Z","hdop":0.48,"pdop":0.86,"tdop":0.42,"vdop":0.71,"nSat":0,"uSat":0}
{"class":"SKY","time":"2022-02-21T20:51:26.000Z","hdop":0.48,"pdop":0.86,"tdop":0.42,"vdop":0.71,"nSat":0,"uSat":0}
{"class":"SKY","time":"2022-02-21T20:51:26.000Z","hdop":0.48,"pdop":0.86,"tdop":0.42,"vdop":0.71,"nSat":0,"uSat":0}
{"class":"SKY","time":"2022-02-21T20:51:26.000Z","hdop":0.48,"pdop":0.86,"tdop":0.42,"vdop":0.71,"nSat":0,"uSat":0}
{"class":"SKY","time":"2022-02-21T20:51:26.000Z","hdop":0.48,"pdop":0.86,"tdop":0.42,"vdop":0.71,"nSat":0,"uSat":0}
{"class":"SKY","time":"2022-02-21T20:51:26.000Z","hdop":0.48,"pdop":0.86,"tdop":0.42,"vdop":0.71,"nSat":0,"uSat":0}
{"class":"SKY","time":"2022-02-21T20:51:26.000Z","hdop":0.48,"pdop":0.86,"tdop":0.42,"vdop":0.71,"nSat":0,"uSat":0}
{"class":"SKY","time":"2022-02-21T20:51:26.000Z","hdop":0.48,"pdop":0.86,"tdop":0.42,"vdop":0.71,"nSat":0,"uSat":0}
{"class":"SKY","time":"2022-02-21T20:51:26.000Z","hdop":0.48,"pdop":0.86,"tdop":0.42,"vdop":0.71,"nSat":0,"uSat":0}
{"class":"SKY","time":"2022-02-21T20:51:26.000Z","hdop":0.48,"pdop":0.86,"tdop":0.42,"vdop":0.71,"nSat":0,"uSat":0}
{"class":"SKY","time":"2022-02-21T20:51:26.000Z","hdop":0.48,"pdop":0.86,"tdop":0.42,"vdop":0.71,"nSat":0,"uSat":0}
{"class":"SKY","time":"2022-02-21T20:51:26.000Z","hdop":0.48,"pdop":0.86,"tdop":0.42,"vdop":0.71,"nSat":0,"uSat":0}
{"class":"SKY","time":"2022-02-21T20:51:26.000Z","hdop":0.48,"pdop":0.86,"tdop":0.42,"vdop":0.71,"nSat":0,"uSat":0}
{"class":"SKY","time":"2022-02-21T20:51:26.000Z","hdop":0.48,"pdop":0.86,"tdop":0.42,"vdop":0.71,"nSat":0,"uSat":0}
{"class":"SKY","time":"2022-02-21T20:51:26.000Z","hdop":0.48,"pdop":0.86,"tdop":0.42,"vdop":0.71,"nSat":0,"uSat":0}
{"class":"SKY","time":"2022-02-21T20:51:26.000Z","hdop":0.48,"pdop":0.86,"tdop":0.42,"vdop":0.71,"nSat":0,"uSat":0}
{"class":"SKY","time":"2022-02-21T20:51:26.000Z","hdop":0.48,"pdop":0.86,"tdop":0.42,"vdop":0.71,"nSat":0,"uSat":0}
{"class":"SKY","time":"2022-02-21T20:51:26.000Z","hdop":0.48,"pdop":0.86,"tdop":0.42,"vdop":0.71,"nSat":0,"uSat":0}
{"class":"SKY","time":"2022-02-21T20:51:26.000Z","hdop":0.48,"pdop":0.86,"tdop":0.42,"vdop":0.71,"nSat":0,"uSat":0}
{"class":"SKY","time":"2022-02-21T20:51:26.000Z","hdop":0.48,"pdop":0.86,"tdop":0.42,"vdop":0.71,"nSat":0,"uSat":0}
{"class":"SKY","time":"2022-02-21T20:51:26.000Z","hdop":0.48,"pdop":0.86,"tdop":0.42,"vdop":0.71,"nSat":0,"uSat":0}
{"class":"SKY","time":"2022-02-21T20:51:26.000Z","hdop":0.48,"pdop":0.86,"tdop":0.42,"vdop":0.71,"nSat":0,"uSat":0}
{"class":"SKY","time":"2022-02-21T20:51:26.000Z","hdop":0.48,"pdop":0.86,"tdop":0.42,"vdop":0.71,"nSat":0,"uSat":0}
{"class":"SKY","time":"2022-02-21T20:51:26.000Z","hdop":0.48,"pdop":0.86,"tdop":0.42,"vdop":0.71,"nSat":0,"uSat":0}
{"class":"SKY","time":"2022-02-21T20:51:26.000Z","hdop":0.48,"pdop":0.86,"tdop":0.42,"vdop":0.71,"nSat":0,"uSat":0}
{"class":"SKY","time":"2022-02-21T20:51:26.000Z","hdop":0.48,"pdop":0.86,"tdop":0.42,"vdop":0.71,"nSat":0,"uSat":0}
{"class":"SKY","time":"2022-02-21T20:51:26.000Z","hdop":0.48,"pdop":0.86,"tdop":0.42,"vdop":0.71,"nSat":0,"uSat":0}
$GPGGA,205128.00,4404.1320440,N,12118.8465580,W,1,00,,1139.22,M,-22.154,M,,*76
$GPRMC,205128.00,A,4404.1320440,N,12118.8465580,W,0.0000,0.000,210222,14.4,E*4B
$GPGSA,A,3,8,423,423,30,30,85,86,13,15,14,17,,0.9,,*05
{"class":"TPV","mode":3,"time":"2022-02-21T20:51:28.000Z","leapseconds":18,"ept":0.005,"lat":44.068867400,"lon":-121.314109300,"altHAE":1117.0610,"altMSL":1139.2155,"alt":1139.2155,"epv":9.234,"track":0.0000,"magtrack":14.4184,"magvar":14.4,"speed":0.000,"climb":-0.055,"epc":18.68,"velN":0.000,"velE":0.000,"velD":0.055,"geoidSep":-22.154,"eph":3.837,"sep":16.340}
{"class":"SKY","time":"2022-02-21T20:51:26.000Z","pdop":0.86}
$GPZDA,205128.00,21,02,2022,00,00*69
$GPGGA,205128.00,4404.1320440,N,12118.8465580,W,7,00,0.48,1139.22,M,-22.154,M,,*62
$GPRMC,205128.00,A,4404.1320440,N,12118.8465580,W,0.0000,0.000,210222,14.4,E*4B
$GPGSA,A,3,8,423,423,30,30,85,86,13,15,14,17,,0.9,0.5,0.7*07
{"class":"TPV","status":7,"mode":3,"time":"2022-02-21T20:51:28.000Z","leapseconds":18,"ept":0.005,"lat":44.068867400,"lon":-121.314109300,"altHAE":1117.0610,"altMSL":1139.2155,"alt":1139.2155,"epv":9.234,"track":0.0000,"magtrack":14.4184,"magvar":14.4,"speed":0.000,"climb":-0.055,"epc":18.68,"velN":0.000,"velE":0.000,"velD":0.055,"geoidSep":-22.154,"eph":3.837,"sep":16.340}
{"class":"SKY","time":"2022-02-21T20:51:26.000Z","hdop":0.48,"pdop":0.86,"tdop":0.42,"vdop":0.71}
$GPGSV,10,1,40,08,06,039,27,423,10,100,25,423,10,100,21,30,58,116,35*46
$GPGSV,10,2,40,30,58,116,30,85,46,077,36,86,33,141,20,13,53,276,41*45
$GPGSV,10,3,40,15,28,303,42,14,79,358,38,17,50,176,37,336,21,051,27*7A
$GPGSV,10,4,40,327,45,275,42,327,45,275,36,07,31,119,36,65,05,207,31*43
$GPGSV,10,5,40,307,41,222,27,307,41,222,33,428,47,087,29,428,47,087,28*4D
$GPGSV,10,6,40,21,18,058,23,19,27,191,35,315,08,154,16,315,08,154,18*40
$GPGSV,10,7,40,419,22,270,26,419,22,270,14,302,21,073,24,302,21,073,21*4F
$GPGSV,10,8,40,437,59,084,34,437,59,084,27,330,69,040,33,330,69,040,36*43
$GPGSV,10,9,40,66,34,260,29,67,24,320,39,427,34,159,36,427,34,159,34*43
$GPGSV,10,10,40,01,19,091,22,01,19,091,20,420,11,221,28,420,11,221,20*77
{"class":"SKY","time":"2022-02-21T20:51:27.000Z","gdop":0.84,"hdop":0.48,"pdop":0.86,"tdop":0.42,"xdop":0.25,"ydop":0.35,"vdop":0.71,"nSat":41,"uSat":40,"satellites":[{"PRN":8,"gnssid":0,"svid":8,"az":39.0,"el":6.0,"ss":27.0,"used":true},{"PRN":423,"gnssid":3,"svid":23,"az":100.0,"el":10.0,"ss":25.0,"used":true},{"PRN":423,"gnssid":3,"svid":23,"sigid":3,"az":100.0,"el":10.0,"ss":21.0,"used":true},{"PRN":30,"gnssid":0,"svid":30,"az":116.0,"el":58.0,"ss":35.0,"used":true},{"PRN":30,"gnssid":0,"svid":30,"sigid":6,"az":116.0,"el":58.0,"ss":30.0,"used":true},{"PRN":85,"gnssid":6,"svid":21,"az":77.0,"el":46.0,"ss":36.0,"used":true},{"PRN":86,"gnssid":6,"svid":22,"az":141.0,"el":33.0,"ss":20.0,"used":true},{"PRN":13,"gnssid":0,"svid":13,"az":276.0,"el":53.0,"ss":41.0,"used":true},{"PRN":15,"gnssid":0,"svid":15,"az":303.0,"el":28.0,"ss":42.0,"used":true},{"PRN":14,"gnssid":0,"svid":14,"az":358.0,"el":79.0,"ss":38.0,"used":true},{"PRN":14,"gnssid":0,"svid":14,"sigid":6,"ss":37.0,"used":false},{"PRN":17,"gnssid":0,"svid":17,"az":176.0,"el":50.0,"ss":37.0,"used":true},{"PRN":336,"gnssid":2,"svid":36,"az":51.0,"el":21.0,"ss":27.0,"used":true},{"PRN":327,"gnssid":2,"svid":27,"az":275.0,"el":45.0,"ss":42.0,"used":true},{"PRN":327,"gnssid":2,"svid":27,"sigid":3,"az":275.0,"el":45.0,"ss":36.0,"used":true},{"PRN":7,"gnssid":0,"svid":7,"az":119.0,"el":31.0,"ss":36.0,"used":true},{"PRN":65,"gnssid":6,"svid":1,"az":207.0,"el":5.0,"ss":31.0,"used":true},{"PRN":307,"gnssid":2,"svid":7,"az":222.0,"el":41.0,"ss":27.0,"used":true},{"PRN":307,"gnssid":2,"svid":7,"sigid":3,"az":222.0,"el":41.0,"ss":33.0,"used":true},{"PRN":428,"gnssid":3,"svid":28,"az":87.0,"el":47.0,"ss":29.0,"used":true},{"PRN":428,"gnssid":3,"svid":28,"sigid":3,"az":87.0,"el":47.0,"ss":28.0,"used":true},{"PRN":21,"gnssid":0,"svid":21,"az":58.0,"el":18.0,"ss":23.0,"used":true},{"PRN":19,"gnssid":0,"svid":19,"az":191.0,"el":27.0,"ss":35.0,"used":true},{"PRN":315,"gnssid":2,"svid":15,"az":154.0,"el":8.0,"ss":16.0,"used":true},{"PRN":315,"gnssid":2,"svid":15,"sigid":3,"az":154.0,"el":8.0,"ss":18.0,"used":true},{"PRN":419,"gnssid":3,"svid":19,"az":270.0,"el":22.0,"ss":26.0,"used":true},{"PRN":419,"gnssid":3,"svid":19,"sigid":3,"az":270.0,"el":22.0,"ss":14.0,"used":true},{"PRN":302,"gnssid":2,"svid":2,"az":73.0,"el":21.0,"ss":24.0,"used":true},{"PRN":302,"gnssid":2,"svid":2,"sigid":3,"az":73.0,"el":21.0,"ss":21.0,"used":true},{"PRN":437,"gnssid":3,"svid":37,"az":84.0,"el":59.0,"ss":34.0,"used":true},{"PRN":437,"gnssid":3,"svid":37,"sigid":3,"az":84.0,"el":59.0,"ss":27.0,"used":true},{"PRN":330,"gnssid":2,"svid":30,"az":40.0,"el":69.0,"ss":33.0,"used":true},{"PRN":330,"gnssid":2,"svid":30,"sigid":3,"az":40.0,"el":69.0,"ss":36.0,"used":true},{"PRN":66,"gnssid":6,"svid":2,"az":260.0,"el":34.0,"ss":29.0,"used":true},{"PRN":67,"gnssid":6,"svid":3,"az":320.0,"el":24.0,"ss":39.0,"used":true},{"PRN":427,"gnssid":3,"svid":27,"az":159.0,"el":34.0,"ss":36.0,"used":true},{"PRN":427,"gnssid":3,"svid":27,"sigid":3,"az":159.0,"el":34.0,"ss":34.0,"used":true}]}
$GPGGA,205129.00,4404.1320440,N,12118.8465580,W,1,00,,1139.22,M,-22.154,M,,*77
$GPRMC,205129.00,A,4404.1320440,N,12118.8465580,W,0.0000,0.000,210222,14.4,E*4A
$GPGSA,A,3,8,423,423,30,30,85,86,13,15,14,17,,0.9,,*05
{"class":"TPV","mode":3,"time":"2022-02-21T20:51:29.000Z","leapseconds":18,"ept":0.005,"lat":44.068867400,"lon":-121.314109300,"altHAE":1117.0610,"altMSL":1139.2155,"alt":1139.2155,"epv":9.386,"track":0.0000,"magtrack":14.4184,"magvar":14.4,"speed":0.000,"climb":-0.054,"epc":18.62,"velN":0.000,"velE":0.000,"velD":0.054,"geoidSep":-22.154,"eph":3.840,"sep":16.340}
{"class":"SKY","time":"2022-02-21T20:51:27.000Z","pdop":0.86}
$GPZDA,205129.00,21,02,2022,00,00*68
$GPGGA,205129.00,4404.1320440,N,12118.8465580,W,7,00,0.48,1139.22,M,-22.154,M,,*63
$GPRMC,205129.00,A,4404.1320440,N,12118.8465580,W,0.0000,0.000,210222,14.4,E*4A
$GPGSA,A,3,8,423,423,30,30,85,86,13,15,14,17,,0.9,0.5,0.7*07
{"class":"TPV","status":7,"mode":3,"time":"2022-02-21T20:51:29.000Z","leapseconds":18,"ept":0.005,"lat":44.068867400,"lon":-121.314109300,"altHAE":1117.0610,"altMSL":1139.2155,"alt":1139.2155,"epv":9.386,"track":0.0000,"magtrack":14.4184,"magvar":14.4,"speed":0.000,"climb":-0.054,"epc":18.62,"velN":0.000,"velE":0.000,"velD":0.054,"geoidSep":-22.154,"eph":3.840,"sep":16.340}
{"class":"SKY","time":"2022-02-21T20:51:27.000Z","hdop":0.48,"pdop":0.86,"tdop":0.42,"vdop":0.71}
$GPGSV,10,1,40,08,06,039,28,423,10,100,25,423,10,100,20,30,58,116,34*49
$GPGSV,10,2,40,30,58,116,31,85,46,077,36,86,33,141,21,13,53,276,41*45
$GPGSV,10,3,40,15,28,303,43,14,79,358,37,17,50,176,37,336,21,051,27*74
$GPGSV,10,4,40,327,45,275,42,327,45,275,36,07,31,119,36,65,05,207,30*42
$GPGSV,10,5,40,307,41,222,27,307,41,222,32,428,47,087,28,428,47,087,28*4D
$GPGSV,10,6,40,21,18,058,22,19,27,191,36,315,08,154,18,315,08,154,18*4C
$GPGSV,10,7,40,419,22,270,26,419,22,270,14,302,21,073,24,302,21,073,20*4E
$GPGSV,10,8,40,437,59,084,34,437,59,084,27,330,69,040,33,330,69,040,35*40
$GPGSV,10,9,40,66,34,260,29,67,24,320,39,427,34,159,36,427,34,159,35*42
$GPGSV,10,10,40,01,19,091,23,01,19,091,20,420,11,221,28,420,11,221,22*74
{"class":"SKY","time":"2022-02-21T20:51:28.000Z","gdop":0.84,"hdop":0.48,"pdop":0.86,"tdop":0.42,"xdop":0.25,"ydop":0.35,"vdop":0.71,"nSat":41,"uSat":40,"satellites":[{"PRN":8,"gnssid":0,"svid":8,"az":39.0,"el":6.0,"ss":28.0,"used":true},{"PRN":423,"gnssid":3,"svid":23,"az":100.0,"el":10.0,"ss":25.0,"used":true},{"PRN":423,"gnssid":3,"svid":23,"sigid":3,"az":100.0,"el":10.0,"ss":20.0,"used":true},{"PRN":30,"gnssid":0,"svid":30,"az":116.0,"el":58.0,"ss":34.0,"used":true},{"PRN":30,"gnssid":0,"svid":30,"sigid":6,"az":116.0,"el":58.0,"ss":31.0,"used":true},{"PRN":85,"gnssid":6,"svid":21,"az":77.0,"el":46.0,"ss":36.0,"used":true},{"PRN":86,"gnssid":6,"svid":22,"az":141.0,"el":33.0,"ss":21.0,"used":true},{"PRN":13,"gnssid":0,"svid":13,"az":276.0,"el":53.0,"ss":41.0,"used":true},{"PRN":15,"gnssid":0,"svid":15,"az":303.0,"el":28.0,"ss":43.0,"used":true},{"PRN":14,"gnssid":0,"svid":14,"az":358.0,"el":79.0,"ss":37.0,"used":true},{"PRN":14,"gnssid":0,"svid":14,"sigid":6,"ss":36.0,"used":false},{"PRN":17,"gnssid":0,"svid":17,"az":176.0,"el":50.0,"ss":37.0,"used":true},{"PRN":336,"gnssid":2,"svid":36,"az":51.0,"el":21.0,"ss":27.0,"used":true},{"PRN":327,"gnssid":2,"svid":27,"az":275.0,"el":45.0,"ss":42.0,"used":true},{"PRN":327,"gnssid":2,"svid":27,"sigid":3,"az":275.0,"el":45.0,"ss":36.0,"used":true},{"PRN":7,"gnssid":0,"svid":7,"az":119.0,"el":31.0,"ss":36.0,"used":true},{"PRN":65,"gnssid":6,"svid":1,"az":207.0,"el":5.0,"ss":30.0,"used":true},{"PRN":307,"gnssid":2,"svid":7,"az":222.0,"el":41.0,"ss":27.0,"used":true},{"PRN":307,"gnssid":2,"svid":7,"sigid":3,"az":222.0,"el":41.0,"ss":32.0,"used":true},{"PRN":428,"gnssid":3,"svid":28,"az":87.0,"el":47.0,"ss":28.0,"used":true},{"PRN":428,"gnssid":3,"svid":28,"sigid":3,"az":87.0,"el":47.0,"ss":28.0,"used":true},{"PRN":21,"gnssid":0,"svid":21,"az":58.0,"el":18.0,"ss":22.0,"used":true},{"PRN":19,"gnssid":0,"svid":19,"az":191.0,"el":27.0,"ss":36.0,"used":true},{"PRN":315,"gnssid":2,"svid":15,"az":154.0,"el":8.0,"ss":18.0,"used":true},{"PRN":315,"gnssid":2,"svid":15,"sigid":3,"az":154.0,"el":8.0,"ss":18.0,"used":true},{"PRN":419,"gnssid":3,"svid":19,"az":270.0,"el":22.0,"ss":26.0,"used":true},{"PRN":419,"gnssid":3,"svid":19,"sigid":3,"az":270.0,"el":22.0,"ss":14.0,"used":true},{"PRN":302,"gnssid":2,"svid":2,"az":73.0,"el":21.0,"ss":24.0,"used":true},{"PRN":302,"gnssid":2,"svid":2,"sigid":3,"az":73.0,"el":21.0,"ss":20.0,"used":true},{"PRN":437,"gnssid":3,"svid":37,"az":84.0,"el":59.0,"ss":34.0,"used":true},{"PRN":437,"gnssid":3,"svid":37,"sigid":3,"az":84.0,"el":59.0,"ss":27.0,"used":true},{"PRN":330,"gnssid":2,"svid":30,"az":40.0,"el":69.0,"ss":33.0,"used":true},{"PRN":330,"gnssid":2,"svid":30,"sigid":3,"az":40.0,"el":69.0,"ss":35.0,"used":true},{"PRN":66,"gnssid":6,"svid":2,"az":260.0,"el":34.0,"ss":29.0,"used":true},{"PRN":67,"gnssid":6,"svid":3,"az":320.0,"el":24.0,"ss":39.0,"used":true},{"PRN":427,"gnssid":3,"svid":27,"az":159.0,"el":34.0,"ss":36.0,"used":true},{"PRN":427,"gnssid":3,"svid":27,"sigid":3,"az":159.0,"el":34.0,"ss":35.0,"used":true}]}
$GPGGA,205130.00,4404.1320440,N,12118.8465580,W,1,00,,1139.22,M,-22.154,M,,*7F
$GPRMC,205130.00,A,4404.1320440,N,12118.8465580,W,0.0000,0.000,210222,14.4,E*42
$GPGSA,A,3,8,423,423,30,30,85,86,13,15,14,17,,0.9,,*05
{"class":"TPV","mode":3,"time":"2022-02-21T20:51:30.000Z","leapseconds":18,"ept":0.005,"lat":44.068867400,"lon":-121.314109300,"altHAE":1117.0610,"altMSL":1139.2155,"alt":1139.2155,"epv":9.326,"track":0.0000,"magtrack":14.4184,"magvar":14.4,"speed":0.000,"climb":-0.054,"epc":18.71,"velN":0.000,"velE":0.000,"velD":0.054,"geoidSep":-22.154,"eph":3.856,"sep":16.340}
{"class":"SKY","time":"2022-02-21T20:51:28.000Z","pdop":0.86}
$GPZDA,205130.00,21,02,2022,00,00*60
$GPGGA,205130.00,4404.1320440,N,12118.8465580,W,7,00,0.48,1139.22,M,-22.154,M,,*6B
$GPRMC,205130.00,A,4404.1320440,N,12118.8465580,W,0.0000,0.000,210222,14.4,E*42
$GPGSA,A,3,8,423,423,30,30,85,86,13,15,14,17,,0.9,0.5,0.7*07
{"class":"TPV","status":7,"mode":3,"time":"2022-02-21T20:51:30.000Z","leapseconds":18,"ept":0.005,"lat":44.068867400,"lon":-121.314109300,"altHAE":1117.0610,"altMSL":1139.2155,"alt":1139.2155,"epv":9.326,"track":0.0000,"magtrack":14.4184,"magvar":14.4,"speed":0.000,"climb":-0.054,"epc":18.71,"velN":0.000,"velE":0.000,"velD":0.054,"geoidSep":-22.154,"eph":3.856,"sep":16.340}
{"class":"SKY","time":"2022-02-21T20:51:28.000Z","hdop":0.48,"pdop":0.86,"tdop":0.42,"vdop":0.71}
$GPGSV,10,1,40,08,06,039,28,423,10,100,25,423,10,100,21,30,58,116,35*49
$GPGSV,10,2,40,30,58,116,32,85,46,077,35,86,33,141,20,13,53,276,41*44
$GPGSV,10,3,40,15,28,303,43,14,79,358,38,17,50,176,37,336,21,051,27*7B
$GPGSV,10,4,40,327,45,275,42,327,45,275,36,07,31,119,36,65,05,207,31*43
$GPGSV,10,5,40,307,41,222,27,307,41,222,33,428,47,087,28,428,47,087,28*4C
$GPGSV,10,6,40,21,18,058,23,19,27,191,35,315,08,154,17,315,08,154,20*4A
$GPGSV,10,7,40,419,22,270,25,419,22,270,16,302,21,073,24,302,21,073,23*4C
$GPGSV,10,8,40,437,59,084,35,437,59,084,28,330,69,040,33,330,69,040,36*4D
$GPGSV,10,9,40,66,34,260,28,67,24,320,38,427,34,159,37,427,34,159,35*43
$GPGSV,10,10,40,01,19,091,24,01,19,091,20,420,11,221,29,420,11,221,21*71
{"class":"SKY","time":"2022-02-21T20:51:29.000Z","gdop":0.84,"hdop":0.48,"pdop":0.86,"tdop":0.42,"xdop":0.25,"ydop":0.35,"vdop":0.71,"nSat":41,"uSat":40,"satellites":[{"PRN":8,"gnssid":0,"svid":8,"az":39.0,"el":6.0,"ss":28.0,"used":true},{"PRN":423,"gnssid":3,"svid":23,"az":100.0,"el":10.0,"ss":25.0,"used":true},{"PRN":423,"gnssid":3,"svid":23,"sigid":3,"az":100.0,"el":10.0,"ss":21.0,"used":true},{"PRN":30,"gnssid":0,"svid":30,"az":116.0,"el":58.0,"ss":35.0,"used":true},{"PRN":30,"gnssid":0,"svid":30,"sigid":6,"az":116.0,"el":58.0,"ss":32.0,"used":true},{"PRN":85,"gnssid":6,"svid":21,"az":77.0,"el":46.0,"ss":35.0,"used":true},{"PRN":86,"gnssid":6,"svid":22,"az":141.0,"el":33.0,"ss":20.0,"used":true},{"PRN":13,"gnssid":0,"svid":13,"az":276.0,"el":53.0,"ss":41.0,"used":true},{"PRN":15,"gnssid":0,"svid":15,"az":303.0,"el":28.0,"ss":43.0,"used":true},{"PRN":14,"gnssid":0,"svid":14,"az":358.0,"el":79.0,"ss":38.0,"used":true},{"PRN":14,"gnssid":0,"svid":14,"sigid":6,"ss":37.0,"used":false},{"PRN":17,"gnssid":0,"svid":17,"az":176.0,"el":50.0,"ss":37.0,"used":true},{"PRN":336,"gnssid":2,"svid":36,"az":51.0,"el":21.0,"ss":27.0,"used":true},{"PRN":327,"gnssid":2,"svid":27,"az":275.0,"el":45.0,"ss":42.0,"used":true},{"PRN":327,"gnssid":2,"svid":27,"sigid":3,"az":275.0,"el":45.0,"ss":36.0,"used":true},{"PRN":7,"gnssid":0,"svid":7,"az":119.0,"el":31.0,"ss":36.0,"used":true},{"PRN":65,"gnssid":6,"svid":1,"az":207.0,"el":5.0,"ss":31.0,"used":true},{"PRN":307,"gnssid":2,"svid":7,"az":222.0,"el":41.0,"ss":27.0,"used":true},{"PRN":307,"gnssid":2,"svid":7,"sigid":3,"az":222.0,"el":41.0,"ss":33.0,"used":true},{"PRN":428,"gnssid":3,"svid":28,"az":87.0,"el":47.0,"ss":28.0,"used":true},{"PRN":428,"gnssid":3,"svid":28,"sigid":3,"az":87.0,"el":47.0,"ss":28.0,"used":true},{"PRN":21,"gnssid":0,"svid":21,"az":58.0,"el":18.0,"ss":23.0,"used":true},{"PRN":19,"gnssid":0,"svid":19,"az":191.0,"el":27.0,"ss":35.0,"used":true},{"PRN":315,"gnssid":2,"svid":15,"az":154.0,"el":8.0,"ss":17.0,"used":true},{"PRN":315,"gnssid":2,"svid":15,"sigid":3,"az":154.0,"el":8.0,"ss":20.0,"used":true},{"PRN":419,"gnssid":3,"svid":19,"az":270.0,"el":22.0,"ss":25.0,"used":true},{"PRN":419,"gnssid":3,"svid":19,"sigid":3,"az":270.0,"el":22.0,"ss":16.0,"used":true},{"PRN":302,"gnssid":2,"svid":2,"az":73.0,"el":21.0,"ss":24.0,"used":true},{"PRN":302,"gnssid":2,"svid":2,"sigid":3,"az":73.0,"el":21.0,"ss":23.0,"used":true},{"PRN":437,"gnssid":3,"svid":37,"az":84.0,"el":59.0,"ss":35.0,"used":true},{"PRN":437,"gnssid":3,"svid":37,"sigid":3,"az":84.0,"el":59.0,"ss":28.0,"used":true},{"PRN":330,"gnssid":2,"svid":30,"az":40.0,"el":69.0,"ss":33.0,"used":true},{"PRN":330,"gnssid":2,"svid":30,"sigid":3,"az":40.0,"el":69.0,"ss":36.0,"used":true},{"PRN":66,"gnssid":6,"svid":2,"az":260.0,"el":34.0,"ss":28.0,"used":true},{"PRN":67,"gnssid":6,"svid":3,"az":320.0,"el":24.0,"ss":38.0,"used":true},{"PRN":427,"gnssid":3,"svid":27,"az":159.0,"el":34.0,"ss":37.0,"used":true},{"PRN":427,"gnssid":3,"svid":27,"sigid":3,"az":159.0,"el":34.0,"ss":35.0,"used":true}]}
$GPGGA,205131.00,4404.1320440,N,12118.8465580,W,1,00,,1139.22,M,-22.154,M,,*7E
$GPRMC,205131.00,A,4404.1320440,N,12118.8465580,W,0.0000,0.000,210222,14.4,E*43
$GPGSA,A,3,8,423,423,30,30,85,86,13,15,14,17,,0.9,,*05
{"class":"TPV","mode":3,"time":"2022-02-21T20:51:31.000Z","leapseconds":18,"ept":0.005,"lat":44.068867400,"lon":-121.314109300,"altHAE":1117.0610,"altMSL":1139.2155,"alt":1139.2155,"epv":9.431,"track":0.0000,"magtrack":14.4184,"magvar":14.4,"speed":0.000,"climb":-0.055,"epc":18.76,"velN":0.000,"velE":0.000,"velD":0.055,"geoidSep":-22.154,"eph":3.887,"sep":16.340}
{"class":"SKY","time":"2022-02-21T20:51:29.000Z","pdop":0.86}
$GPZDA,205131.00,21,02,2022,00,00*61
$GPGGA,205131.00,4404.1320440,N,12118.8465580,W,7,00,0.48,1139.22,M,-22.154,M,,*6A
$GPRMC,205131.00,A,4404.1320440,N,12118.8465580,W,0.0000,0.000,210222,14.4,E*43
$GPGSA,A,3,8,423,423,30,30,85,86,13,15,14,17,,0.9,0.5,0.7*07
{"class":"TPV","status":7,"mode":3,"time":"2022-02-21T20:51:31.000Z","leapseconds":18,"ept":0.005,"lat":44.068867400,"lon":-121.314109300,"altHAE":1117.0610,"altMSL":1139.2155,"alt":1139.2155,"epv":9.431,"track":0.0000,"magtrack":14.4184,"magvar":14.4,"speed":0.000,"climb":-0.055,"epc":18.76,"velN":0.000,"velE":0.000,"velD":0.055,"geoidSep":-22.154,"eph":3.887,"sep":16.340}
{"class":"SKY","time":"2022-02-21T20:51:29.000Z","hdop":0.48,"pdop":0.86,"tdop":0.42,"vdop":0.71}
$GPGSV,10,1,40,08,06,039,27,423,10,100,25,423,10,100,22,30,58,116,35*45
$GPGSV,10,2,40,30,58,116,31,85,46,077,36,86,33,141,20,13,53,276,41*44
$GPGSV,10,3,40,15,28,303,42,14,79,358,37,17,50,176,36,336,21,051,27*74
$GPGSV,10,4,40,327,45,275,42,327,45,275,36,07,31,119,36,65,05,207,33*41
$GPGSV,10,5,40,307,41,222,27,307,41,222,33,428,47,087,28,428,47,087,28*4C
$GPGSV,10,6,40,21,18,058,23,19,27,191,35,315,08,154,18,315,08,154,20*45
$GPGSV,10,7,40,419,22,270,26,419,22,270,17,302,21,073,24,302,21,073,21*4C
$GPGSV,10,8,40,437,59,084,35,437,59,084,27,330,69,040,31,330,69,040,35*43
$GPGSV,10,9,40,66,34,260,29,67,24,320,38,427,34,159,36,427,34,159,34*42
$GPGSV,10,10,40,01,19,091,22,01,19,091,20,420,11,221,29,420,11,221,21*77
{"class":"SKY","time":"2022-02-21T20:51:30.000Z","gdop":0.84,"hdop":0.48,"pdop":0.86,"tdop":0.42,"xdop":0.25,"ydop":0.35,"vdop":0.71,"nSat":41,"uSat":40,"satellites":[{"PRN":8,"gnssid":0,"svid":8,"az":39.0,"el":6.0,"ss":27.0,"used":true},{"PRN":423,"gnssid":3,"svid":23,"az":100.0,"el":10.0,"ss":25.0,"used":true},{"PRN":423,"gnssid":3,"svid":23,"sigid":3,"az":100.0,"el":10.0,"ss":22.0,"used":true},{"PRN":30,"gnssid":0,"svid":30,"az":116.0,"el":58.0,"ss":35.0,"used":true},{"PRN":30,"gnssid":0,"svid":30,"sigid":6,"az":116.0,"el":58.0,"ss":31.0,"used":true},{"PRN":85,"gnssid":6,"svid":21,"az":77.0,"el":46.0,"ss":36.0,"used":true},{"PRN":86,"gnssid":6,"svid":22,"az":141.0,"el":33.0,"ss":20.0,"used":true},{"PRN":13,"gnssid":0,"svid":13,"az":276.0,"el":53.0,"ss":41.0,"used":true},{"PRN":15,"gnssid":0,"svid":15,"az":303.0,"el":28.0,"ss":42.0,"used":true},{"PRN":14,"gnssid":0,"svid":14,"az":358.0,"el":79.0,"ss":37.0,"used":true},{"PRN":14,"gnssid":0,"svid":14,"sigid":6,"ss":37.0,"used":false},{"PRN":17,"gnssid":0,"svid":17,"az":176.0,"el":50.0,"ss":36.0,"used":true},{"PRN":336,"gnssid":2,"svid":36,"az":51.0,"el":21.0,"ss":27.0,"used":true},{"PRN":327,"gnssid":2,"svid":27,"az":275.0,"el":45.0,"ss":42.0,"used":true},{"PRN":327,"gnssid":2,"svid":27,"sigid":3,"az":275.0,"el":45.0,"ss":36.0,"used":true},{"PRN":7,"gnssid":0,"svid":7,"az":119.0,"el":31.0,"ss":36.0,"used":true},{"PRN":65,"gnssid":6,"svid":1,"az":207.0,"el":5.0,"ss":33.0,"used":true},{"PRN":307,"gnssid":2,"svid":7,"az":222.0,"el":41.0,"ss":27.0,"used":true},{"PRN":307,"gnssid":2,"svid":7,"sigid":3,"az":222.0,"el":41.0,"ss":33.0,"used":true},{"PRN":428,"gnssid":3,"svid":28,"az":87.0,"el":47.0,"ss":28.0,"used":true},{"PRN":428,"gnssid":3,"svid":28,"sigid":3,"az":87.0,"el":47.0,"ss":28.0,"used":true},{"PRN":21,"gnssid":0,"svid":21,"az":58.0,"el":18.0,"ss":23.0,"used":true},{"PRN":19,"gnssid":0,"svid":19,"az":191.0,"el":27.0,"ss":35.0,"used":true},{"PRN":315,"gnssid":2,"svid":15,"az":154.0,"el":8.0,"ss":18.0,"used":true},{"PRN":315,"gnssid":2,"svid":15,"sigid":3,"az":154.0,"el":8.0,"ss":20.0,"used":true},{"PRN":419,"gnssid":3,"svid":19,"az":270.0,"el":22.0,"ss":26.0,"used":true},{"PRN":419,"gnssid":3,"svid":19,"sigid":3,"az":270.0,"el":22.0,"ss":17.0,"used":true},{"PRN":302,"gnssid":2,"svid":2,"az":73.0,"el":21.0,"ss":24.0,"used":true},{"PRN":302,"gnssid":2,"svid":2,"sigid":3,"az":73.0,"el":21.0,"ss":21.0,"used":true},{"PRN":437,"gnssid":3,"svid":37,"az":84.0,"el":59.0,"ss":35.0,"used":true},{"PRN":437,"gnssid":3,"svid":37,"sigid":3,"az":84.0,"el":59.0,"ss":27.0,"used":true},{"PRN":330,"gnssid":2,"svid":30,"az":40.0,"el":69.0,"ss":31.0,"used":true},{"PRN":330,"gnssid":2,"svid":30,"sigid":3,"az":40.0,"el":69.0,"ss":35.0,"used":true},{"PRN":66,"gnssid":6,"svid":2,"az":260.0,"el":34.0,"ss":29.0,"used":true},{"PRN":67,"gnssid":6,"svid":3,"az":320.0,"el":24.0,"ss":38.0,"used":true},{"PRN":427,"gnssid":3,"svid":27,"az":159.0,"el":34.0,"ss":36.0,"used":true},{"PRN":427,"gnssid":3,"svid":27,"sigid":3,"az":159.0,"el":34.0,"ss":34.0,"used":true}]}
$GPGGA,205132.00,4404.1320440,N,12118.8465580,W,1,00,,1139.22,M,-22.154,M,,*7D
$GPRMC,205132.00,A,4404.1320440,N,12118.8465580,W,0.0000,0.000,210222,14.4,E*40
$GPGSA,A,3,8,423,423,30,30,85,86,13,15,14,17,,0.9,,*05
{"class":"TPV","mode":3,"time":"2022-02-21T20:51:32.000Z","leapseconds":18,"ept":0.005,"lat":44.068867400,"lon":-121.314109300,"altHAE":1117.0610,"altMSL":1139.2155,"alt":1139.2155,"epv":9.424,"track":0.0000,"magtrack":14.4184,"magvar":14.4,"speed":0.000,"climb":-0.054,"epc":18.85,"velN":0.000,"velE":0.000,"velD":0.054,"geoidSep":-22.154,"eph":3.848,"sep":16.340}
{"class":"SKY","time":"2022-02-21T20:51:30.000Z","pdop":0.86}
$GPZDA,205132.00,21,02,2022,00,00*62
$GPGGA,205132.00,4404.1320440,N,12118.8465580,W,7,00,0.48,1139.22,M,-22.154,M,,*69
$GPRMC,205132.00,A,4404.1320440,N,12118.8465580,W,0.0000,0.000,210222,14.4,E*40
$GPGSA,A,3,8,423,423,30,30,85,86,13,15,14,17,,0.9,0.5,0.7*07
{"class":"TPV","status":7,"mode":3,"time":"2022-02-21T20:51:32.000Z","leapseconds":18,"ept":0.005,"lat":44.068867400,"lon":-121.314109300,"altHAE":1117.0610,"altMSL":1139.2155,"alt":1139.2155,"epv":9.424,"track":0.0000,"magtrack":14.4184,"magvar":14.4,"speed":0.000,"climb":-0.054,"epc":18.85,"velN":0.000,"velE":0.000,"velD":0.054,"geoidSep":-22.154,"eph":3.848,"sep":16.340}
{"class":"SKY","time":"2022-02-21T20:51:30.000Z","hdop":0.48,"pdop":0.86,"tdop":0.42,"vdop":0.71}
$GPGSV,10,1,40,08,06,039,27,423,10,100,25,423,10,100,22,30,58,116,34*44
$GPGSV,10,2,40,30,58,116,30,85,46,077,35,86,33,141,20,13,53,276,41*46
$GPGSV,10,3,40,15,28,303,42,14,79,358,38,17,50,176,37,336,21,051,28*75
$GPGSV,10,4,40,327,45,275,42,327,45,275,36,07,31,119,36,65,05,207,32*40
$GPGSV,10,5,40,307,41,222,27,307,41,222,32,428,47,087,30,428,47,087,28*44
$GPGSV,10,6,40,21,18,058,23,19,27,191,36,315,08,154,19,315,08,154,20*47
$GPGSV,10,7,40,419,22,270,26,419,22,270,16,302,21,073,24,302,21,073,21*4D
$GPGSV,10,8,40,437,59,084,35,437,59,084,27,330,69,040,32,330,69,040,35*40
$GPGSV,10,9,40,66,34,260,30,67,24,320,38,427,34,159,37,427,34,159,35*4A
$GPGSV,10,10,40,01,19,091,23,01,19,091,22,420,11,221,28,420,11,221,22*76
{"class":"SKY","time":"2022-02-21T20:51:31.000Z","gdop":0.84,"hdop":0.48,"pdop":0.86,"tdop":0.42,"xdop":0.25,"ydop":0.35,"vdop":0.71,"nSat":41,"uSat":40,"satellites":[{"PRN":8,"gnssid":0,"svid":8,"az":39.0,"el":6.0,"ss":27.0,"used":true},{"PRN":423,"gnssid":3,"svid":23,"az":100.0,"el":10.0,"ss":25.0,"used":true},{"PRN":423,"gnssid":3,"svid":23,"sigid":3,"az":100.0,"el":10.0,"ss":22.0,"used":true},{"PRN":30,"gnssid":0,"svid":30,"az":116.0,"el":58.0,"ss":34.0,"used":true},{"PRN":30,"gnssid":0,"svid":30,"sigid":6,"az":116.0,"el":58.0,"ss":30.0,"used":true},{"PRN":85,"gnssid":6,"svid":21,"az":77.0,"el":46.0,"ss":35.0,"used":true},{"PRN":86,"gnssid":6,"svid":22,"az":141.0,"el":33.0,"ss":20.0,"used":true},{"PRN":13,"gnssid":0,"svid":13,"az":276.0,"el":53.0,"ss":41.0,"used":true},{"PRN":15,"gnssid":0,"svid":15,"az":303.0,"el":28.0,"ss":42.0,"used":true},{"PRN":14,"gnssid":0,"svid":14,"az":358.0,"el":79.0,"ss":38.0,"used":true},{"PRN":14,"gnssid":0,"svid":14,"sigid":6,"ss":36.0,"used":false},{"PRN":17,"gnssid":0,"svid":17,"az":176.0,"el":50.0,"ss":37.0,"used":true},{"PRN":336,"gnssid":2,"svid":36,"az":51.0,"el":21.0,"ss":28.0,"used":true},{"PRN":327,"gnssid":2,"svid":27,"az":275.0,"el":45.0,"ss":42.0,"used":true},{"PRN":327,"gnssid":2,"svid":27,"sigid":3,"az":275.0,"el":45.0,"ss":36.0,"used":true},{"PRN":7,"gnssid":0,"svid":7,"az":119.0,"el":31.0,"ss":36.0,"used":true},{"PRN":65,"gnssid":6,"svid":1,"az":207.0,"el":5.0,"ss":32.0,"used":true},{"PRN":307,"gnssid":2,"svid":7,"az":222.0,"el":41.0,"ss":27.0,"used":true},{"PRN":307,"gnssid":2,"svid":7,"sigid":3,"az":222.0,"el":41.0,"ss":32.0,"used":true},{"PRN":428,"gnssid":3,"svid":28,"az":87.0,"el":47.0,"ss":30.0,"used":true},{"PRN":428,"gnssid":3,"svid":28,"sigid":3,"az":87.0,"el":47.0,"ss":28.0,"used":true},{"PRN":21,"gnssid":0,"svid":21,"az":58.0,"el":18.0,"ss":23.0,"used":true},{"PRN":19,"gnssid":0,"svid":19,"az":191.0,"el":27.0,"ss":36.0,"used":true},{"PRN":315,"gnssid":2,"svid":15,"az":154.0,"el":8.0,"ss":19.0,"used":true},{"PRN":315,"gnssid":2,"svid":15,"sigid":3,"az":154.0,"el":8.0,"ss":20.0,"used":true},{"PRN":419,"gnssid":3,"svid":19,"az":270.0,"el":22.0,"ss":26.0,"used":true},{"PRN":419,"gnssid":3,"svid":19,"sigid":3,"az":270.0,"el":22.0,"ss":16.0,"used":true},{"PRN":302,"gnssid":2,"svid":2,"az":73.0,"el":21.0,"ss":24.0,"used":true},{"PRN":302,"gnssid":2,"svid":2,"sigid":3,"az":73.0,"el":21.0,"ss":21.0,"used":true},{"PRN":437,"gnssid":3,"svid":37,"az":84.0,"el":59.0,"ss":35.0,"used":true},{"PRN":437,"gnssid":3,"svid":37,"sigid":3,"az":84.0,"el":59.0,"ss":27.0,"used":true},{"PRN":330,"gnssid":2,"svid":30,"az":40.0,"el":69.0,"ss":32.0,"used":true},{"PRN":330,"gnssid":2,"svid":30,"sigid":3,"az":40.0,"el":69.0,"ss":35.0,"used":true},{"PRN":66,"gnssid":6,"svid":2,"az":260.0,"el":34.0,"ss":30.0,"used":true},{"PRN":67,"gnssid":6,"svid":3,"az":320.0,"el":24.0,"ss":38.0,"used":true},{"PRN":427,"gnssid":3,"svid":27,"az":159.0,"el":34.0,"ss":37.0,"used":true},{"PRN":427,"gnssid":3,"svid":27,"sigid":3,"az":159.0,"el":34.0,"ss":35.0,"used":true}]}
$GPGGA,205133.00,4404.1320440,N,12118.8465580,W,1,00,,1139.22,M,-22.154,M,,*7C
$GPRMC,205133.00,A,4404.1320440,N,12118.8465580,W,0.0000,0.000,210222,14.4,E*41
$GPGSA,A,3,8,423,423,30,30,85,86,13,15,14,17,,0.9,,*05
{"class":"TPV","mode":3,"time":"2022-02-21T20:51:33.000Z","leapseconds":18,"ept":0.005,"lat":44.068867400,"lon":-121.314109300,"altHAE":1117.0610,"altMSL":1139.2155,"alt":1139.2155,"epv":9.357,"track":0.0000,"magtrack":14.4184,"magvar":14.4,"speed":0.000,"climb":-0.054,"epc":18.78,"velN":0.000,"velE":0.000,"velD":0.054,"geoidSep":-22.154,"eph":3.844,"sep":16.340}
{"class":"SKY","time":"2022-02-21T20:51:31.000Z","pdop":0.86}
$GPZDA,205133.00,21,02,2022,00,00*63
$GPGGA,205133.00,4404.1320440,N,12118.8465580,W,7,00,0.48,1139.22,M,-22.154,M,,*68
$GPRMC,205133.00,A,4404.1320440,N,12118.8465580,W,0.0000,0.000,210222,14.4,E*41
$GPGSA,A,3,8,423,423,30,30,85,86,13,15,14,17,,0.9,0.5,0.7*07
{"class":"TPV","status":7,"mode":3,"time":"2022-02-21T20:51:33.000Z","leapseconds":18,"ept":0.005,"lat":44.068867400,"lon":-121.314109300,"altHAE":1117.0610,"altMSL":1139.2155,"alt":1139.2155,"epv":9.357,"track":0.0000,"magtrack":14.4184,"magvar":14.4,"speed":0.000,"climb":-0.054,"epc":18.78,"velN":0.000,"velE":0.000,"velD":0.054,"geoidSep":-22.154,"eph":3.844,"sep":16.340}
{"class":"SKY","time":"2022-02-21T20:51:31.000Z","hdop":0.48,"pdop":0.86,"tdop":0.42,"vdop":0.71}
$GPGSV,10,1,40,08,06,039,26,423,10,100,25,423,10,100,22,30,58,116,35*44
$GPGSV,10,2,40,30,58,116,32,85,46,077,36,86,33,141,19,13,53,276,41*4D
$GPGSV,10,3,40,15,28,303,42,14,79,358,37,17,50,176,36,336,21,051,28*7B
$GPGSV,10,4,40,327,45,275,42,327,45,275,36,07,31,119,37,65,05,207,33*40
$GPGSV,10,5,40,307,41,222,27,307,41,222,33,428,47,087,29,428,47,087,28*4D
$GPGSV,10,6,40,21,18,058,23,19,27,191,35,315,08,154,18,315,08,154,20*45
$GPGSV,10,7,40,419,22,270,26,419,22,270,17,302,21,073,23,302,21,073,21*4B
$GPGSV,10,8,40,437,59,084,35,437,59,084,28,330,69,040,32,330,69,040,35*4F
$GPGSV,10,9,40,66,34,260,30,67,24,320,39,427,34,159,37,427,34,159,35*4B
$GPGSV,10,10,40,01,19,091,22,01,19,091,20,420,11,221,29,420,11,221,22*74
{"class":"SKY","time":"2022-02-21T20:51:32.000Z","gdop":0.84,"hdop":0.48,"pdop":0.86,"tdop":0.42,"xdop":0.25,"ydop":0.35,"vdop":0.71,"nSat":41,"uSat":40,"satellites":[{"PRN":8,"gnssid":0,"svid":8,"az":39.0,"el":6.0,"ss":26.0,"used":true},{"PRN":423,"gnssid":3,"svid":23,"az":100.0,"el":10.0,"ss":25.0,"used":true},{"PRN":423,"gnssid":3,"svid":23,"sigid":3,"az":100.0,"el":10.0,"ss":22.0,"used":true},{"PRN":30,"gnssid":0,"svid":30,"az":116.0,"el":58.0,"ss":35.0,"used":true},{"PRN":30,"gnssid":0,"svid":30,"sigid":6,"az":116.0,"el":58.0,"ss":32.0,"used":true},{"PRN":85,"gnssid":6,"svid":21,"az":77.0,"el":46.0,"ss":36.0,"used":true},{"PRN":86,"gnssid":6,"svid":22,"az":141.0,"el":33.0,"ss":19.0,"used":true},{"PRN":13,"gnssid":0,"svid":13,"az":276.0,"el":53.0,"ss":41.0,"used":true},{"PRN":15,"gnssid":0,"svid":15,"az":303.0,"el":28.0,"ss":42.0,"used":true},{"PRN":14,"gnssid":0,"svid":14,"az":358.0,"el":79.0,"ss":37.0,"used":true},{"PRN":14,"gnssid":0,"svid":14,"sigid":6,"ss":37.0,"used":false},{"PRN":17,"gnssid":0,"svid":17,"az":176.0,"el":50.0,"ss":36.0,"used":true},{"PRN":336,"gnssid":2,"svid":36,"az":51.0,"el":21.0,"ss":28.0,"used":true},{"PRN":327,"gnssid":2,"svid":27,"az":275.0,"el":45.0,"ss":42.0,"used":true},{"PRN":327,"gnssid":2,"svid":27,"sigid":3,"az":275.0,"el":45.0,"ss":36.0,"used":true},{"PRN":7,"gnssid":0,"svid":7,"az":119.0,"el":31.0,"ss":37.0,"used":true},{"PRN":65,"gnssid":6,"svid":1,"az":207.0,"el":5.0,"ss":33.0,"used":true},{"PRN":307,"gnssid":2,"svid":7,"az":222.0,"el":41.0,"ss":27.0,"used":true},{"PRN":307,"gnssid":2,"svid":7,"sigid":3,"az":222.0,"el":41.0,"ss":33.0,"used":true},{"PRN":428,"gnssid":3,"svid":28,"az":87.0,"el":47.0,"ss":29.0,"used":true},{"PRN":428,"gnssid":3,"svid":28,"sigid":3,"az":87.0,"el":47.0,"ss":28.0,"used":true},{"PRN":21,"gnssid":0,"svid":21,"az":58.0,"el":18.0,"ss":23.0,"used":true},{"PRN":19,"gnssid":0,"svid":19,"az":191.0,"el":27.0,"ss":35.0,"used":true},{"PRN":315,"gnssid":2,"svid":15,"az":154.0,"el":8.0,"ss":18.0,"used":true},{"PRN":315,"gnssid":2,"svid":15,"sigid":3,"az":154.0,"el":8.0,"ss":20.0,"used":true},{"PRN":419,"gnssid":3,"svid":19,"az":270.0,"el":22.0,"ss":26.0,"used":true},{"PRN":419,"gnssid":3,"svid":19,"sigid":3,"az":270.0,"el":22.0,"ss":17.0,"used":true},{"PRN":302,"gnssid":2,"svid":2,"az":73.0,"el":21.0,"ss":23.0,"used":true},{"PRN":302,"gnssid":2,"svid":2,"sigid":3,"az":73.0,"el":21.0,"ss":21.0,"used":true},{"PRN":437,"gnssid":3,"svid":37,"az":84.0,"el":59.0,"ss":35.0,"used":true},{"PRN":437,"gnssid":3,"svid":37,"sigid":3,"az":84.0,"el":59.0,"ss":28.0,"used":true},{"PRN":330,"gnssid":2,"svid":30,"az":40.0,"el":69.0,"ss":32.0,"used":true},{"PRN":330,"gnssid":2,"svid":30,"sigid":3,"az":40.0,"el":69.0,"ss":35.0,"used":true},{"PRN":66,"gnssid":6,"svid":2,"az":260.0,"el":34.0,"ss":30.0,"used":true},{"PRN":67,"gnssid":6,"svid":3,"az":320.0,"el":24.0,"ss":39.0,"used":true},{"PRN":427,"gnssid":3,"svid":27,"az":159.0,"el":34.0,"ss":37.0,"used":true},{"PRN":427,"gnssid":3,"svid":27,"sigid":3,"az":159.0,"el":34.0,"ss":35.0,"used":true}]}
$GPGGA,205134.00,4404.1320440,N,12118.8465580,W,1,00,,1139.22,M,-22.154,M,,*7B
$GPRMC,205134.00,A,4404.1320440,N,12118.8465580,W,0.0000,0.000,210222,14.4,E*46
$GPGSA,A,3,8,423,423,30,30,85,86,13,15,14,17,,0.9,,*05
{"class":"TPV","mode":3,"time":"2022-02-21T20:51:34.000Z","leapseconds":18,"ept":0.005,"lat":44.068867400,"lon":-121.314109300,"altHAE":1117.0610,"altMSL":1139.2155,"alt":1139.2155,"epv":9.319,"track":0.0000,"magtrack":14.4184,"magvar":14.4,"speed":0.000,"climb":-0.053,"epc":18.68,"velN":0.000,"velE":0.000,"velD":0.053,"geoidSep":-22.154,"eph":3.846,"sep":16.340}
{"class":"SKY","time":"2022-02-21T20:51:32.000Z","pdop":0.86}
$GPZDA,205134.00,21,02,2022,00,00*64
$GPGGA,205134.00,4404.1320440,N,12118.8465580,W,7,00,0.48,1139.22,M,-22.154,M,,*6F
$GPRMC,205134.00,A,4404.1320440,N,12118.8465580,W,0.0000,0.000,210222,14.4,E*46
$GPGSA,A,3,8,423,423,30,30,85,86,13,15,14,17,,0.9,0.5,0.7*07
{"class":"TPV","status":7,"mode":3,"time":"2022-02-21T20:51:34.000Z","leapseconds":18,"ept":0.005,"lat":44.068867400,"lon":-121.314109300,"altHAE":1117.0610,"altMSL":1139.2155,"alt":1139.2155,"epv":9.319,"track":0.0000,"magtrack":14.4184,"magvar":14.4,"speed":0.000,"climb":-0.053,"epc":18.68,"velN":0.000,"velE":0.000,"velD":0.053,"geoidSep":-22.154,"eph":3.846,"sep":16.340}
{"class":"SKY","time":"2022-02-21T20:51:32.000Z","hdop":0.48,"pdop":0.86,"tdop":0.42,"vdop":0.71}
$GPGSV,10,1,40,08,06,039,27,423,10,100,25,423,10,100,23,30,58,116,35*44
$GPGSV,10,2,40,30,58,116,32,85,46,077,36,86,33,141,17,13,53,276,41*43
$GPGSV,10,3,40,15,28,303,42,14,79,358,37,17,50,176,37,336,21,051,27*75
$GPGSV,10,4,40,327,45,275,42,327,45,275,37,07,31,119,36,65,05,207,31*42
$GPGSV,10,5,40,307,41,222,27,307,41,222,33,428,47,087,28,428,47,087,28*4C
$GPGSV,10,6,40,21,18,058,23,19,27,191,35,315,08,154,17,315,08,154,22*48
$GPGSV,10,7,40,419,22,270,26,419,22,270,17,302,21,073,24,302,21,073,22*4F
$GPGSV,10,8,40,437,59,084,35,437,59,084,27,330,69,040,33,330,69,040,36*42
$GPGSV,10,9,40,66,34,260,31,67,24,320,38,427,34,159,37,427,34,159,36*48
$GPGSV,10,10,40,01,19,091,21,01,19,091,20,420,11,221,28,420,11,221,23*77
{"class":"SKY","time":"2022-02-21T20:51:33.000Z","gdop":0.84,"hdop":0.48,"pdop":0.86,"tdop":0.42,"xdop":0.25,"ydop":0.35,"vdop":0.71,"nSat":41,"uSat":40,"satellites":[{"PRN":8,"gnssid":0,"svid":8,"az":39.0,"el":6.0,"ss":27.0,"used":true},{"PRN":423,"gnssid":3,"svid":23,"az":100.0,"el":10.0,"ss":25.0,"used":true},{"PRN":423,"gnssid":3,"svid":23,"sigid":3,"az":100.0,"el":10.0,"ss":23.0,"used":true},{"PRN":30,"gnssid":0,"svid":30,"az":116.0,"el":58.0,"ss":35.0,"used":true},{"PRN":30,"gnssid":0,"svid":30,"sigid":6,"az":116.0,"el":58.0,"ss":32.0,"used":true},{"PRN":85,"gnssid":6,"svid":21,"az":77.0,"el":46.0,"ss":36.0,"used":true},{"PRN":86,"gnssid":6,"svid":22,"az":141.0,"el":33.0,"ss":17.0,"used":true},{"PRN":13,"gnssid":0,"svid":13,"az":276.0,"el":53.0,"ss":41.0,"used":true},{"PRN":15,"gnssid":0,"svid":15,"az":303.0,"el":28.0,"ss":42.0,"used":true},{"PRN":14,"gnssid":0,"svid":14,"az":358.0,"el":79.0,"ss":37.0,"used":true},{"PRN":14,"gnssid":0,"svid":14,"sigid":6,"ss":37.0,"used":false},{"PRN":17,"gnssid":0,"svid":17,"az":176.0,"el":50.0,"ss":37.0,"used":true},{"PRN":336,"gnssid":2,"svid":36,"az":51.0,"el":21.0,"ss":27.0,"used":true},{"PRN":327,"gnssid":2,"svid":27,"az":275.0,"el":45.0,"ss":42.0,"used":true},{"PRN":327,"gnssid":2,"svid":27,"sigid":3,"az":275.0,"el":45.0,"ss":37.0,"used":true},{"PRN":7,"gnssid":0,"svid":7,"az":119.0,"el":31.0,"ss":36.0,"used":true},{"PRN":65,"gnssid":6,"svid":1,"az":207.0,"el":5.0,"ss":31.0,"used":true},{"PRN":307,"gnssid":2,"svid":7,"az":222.0,"el":41.0,"ss":27.0,"used":true},{"PRN":307,"gnssid":2,"svid":7,"sigid":3,"az":222.0,"el":41.0,"ss":33.0,"used":true},{"PRN":428,"gnssid":3,"svid":28,"az":87.0,"el":47.0,"ss":28.0,"used":true},{"PRN":428,"gnssid":3,"svid":28,"sigid":3,"az":87.0,"el":47.0,"ss":28.0,"used":true},{"PRN":21,"gnssid":0,"svid":21,"az":58.0,"el":18.0,"ss":23.0,"used":true},{"PRN":19,"gnssid":0,"svid":19,"az":191.0,"el":27.0,"ss":35.0,"used":true},{"PRN":315,"gnssid":2,"svid":15,"az":154.0,"el":8.0,"ss":17.0,"used":true},{"PRN":315,"gnssid":2,"svid":15,"sigid":3,"az":154.0,"el":8.0,"ss":22.0,"used":true},{"PRN":419,"gnssid":3,"svid":19,"az":270.0,"el":22.0,"ss":26.0,"used":true},{"PRN":419,"gnssid":3,"svid":19,"sigid":3,"az":270.0,"el":22.0,"ss":17.0,"used":true},{"PRN":302,"gnssid":2,"svid":2,"az":73.0,"el":21.0,"ss":24.0,"used":true},{"PRN":302,"gnssid":2,"svid":2,"sigid":3,"az":73.0,"el":21.0,"ss":22.0,"used":true},{"PRN":437,"gnssid":3,"svid":37,"az":84.0,"el":59.0,"ss":35.0,"used":true},{"PRN":437,"gnssid":3,"svid":37,"sigid":3,"az":84.0,"el":59.0,"ss":27.0,"used":true},{"PRN":330,"gnssid":2,"svid":30,"az":40.0,"el":69.0,"ss":33.0,"used":true},{"PRN":330,"gnssid":2,"svid":30,"sigid":3,"az":40.0,"el":69.0,"ss":36.0,"used":true},{"PRN":66,"gnssid":6,"svid":2,"az":260.0,"el":34.0,"ss":31.0,"used":true},{"PRN":67,"gnssid":6,"svid":3,"az":320.0,"el":24.0,"ss":38.0,"used":true},{"PRN":427,"gnssid":3,"svid":27,"az":159.0,"el":34.0,"ss":37.0,"used":true},{"PRN":427,"gnssid":3,"svid":27,"sigid":3,"az":159.0,"el":34.0,"ss":36.0,"used":true}]}
$GPGGA,205135.00,4404.1320440,N,12118.8465580,W,1,00,,1139.22,M,-22.154,M,,*7A
$GPRMC,205135.00,A,4404.1320440,N,12118.8465580,W,0.0000,0.000,210222,14.4,E*47
$GPGSA,A,3,8,423,423,30,30,85,86,13,15,14,17,,0.9,,*05
{"class":"TPV","mode":3,"time":"2022-02-21T20:51:35.000Z","leapseconds":18,"ept":0.005,"lat":44.068867400,"lon":-121.314109300,"altHAE":1117.0610,"altMSL":1139.2155,"alt":1139.2155,"epv":9.459,"track":0.0000,"magtrack":14.4184,"magvar":14.4,"speed":0.000,"climb":-0.053,"epc":18.78,"velN":0.000,"velE":0.000,"velD":0.053,"geoidSep":-22.154,"eph":3.882,"sep":16.340}
{"class":"SKY","time":"2022-02-21T20:51:33.000Z","pdop":0.86}
$GPZDA,205135.00,21,02,2022,00,00*65
$GPGGA,205135.00,4404.1320440,N,12118.8465580,W,7,00,0.48,1139.22,M,-22.154,M,,*6E
$GPRMC,205135.00,A,4404.1320440,N,12118.8465580,W,0.0000,0.000,210222,14.4,E*47
$GPGSA,A,3,8,423,423,30,30,85,86,13,15,14,17,,0.9,0.5,0.7*07
{"class":"TPV","status":7,"mode":3,"time":"2022-02-21T20:51:35.000Z","leapseconds":18,"ept":0.005,"lat":44.068867400,"lon":-121.314109300,"altHAE":1117.0610,"altMSL":1139.2155,"alt":1139.2155,"epv":9.459,"track":0.0000,"magtrack":14.4184,"magvar":14.4,"speed":0.000,"climb":-0.053,"epc":18.78,"velN":0.000,"velE":0.000,"velD":0.053,"geoidSep":-22.154,"eph":3.882,"sep":16.340}
{"class":"SKY","time":"2022-02-21T20:51:33.000Z","hdop":0.48,"pdop":0.86,"tdop":0.42,"vdop":0.71}
$GPGSV,10,1,40,08,06,039,27,423,10,100,26,423,10,100,21,30,58,116,34*44
$GPGSV,10,2,40,30,58,116,31,85,46,077,37,86,33,141,18,13,53,276,41*4E
$GPGSV,10,3,40,15,28,303,42,14,79,358,37,17,50,176,37,336,21,051,28*7A
$GPGSV,10,4,40,327,45,275,42,327,45,275,36,07,31,119,36,65,05,207,33*41
$GPGSV,10,5,40,307,41,222,27,307,41,222,32,428,47,087,29,428,47,087,28*4C
$GPGSV,10,6,40,21,18,058,23,19,27,191,35,315,08,154,18,315,08,154,22*47
$GPGSV,10,7,40,419,22,270,26,419,22,270,17,302,21,073,24,302,21,073,23*4E
$GPGSV,10,8,40,437,59,084,35,437,59,084,27,330,69,040,33,330,69,040,35*41
$GPGSV,10,9,40,66,34,260,31,67,24,320,37,427,34,159,37,427,34,159,34*45
$GPGSV,10,10,40,01,19,091,22,01,19,091,20,420,11,221,27,420,11,221,22*7A
{"class":"SKY","time":"2022-02-21T20:51:34.000Z","gdop":0.84,"hdop":0.48,"pdop":0.86,"tdop":0.42,"xdop":0.25,"ydop":0.35,"vdop":0.71,"nSat":41,"uSat":40,"satellites":[{"PRN":8,"gnssid":0,"svid":8,"az":39.0,"el":6.0,"ss":27.0,"used":true},{"PRN":423,"gnssid":3,"svid":23,"az":100.0,"el":10.0,"ss":26.0,"used":true},{"PRN":423,"gnssid":3,"svid":23,"sigid":3,"az":100.0,"el":10.0,"ss":21.0,"used":true},{"PRN":30,"gnssid":0,"svid":30,"az":116.0,"el":58.0,"ss":34.0,"used":true},{"PRN":30,"gnssid":0,"svid":30,"sigid":6,"az":116.0,"el":58.0,"ss":31.0,"used":true},{"PRN":85,"gnssid":6,"svid":21,"az":77.0,"el":46.0,"ss":37.0,"used":true},{"PRN":86,"gnssid":6,"svid":22,"az":141.0,"el":33.0,"ss":18.0,"used":true},{"PRN":13,"gnssid":0,"svid":13,"az":276.0,"el":53.0,"ss":41.0,"used":true},{"PRN":15,"gnssid":0,"svid":15,"az":303.0,"el":28.0,"ss":42.0,"used":true},{"PRN":14,"gnssid":0,"svid":14,"az":358.0,"el":79.0,"ss":37.0,"used":true},{"PRN":14,"gnssid":0,"svid":14,"sigid":6,"ss":37.0,"used":false},{"PRN":17,"gnssid":0,"svid":17,"az":176.0,"el":50.0,"ss":37.0,"used":true},{"PRN":336,"gnssid":2,"svid":36,"az":51.0,"el":21.0,"ss":28.0,"used":true},{"PRN":327,"gnssid":2,"svid":27,"az":275.0,"el":45.0,"ss":42.0,"used":true},{"PRN":327,"gnssid":2,"svid":27,"sigid":3,"az":275.0,"el":45.0,"ss":36.0,"used":true},{"PRN":7,"gnssid":0,"svid":7,"az":119.0,"el":31.0,"ss":36.0,"used":true},{"PRN":65,"gnssid":6,"svid":1,"az":207.0,"el":5.0,"ss":33.0,"used":true},{"PRN":307,"gnssid":2,"svid":7,"az":222.0,"el":41.0,"ss":27.0,"used":true},{"PRN":307,"gnssid":2,"svid":7,"sigid":3,"az":222.0,"el":41.0,"ss":32.0,"used":true},{"PRN":428,"gnssid":3,"svid":28,"az":87.0,"el":47.0,"ss":29.0,"used":true},{"PRN":428,"gnssid":3,"svid":28,"sigid":3,"az":87.0,"el":47.0,"ss":28.0,"used":true},{"PRN":21,"gnssid":0,"svid":21,"az":58.0,"el":18.0,"ss":23.0,"used":true},{"PRN":19,"gnssid":0,"svid":19,"az":191.0,"el":27.0,"ss":35.0,"used":true},{"PRN":315,"gnssid":2,"svid":15,"az":154.0,"el":8.0,"ss":18.0,"used":true},{"PRN":315,"gnssid":2,"svid":15,"sigid":3,"az":154.0,"el":8.0,"ss":22.0,"used":true},{"PRN":419,"gnssid":3,"svid":19,"az":270.0,"el":22.0,"ss":26.0,"used":true},{"PRN":419,"gnssid":3,"svid":19,"sigid":3,"az":270.0,"el":22.0,"ss":17.0,"used":true},{"PRN":302,"gnssid":2,"svid":2,"az":73.0,"el":21.0,"ss":24.0,"used":true},{"PRN":302,"gnssid":2,"svid":2,"sigid":3,"az":73.0,"el":21.0,"ss":23.0,"used":true},{"PRN":437,"gnssid":3,"svid":37,"az":84.0,"el":59.0,"ss":35.0,"used":true},{"PRN":437,"gnssid":3,"svid":37,"sigid":3,"az":84.0,"el":59.0,"ss":27.0,"used":true},{"PRN":330,"gnssid":2,"svid":30,"az":40.0,"el":69.0,"ss":33.0,"used":true},{"PRN":330,"gnssid":2,"svid":30,"sigid":3,"az":40.0,"el":69.0,"ss":35.0,"used":true},{"PRN":66,"gnssid":6,"svid":2,"az":260.0,"el":34.0,"ss":31.0,"used":true},{"PRN":67,"gnssid":6,"svid":3,"az":320.0,"el":24.0,"ss":37.0,"used":true},{"PRN":427,"gnssid":3,"svid":27,"az":159.0,"el":34.0,"ss":37.0,"used":true},{"PRN":427,"gnssid":3,"svid":27,"sigid":3,"az":159.0,"el":34.0,"ss":34.0,"used":true}]}
$GPGGA,205136.00,4404.1320440,N,12118.8465580,W,1,00,,1139.22,M,-22.154,M,,*79
$GPRMC,205136.00,A,4404.1320440,N,12118.8465580,W,0.0000,0.000,210222,14.4,E*44
$GPGSA,A,3,8,423,423,30,30,85,86,13,15,14,17,,0.9,,*05
{"class":"TPV","mode":3,"time":"2022-02-21T20:51:36.000Z","leapseconds":18,"ept":0.005,"lat":44.068867400,"lon":-121.314109300,"altHAE":1117.0610,"altMSL":1139.2155,"alt":1139.2155,"epv":9.343,"track":0.0000,"magtrack":14.4184,"magvar":14.4,"speed":0.000,"climb":-0.052,"epc":18.80,"velN":0.000,"velE":0.000,"velD":0.052,"geoidSep":-22.154,"eph":3.853,"sep":16.340}
{"class":"SKY","time":"2022-02-21T20:51:34.000Z","pdop":0.86}
$GPZDA,205136.00,21,02,2022,00,00*66
$GPGGA,205136.00,4404.1320440,N,12118.8465580,W,7,00,0.48,1139.22,M,-22.154,M,,*6D
$GPRMC,205136.00,A,4404.1320440,N,12118.8465580,W,0.0000,0.000,210222,14.4,E*44
$GPGSA,A,3,8,423,423,30,30,85,86,13,15,14,17,,0.9,0.5,0.7*07
{"class":"TPV","status":7,"mode":3,"time":"2022-02-21T20:51:36.000Z","leapseconds":18,"ept":0.005,"lat":44.068867400,"lon":-121.314109300,"altHAE":1117.0610,"altMSL":1139.2155,"alt":1139.2155,"epv":9.343,"track":0.0000,"magtrack":14.4184,"magvar":14.4,"speed":0.000,"climb":-0.052,"epc":18.80,"velN":0.000,"velE":0.000,"velD":0.052,"geoidSep":-22.154,"eph":3.853,"sep":16.340}
{"class":"SKY","time":"2022-02-21T20:51:34.000Z","hdop":0.48,"pdop":0.86,"tdop":0.42,"vdop":0.71}
$GPGSV,10,1,40,08,06,039,27,423,10,100,25,423,10,100,21,30,58,116,34*47
$GPGSV,10,2,40,30,58,116,31,85,46,077,37,86,33,141,20,13,53,276,41*45
$GPGSV,10,3,40,15,28,303,42,14,79,358,37,17,50,176,37,336,21,051,26*74
$GPGSV,10,4,40,327,45,275,42,327,45,275,36,07,31,119,36,65,05,207,32*40
$GPGSV,10,5,40,307,41,222,27,307,41,222,33,428,47,087,29,428,47,087,28*4D
$GPGSV,10,6,40,21,18,058,23,19,27,191,36,315,08,154,17,315,08,154,21*48
$GPGSV,10,7,40,419,21,268,26,419,21,268,17,302,21,073,23,302,21,073,23*49
$GPGSV,10,8,40,437,59,084,35,437,59,084,25,330,69,040,33,330,69,040,36*40
$GPGSV,10,9,40,66,34,260,29,67,24,320,38,427,34,159,37,427,34,159,34*43
$GPGSV,10,10,40,01,19,091,22,01,19,091,20,420,11,221,28,420,11,221,23*74
{"class":"SKY","time":"2022-02-21T20:51:35.000Z","gdop":0.84,"hdop":0.48,"pdop":0.86,"tdop":0.42,"xdop":0.25,"ydop":0.35,"vdop":0.71,"nSat":41,"uSat":40,"satellites":[{"PRN":8,"gnssid":0,"svid":8,"az":39.0,"el":6.0,"ss":27.0,"used":true},{"PRN":423,"gnssid":3,"svid":23,"az":100.0,"el":10.0,"ss":25.0,"used":true},{"PRN":423,"gnssid":3,"svid":23,"sigid":3,"az":100.0,"el":10.0,"ss":21.0,"used":true},{"PRN":30,"gnssid":0,"svid":30,"az":116.0,"el":58.0,"ss":34.0,"used":true},{"PRN":30,"gnssid":0,"svid":30,"sigid":6,"az":116.0,"el":58.0,"ss":31.0,"used":true},{"PRN":85,"gnssid":6,"svid":21,"az":77.0,"el":46.0,"ss":37.0,"used":true},{"PRN":86,"gnssid":6,"svid":22,"az":141.0,"el":33.0,"ss":20.0,"used":true},{"PRN":13,"gnssid":0,"svid":13,"az":276.0,"el":53.0,"ss":41.0,"used":true},{"PRN":15,"gnssid":0,"svid":15,"az":303.0,"el":28.0,"ss":42.0,"used":true},{"PRN":14,"gnssid":0,"svid":14,"az":358.0,"el":79.0,"ss":37.0,"used":true},{"PRN":14,"gnssid":0,"svid":14,"sigid":6,"ss":37.0,"used":false},{"PRN":17,"gnssid":0,"svid":17,"az":176.0,"el":50.0,"ss":37.0,"used":true},{"PRN":336,"gnssid":2,"svid":36,"az":51.0,"el":21.0,"ss":26.0,"used":true},{"PRN":327,"gnssid":2,"svid":27,"az":275.0,"el":45.0,"ss":42.0,"used":true},{"PRN":327,"gnssid":2,"svid":27,"sigid":3,"az":275.0,"el":45.0,"ss":36.0,"used":true},{"PRN":7,"gnssid":0,"svid":7,"az":119.0,"el":31.0,"ss":36.0,"used":true},{"PRN":65,"gnssid":6,"svid":1,"az":207.0,"el":5.0,"ss":32.0,"used":true},{"PRN":307,"gnssid":2,"svid":7,"az":222.0,"el":41.0,"ss":27.0,"used":true},{"PRN":307,"gnssid":2,"svid":7,"sigid":3,"az":222.0,"el":41.0,"ss":33.0,"used":true},{"PRN":428,"gnssid":3,"svid":28,"az":87.0,"el":47.0,"ss":29.0,"used":true},{"PRN":428,"gnssid":3,"svid":28,"sigid":3,"az":87.0,"el":47.0,"ss":28.0,"used":true},{"PRN":21,"gnssid":0,"svid":21,"az":58.0,"el":18.0,"ss":23.0,"used":true},{"PRN":19,"gnssid":0,"svid":19,"az":191.0,"el":27.0,"ss":36.0,"used":true},{"PRN":315,"gnssid":2,"svid":15,"az":154.0,"el":8.0,"ss":17.0,"used":true},{"PRN":315,"gnssid":2,"svid":15,"sigid":3,"az":154.0,"el":8.0,"ss":21.0,"used":true},{"PRN":419,"gnssid":3,"svid":19,"az":268.0,"el":21.0,"ss":26.0,"used":true},{"PRN":419,"gnssid":3,"svid":19,"sigid":3,"az":268.0,"el":21.0,"ss":17.0,"used":true},{"PRN":302,"gnssid":2,"svid":2,"az":73.0,"el":21.0,"ss":23.0,"used":true},{"PRN":302,"gnssid":2,"svid":2,"sigid":3,"az":73.0,"el":21.0,"ss":23.0,"used":true},{"PRN":437,"gnssid":3,"svid":37,"az":84.0,"el":59.0,"ss":35.0,"used":true},{"PRN":437,"gnssid":3,"svid":37,"sigid":3,"az":84.0,"el":59.0,"ss":25.0,"used":true},{"PRN":330,"gnssid":2,"svid":30,"az":40.0,"el":69.0,"ss":33.0,"used":true},{"PRN":330,"gnssid":2,"svid":30,"sigid":3,"az":40.0,"el":69.0,"ss":36.0,"used":true},{"PRN":66,"gnssid":6,"svid":2,"az":260.0,"el":34.0,"ss":29.0,"used":true},{"PRN":67,"gnssid":6,"svid":3,"az":320.0,"el":24.0,"ss":38.0,"used":true},{"PRN":427,"gnssid":3,"svid":27,"az":159.0,"el":34.0,"ss":37.0,"used":true},{"PRN":427,"gnssid":3,"svid":27,"sigid":3,"az":159.0,"el":34.0,"ss":34.0,"used":true}]}
$GPGGA,205137.00,4404.1320440,N,12118.8465580,W,1,00,,1139.22,M,-22.154,M,,*78
$GPRMC,205137.00,A,4404.1320440,N,12118.8465580,W,0.0000,0.000,210222,14.4,E*45
$GPGSA,A,3,8,423,423,30,30,85,86,13,15,14,17,,0.9,,*05
{"class":"TPV","mode":3,"time":"2022-02-21T20:51:37.000Z","leapseconds":18,"ept":0.005,"lat":44.068867400,"lon":-121.314109300,"altHAE":1117.0610,"altMSL":1139.2155,"alt":1139.2155,"epv":9.385,"track":0.0000,"magtrack":14.4184,"magvar":14.4,"speed":0.000,"climb":-0.051,"epc":18.73,"velN":0.000,"velE":0.000,"velD":0.051,"geoidSep":-22.154,"eph":3.858,"sep":16.340}
{"class":"SKY","time":"2022-02-21T20:51:35.000Z","pdop":0.86}
$GPZDA,205137.00,21,02,2022,00,00*67
$GPGGA,205137.00,4404.1320440,N,12118.8465580,W,7,00,0.48,1139.22,M,-22.154,M,,*6C
$GPRMC,205137.00,A,4404.1320440,N,12118.8465580,W,0.0000,0.000,210222,14.4,E*45
$GPGSA,A,3,8,423,423,30,30,85,86,13,15,14,17,,0.9,0.5,0.7*07
{"class":"TPV","status":7,"mode":3,"time":"2022-02-21T20:51:37.000Z","leapseconds":18,"ept":0.005,"lat":44.068867400,"lon":-121.314109300,"altHAE":1117.0610,"altMSL":1139.2155,"alt":1139.2155,"epv":9.385,"track":0.0000,"magtrack":14.4184,"magvar":14.4,"speed":0.000,"climb":-0.051,"epc":18.73,"velN":0.000,"velE":0.000,"velD":0.051,"geoidSep":-22.154,"eph":3.858,"sep":16.340}
{"class":"SKY","time":"2022-02-21T20:51:35.000Z","hdop":0.48,"pdop":0.86,"tdop":0.42,"vdop":0.71}
$GPGSV,10,1,40,08,06,039,27,423,10,100,26,423,10,100,20,30,58,116,34*45
$GPGSV,10,2,40,30,58,116,31,85,46,077,35,86,33,141,20,13,53,276,41*47
$GPGSV,10,3,40,15,28,303,43,14,79,358,37,17,50,176,37,336,21,051,27*74
$GPGSV,10,4,40,327,45,275,42,327,45,275,36,07,31,119,35,65,05,207,32*43
$GPGSV,10,5,40,307,41,222,27,307,41,222,33,428,47,087,29,428,47,087,28*4D
$GPGSV,10,6,40,21,18,058,23,19,27,191,36,315,08,154,17,315,08,154,22*4B
$GPGSV,10,7,40,419,21,268,26,419,21,268,17,302,21,073,25,302,21,073,23*4F
$GPGSV,10,8,40,437,59,084,35,437,59,084,27,330,69,040,33,330,69,040,35*41
$GPGSV,10,9,40,66,34,260,30,67,24,320,38,427,34,159,37,427,34,159,34*4B
$GPGSV,10,10,40,01,19,091,23,01,19,091,21,420,10,221,29,420,10,221,22*74
{"class":"SKY","time":"2022-02-21T20:51:36.000Z","gdop":0.84,"hdop":0.48,"pdop":0.86,"tdop":0.42,"xdop":0.25,"ydop":0.35,"vdop":0.71,"nSat":41,"uSat":40,"satellites":[{"PRN":8,"gnssid":0,"svid":8,"az":39.0,"el":6.0,"ss":27.0,"used":true},{"PRN":423,"gnssid":3,"svid":23,"az":100.0,"el":10.0,"ss":26.0,"used":true},{"PRN":423,"gnssid":3,"svid":23,"sigid":3,"az":100.0,"el":10.0,"ss":20.0,"used":true},{"PRN":30,"gnssid":0,"svid":30,"az":116.0,"el":58.0,"ss":34.0,"used":true},{"PRN":30,"gnssid":0,"svid":30,"sigid":6,"az":116.0,"el":58.0,"ss":31.0,"used":true},{"PRN":85,"gnssid":6,"svid":21,"az":77.0,"el":46.0,"ss":35.0,"used":true},{"PRN":86,"gnssid":6,"svid":22,"az":141.0,"el":33.0,"ss":20.0,"used":true},{"PRN":13,"gnssid":0,"svid":13,"az":276.0,"el":53.0,"ss":41.0,"used":true},{"PRN":15,"gnssid":0,"svid":15,"az":303.0,"el":28.0,"ss":43.0,"used":true},{"PRN":14,"gnssid":0,"svid":14,"az":358.0,"el":79.0,"ss":37.0,"used":true},{"PRN":14,"gnssid":0,"svid":14,"sigid":6,"ss":37.0,"used":false},{"PRN":17,"gnssid":0,"svid":17,"az":176.0,"el":50.0,"ss":37.0,"used":true},{"PRN":336,"gnssid":2,"svid":36,"az":51.0,"el":21.0,"ss":27.0,"used":true},{"PRN":327,"gnssid":2,"svid":27,"az":275.0,"el":45.0,"ss":42.0,"used":true},{"PRN":327,"gnssid":2,"svid":27,"sigid":3,"az":275.0,"el":45.0,"ss":36.0,"used":true},{"PRN":7,"gnssid":0,"svid":7,"az":119.0,"el":31.0,"ss":35.0,"used":true},{"PRN":65,"gnssid":6,"svid":1,"az":207.0,"el":5.0,"ss":32.0,"used":true},{"PRN":307,"gnssid":2,"svid":7,"az":222.0,"el":41.0,"ss":27.0,"used":true},{"PRN":307,"gnssid":2,"svid":7,"sigid":3,"az":222.0,"el":41.0,"ss":33.0,"used":true},{"PRN":428,"gnssid":3,"svid":28,"az":87.0,"el":47.0,"ss":29.0,"used":true},{"PRN":428,"gnssid":3,"svid":28,"sigid":3,"az":87.0,"el":47.0,"ss":28.0,"used":true},{"PRN":21,"gnssid":0,"svid":21,"az":58.0,"el":18.0,"ss":23.0,"used":true},{"PRN":19,"gnssid":0,"svid":19,"az":191.0,"el":27.0,"ss":36.0,"used":true},{"PRN":315,"gnssid":2,"svid":15,"az":154.0,"el":8.0,"ss":17.0,"used":true},{"PRN":315,"gnssid":2,"svid":15,"sigid":3,"az":154.0,"el":8.0,"ss":22.0,"used":true},{"PRN":419,"gnssid":3,"svid":19,"az":268.0,"el":21.0,"ss":26.0,"used":true},{"PRN":419,"gnssid":3,"svid":19,"sigid":3,"az":268.0,"el":21.0,"ss":17.0,"used":true},{"PRN":302,"gnssid":2,"svid":2,"az":73.0,"el":21.0,"ss":25.0,"used":true},{"PRN":302,"gnssid":2,"svid":2,"sigid":3,"az":73.0,"el":21.0,"ss":23.0,"used":true},{"PRN":437,"gnssid":3,"svid":37,"az":84.0,"el":59.0,"ss":35.0,"used":true},{"PRN":437,"gnssid":3,"svid":37,"sigid":3,"az":84.0,"el":59.0,"ss":27.0,"used":true},{"PRN":330,"gnssid":2,"svid":30,"az":40.0,"el":69.0,"ss":33.0,"used":true},{"PRN":330,"gnssid":2,"svid":30,"sigid":3,"az":40.0,"el":69.0,"ss":35.0,"used":true},{"PRN":66,"gnssid":6,"svid":2,"az":260.0,"el":34.0,"ss":30.0,"used":true},{"PRN":67,"gnssid":6,"svid":3,"az":320.0,"el":24.0,"ss":38.0,"used":true},{"PRN":427,"gnssid":3,"svid":27,"az":159.0,"el":34.0,"ss":37.0,"used":true},{"PRN":427,"gnssid":3,"svid":27,"sigid":3,"az":159.0,"el":34.0,"ss":34.0,"used":true}]}
$GPGGA,205138.00,4404.1320440,N,12118.8465580,W,1,00,,1139.22,M,-22.154,M,,*77
$GPRMC,205138.00,A,4404.1320440,N,12118.8465580,W,0.0000,0.000,210222,14.4,E*4A
$GPGSA,A,3,8,423,423,30,30,85,86,13,15,14,17,,0.9,,*05
{"class":"TPV","mode":3,"time":"2022-02-21T20:51:38.000Z","leapseconds":18,"ept":0.005,"lat":44.068867400,"lon":-121.314109300,"altHAE":1117.0610,"altMSL":1139.2155,"alt":1139.2155,"epv":9.387,"track":0.0000,"magtrack":14.4184,"magvar":14.4,"speed":0.000,"climb":-0.050,"epc":18.77,"velN":0.000,"velE":0.000,"velD":0.050,"geoidSep":-22.154,"eph":3.842,"sep":16.340}
{"class":"SKY","time":"2022-02-21T20:51:36.000Z","pdop":0.86}
$GPZDA,205138.00,21,02,2022,00,00*68
$GPGGA,205138.00,4404.1320440,N,12118.8465580,W,7,00,0.48,1139.22,M,-22.154,M,,*63
$GPRMC,205138.00,A,4404.1320440,N,12118.8465580,W,0.0000,0.000,210222,14.4,E*4A
$GPGSA,A,3,8,423,423,30,30,85,86,13,15,14,17,,0.9,0.5,0.7*07
{"class":"TPV","status":7,"mode":3,"time":"2022-02-21T20:51:38.000Z","leapseconds":18,"ept":0.005,"lat":44.068867400,"lon":-121.314109300,"altHAE":1117.0610,"altMSL":1139.2155,"alt":1139.2155,"epv":9.387,"track":0.0000,"magtrack":14.4184,"magvar":14.4,"speed":0.000,"climb":-0.050,"epc":18.77,"velN":0.000,"velE":0.000,"velD":0.050,"geoidSep":-22.154,"eph":3.842,"sep":16.340}
{"class":"SKY","time":"2022-02-21T20:51:36.000Z","hdop":0.48,"pdop":0.86,"tdop":0.42,"vdop":0.71}
$GPGSV,10,1,40,08,06,039,27,423,10,100,26,423,10,100,21,30,58,116,34*44
$GPGSV,10,2,40,30,58,116,31,85,46,077,36,86,33,141,20,13,53,276,41*44
$GPGSV,10,3,40,15,28,303,42,14,79,358,38,17,50,176,37,336,21,051,29*74
$GPGSV,10,4,40,327,45,275,41,327,45,275,35,07,31,119,36,65,05,207,33*41
$GPGSV,10,5,40,307,41,222,27,307,41,222,33,428,47,087,30,428,47,087,27*4A
$GPGSV,10,6,40,21,18,058,24,19,27,191,35,315,08,154,16,315,08,154,21*4D
