$GPGGA,223517.00,4404.1294522,N,12118.8579604,W,7,00,,1138.98,M,-22.155,M,,*75
$GPRMC,223517.00,A,4404.1294522,N,12118.8579604,W,,,050324,14.4,E*7E
$GPGSA,A,3,,,,,,,,,,,,,,,*1C
{"class":"TPV","status":7,"mode":3,"time":"2024-03-05T22:35:17.000Z","leapseconds":18,"ept":0.005,"lat":44.068824204,"lon":-121.314299340,"altHAE":1116.8286,"altMSL":1138.9834,"alt":1138.9834,"magvar":14.4,"geoidSep":-22.155,"clockbias":-210,"temp":32.226}
$GPGGA,223516.00,,S,,W,7,12,,,M,,M,,*49
$GPRMC,223516.00,A,,S,,W,,,050324,,*0D
$GPGSA,A,3,,,,,,,,,,,,,,,*1C
{"class":"TPV","status":7,"mode":3,"time":"2024-03-05T22:35:16.000Z","leapseconds":18,"ept":0.005}
{"class":"SKY","tdop":1.00}
$GPGSV,1,1,01,25,38,307,42*46
{"class":"SKY","time":"2024-03-05T22:35:16.000Z","tdop":1.00,"nSat":1,"uSat":1,"satellites":[{"PRN":25,"gnssid":0,"svid":25,"az":307.0,"el":38.0,"ss":42.0,"used":true,"health":1}]}
$GPGSV,1,1,02,25,38,307,42,24,28,210,25*7D
{"class":"SKY","time":"2024-03-05T22:35:16.000Z","tdop":1.00,"nSat":2,"uSat":2,"satellites":[{"PRN":25,"gnssid":0,"svid":25,"az":307.0,"el":38.0,"ss":42.0,"used":true,"health":1},{"PRN":24,"gnssid":0,"svid":24,"az":210.0,"el":28.0,"ss":25.0,"used":true,"health":1}]}
$GPGSV,1,1,03,25,38,307,42,24,28,210,25,11,72,137,36*49
{"class":"SKY","time":"2024-03-05T22:35:16.000Z","tdop":1.00,"nSat":3,"uSat":3,"satellites":[{"PRN":25,"gnssid":0,"svid":25,"az":307.0,"el":38.0,"ss":42.0,"used":true,"health":1},{"PRN":24,"gnssid":0,"svid":24,"az":210.0,"el":28.0,"ss":25.0,"used":true,"health":1},{"PRN":11,"gnssid":0,"svid":11,"az":137.0,"el":72.0,"ss":36.0,"used":true,"health":1}]}
$GPGSV,1,1,04,25,38,307,42,24,28,210,25,11,72,137,36,12,72,311,43*7C
{"class":"SKY","time":"2024-03-05T22:35:16.000Z","gdop":11.69,"hdop":5.39,"pdop":9.29,"tdop":1.00,"xdop":4.88,"ydop":2.28,"vdop":7.56,"nSat":4,"uSat":4,"satellites":[{"PRN":25,"gnssid":0,"svid":25,"az":307.0,"el":38.0,"ss":42.0,"used":true,"health":1},{"PRN":24,"gnssid":0,"svid":24,"az":210.0,"el":28.0,"ss":25.0,"used":true,"health":1},{"PRN":11,"gnssid":0,"svid":11,"az":137.0,"el":72.0,"ss":36.0,"used":true,"health":1},{"PRN":12,"gnssid":0,"svid":12,"az":311.0,"el":72.0,"ss":43.0,"used":true,"health":1}]}
$GPGSV,2,1,05,25,38,307,42,24,28,210,25,11,72,137,36,12,72,311,43*7E
$GPGSV,2,2,05,06,51,056,35*4B
{"class":"SKY","time":"2024-03-05T22:35:16.000Z","gdop":11.69,"hdop":5.39,"pdop":9.29,"tdop":1.00,"xdop":4.88,"ydop":2.28,"vdop":7.56,"nSat":5,"uSat":5,"satellites":[{"PRN":25,"gnssid":0,"svid":25,"az":307.0,"el":38.0,"ss":42.0,"used":true,"health":1},{"PRN":24,"gnssid":0,"svid":24,"az":210.0,"el":28.0,"ss":25.0,"used":true,"health":1},{"PRN":11,"gnssid":0,"svid":11,"az":137.0,"el":72.0,"ss":36.0,"used":true,"health":1},{"PRN":12,"gnssid":0,"svid":12,"az":311.0,"el":72.0,"ss":43.0,"used":true,"health":1},{"PRN":6,"gnssid":0,"svid":6,"az":56.0,"el":51.0,"ss":35.0,"used":true,"health":1}]}
$GPGSV,2,1,06,25,38,307,42,24,28,210,25,11,72,137,36,12,72,311,43*7D
$GPGSV,2,2,06,06,51,056,35,19,24,068,31*7A
{"class":"SKY","time":"2024-03-05T22:35:16.000Z","gdop":11.69,"hdop":5.39,"pdop":9.29,"tdop":1.00,"xdop":4.88,"ydop":2.28,"vdop":7.56,"nSat":6,"uSat":6,"satellites":[{"PRN":25,"gnssid":0,"svid":25,"az":307.0,"el":38.0,"ss":42.0,"used":true,"health":1},{"PRN":24,"gnssid":0,"svid":24,"az":210.0,"el":28.0,"ss":25.0,"used":true,"health":1},{"PRN":11,"gnssid":0,"svid":11,"az":137.0,"el":72.0,"ss":36.0,"used":true,"health":1},{"PRN":12,"gnssid":0,"svid":12,"az":311.0,"el":72.0,"ss":43.0,"used":true,"health":1},{"PRN":6,"gnssid":0,"svid":6,"az":56.0,"el":51.0,"ss":35.0,"used":true,"health":1},{"PRN":19,"gnssid":0,"svid":19,"az":68.0,"el":24.0,"ss":31.0,"used":true,"health":1}]}
$GPGSV,2,1,07,25,38,307,42,24,28,210,25,11,72,137,36,12,72,311,43*7C
$GPGSV,2,2,07,06,51,056,35,19,24,068,31,20,22,145,34*4E
{"class":"SKY","time":"2024-03-05T22:35:16.000Z","gdop":11.69,"hdop":5.39,"pdop":9.29,"tdop":1.00,"xdop":4.88,"ydop":2.28,"vdop":7.56,"nSat":7,"uSat":7,"satellites":[{"PRN":25,"gnssid":0,"svid":25,"az":307.0,"el":38.0,"ss":42.0,"used":true,"health":1},{"PRN":24,"gnssid":0,"svid":24,"az":210.0,"el":28.0,"ss":25.0,"used":true,"health":1},{"PRN":11,"gnssid":0,"svid":11,"az":137.0,"el":72.0,"ss":36.0,"used":true,"health":1},{"PRN":12,"gnssid":0,"svid":12,"az":311.0,"el":72.0,"ss":43.0,"used":true,"health":1},{"PRN":6,"gnssid":0,"svid":6,"az":56.0,"el":51.0,"ss":35.0,"used":true,"health":1},{"PRN":19,"gnssid":0,"svid":19,"az":68.0,"el":24.0,"ss":31.0,"used":true,"health":1},{"PRN":20,"gnssid":0,"svid":20,"az":145.0,"el":22.0,"ss":34.0,"used":true,"health":1}]}
$GPGSV,2,1,08,25,38,307,42,24,28,210,25,11,72,137,36,12,72,311,43*73
$GPGSV,2,2,08,06,51,056,35,19,24,068,31,20,22,145,34,78,42,156,34*7D
{"class":"SKY","time":"2024-03-05T22:35:16.000Z","gdop":11.69,"hdop":5.39,"pdop":9.29,"tdop":1.00,"xdop":4.88,"ydop":2.28,"vdop":7.56,"nSat":8,"uSat":8,"satellites":[{"PRN":25,"gnssid":0,"svid":25,"az":307.0,"el":38.0,"ss":42.0,"used":true,"health":1},{"PRN":24,"gnssid":0,"svid":24,"az":210.0,"el":28.0,"ss":25.0,"used":true,"health":1},{"PRN":11,"gnssid":0,"svid":11,"az":137.0,"el":72.0,"ss":36.0,"used":true,"health":1},{"PRN":12,"gnssid":0,"svid":12,"az":311.0,"el":72.0,"ss":43.0,"used":true,"health":1},{"PRN":6,"gnssid":0,"svid":6,"az":56.0,"el":51.0,"ss":35.0,"used":true,"health":1},{"PRN":19,"gnssid":0,"svid":19,"az":68.0,"el":24.0,"ss":31.0,"used":true,"health":1},{"PRN":20,"gnssid":0,"svid":20,"az":145.0,"el":22.0,"ss":34.0,"used":true,"health":1},{"PRN":78,"gnssid":6,"svid":14,"az":156.0,"el":42.0,"ss":34.0,"used":true,"health":1}]}
$GPGSV,3,1,09,25,38,307,42,24,28,210,25,11,72,137,36,12,72,311,43*73
$GPGSV,3,2,09,06,51,056,35,19,24,068,31,20,22,145,34,78,42,156,34*7D
$GPGSV,3,3,09,80,24,325,45*4B
{"class":"SKY","time":"2024-03-05T22:35:16.000Z","gdop":11.69,"hdop":5.39,"pdop":9.29,"tdop":1.00,"xdop":4.88,"ydop":2.28,"vdop":7.56,"nSat":9,"uSat":9,"satellites":[{"PRN":25,"gnssid":0,"svid":25,"az":307.0,"el":38.0,"ss":42.0,"used":true,"health":1},{"PRN":24,"gnssid":0,"svid":24,"az":210.0,"el":28.0,"ss":25.0,"used":true,"health":1},{"PRN":11,"gnssid":0,"svid":11,"az":137.0,"el":72.0,"ss":36.0,"used":true,"health":1},{"PRN":12,"gnssid":0,"svid":12,"az":311.0,"el":72.0,"ss":43.0,"used":true,"health":1},{"PRN":6,"gnssid":0,"svid":6,"az":56.0,"el":51.0,"ss":35.0,"used":true,"health":1},{"PRN":19,"gnssid":0,"svid":19,"az":68.0,"el":24.0,"ss":31.0,"used":true,"health":1},{"PRN":20,"gnssid":0,"svid":20,"az":145.0,"el":22.0,"ss":34.0,"used":true,"health":1},{"PRN":78,"gnssid":6,"svid":14,"az":156.0,"el":42.0,"ss":34.0,"used":true,"health":1},{"PRN":80,"gnssid":6,"svid":16,"az":325.0,"el":24.0,"ss":45.0,"used":true,"health":1}]}
$GPGSV,3,1,10,25,38,307,42,24,28,210,25,11,72,137,36,12,72,311,43*7B
$GPGSV,3,2,10,06,51,056,35,19,24,068,31,20,22,145,34,78,42,156,34*75
$GPGSV,3,3,10,80,24,325,45,79,78,295,35*7A
{"class":"SKY","time":"2024-03-05T22:35:16.000Z","gdop":11.69,"hdop":5.39,"pdop":9.29,"tdop":1.00,"xdop":4.88,"ydop":2.28,"vdop":7.56,"nSat":10,"uSat":10,"satellites":[{"PRN":25,"gnssid":0,"svid":25,"az":307.0,"el":38.0,"ss":42.0,"used":true,"health":1},{"PRN":24,"gnssid":0,"svid":24,"az":210.0,"el":28.0,"ss":25.0,"used":true,"health":1},{"PRN":11,"gnssid":0,"svid":11,"az":137.0,"el":72.0,"ss":36.0,"used":true,"health":1},{"PRN":12,"gnssid":0,"svid":12,"az":311.0,"el":72.0,"ss":43.0,"used":true,"health":1},{"PRN":6,"gnssid":0,"svid":6,"az":56.0,"el":51.0,"ss":35.0,"used":true,"health":1},{"PRN":19,"gnssid":0,"svid":19,"az":68.0,"el":24.0,"ss":31.0,"used":true,"health":1},{"PRN":20,"gnssid":0,"svid":20,"az":145.0,"el":22.0,"ss":34.0,"used":true,"health":1},{"PRN":78,"gnssid":6,"svid":14,"az":156.0,"el":42.0,"ss":34.0,"used":true,"health":1},{"PRN":80,"gnssid":6,"svid":16,"az":325.0,"el":24.0,"ss":45.0,"used":true,"health":1},{"PRN":79,"gnssid":6,"svid":15,"az":295.0,"el":78.0,"ss":35.0,"used":true,"health":1}]}
$GPGSV,3,1,11,25,38,307,42,24,28,210,25,11,72,137,36,12,72,311,43*7A
$GPGSV,3,2,11,06,51,056,35,19,24,068,31,20,22,145,34,78,42,156,34*74
$GPGSV,3,3,11,80,24,325,45,79,78,295,35,88,41,037,35*4C
{"class":"SKY","time":"2024-03-05T22:35:16.000Z","gdop":11.69,"hdop":5.39,"pdop":9.29,"tdop":1.00,"xdop":4.88,"ydop":2.28,"vdop":7.56,"nSat":11,"uSat":11,"satellites":[{"PRN":25,"gnssid":0,"svid":25,"az":307.0,"el":38.0,"ss":42.0,"used":true,"health":1},{"PRN":24,"gnssid":0,"svid":24,"az":210.0,"el":28.0,"ss":25.0,"used":true,"health":1},{"PRN":11,"gnssid":0,"svid":11,"az":137.0,"el":72.0,"ss":36.0,"used":true,"health":1},{"PRN":12,"gnssid":0,"svid":12,"az":311.0,"el":72.0,"ss":43.0,"used":true,"health":1},{"PRN":6,"gnssid":0,"svid":6,"az":56.0,"el":51.0,"ss":35.0,"used":true,"health":1},{"PRN":19,"gnssid":0,"svid":19,"az":68.0,"el":24.0,"ss":31.0,"used":true,"health":1},{"PRN":20,"gnssid":0,"svid":20,"az":145.0,"el":22.0,"ss":34.0,"used":true,"health":1},{"PRN":78,"gnssid":6,"svid":14,"az":156.0,"el":42.0,"ss":34.0,"used":true,"health":1},{"PRN":80,"gnssid":6,"svid":16,"az":325.0,"el":24.0,"ss":45.0,"used":true,"health":1},{"PRN":79,"gnssid":6,"svid":15,"az":295.0,"el":78.0,"ss":35.0,"used":true,"health":1},{"PRN":88,"gnssid":6,"svid":24,"az":37.0,"el":41.0,"ss":35.0,"used":true,"health":1}]}
$GPGSV,3,1,12,25,38,307,42,24,28,210,25,11,72,137,36,12,72,311,43*79
$GPGSV,3,2,12,06,51,056,35,19,24,068,31,20,22,145,34,78,42,156,34*77
$GPGSV,3,3,12,80,24,325,45,79,78,295,35,88,41,037,35,81,75,268,20*7A
{"class":"SKY","time":"2024-03-05T22:35:16.000Z","gdop":11.69,"hdop":5.39,"pdop":9.29,"tdop":1.00,"xdop":4.88,"ydop":2.28,"vdop":7.56,"nSat":12,"uSat":12,"satellites":[{"PRN":25,"gnssid":0,"svid":25,"az":307.0,"el":38.0,"ss":42.0,"used":true,"health":1},{"PRN":24,"gnssid":0,"svid":24,"az":210.0,"el":28.0,"ss":25.0,"used":true,"health":1},{"PRN":11,"gnssid":0,"svid":11,"az":137.0,"el":72.0,"ss":36.0,"used":true,"health":1},{"PRN":12,"gnssid":0,"svid":12,"az":311.0,"el":72.0,"ss":43.0,"used":true,"health":1},{"PRN":6,"gnssid":0,"svid":6,"az":56.0,"el":51.0,"ss":35.0,"used":true,"health":1},{"PRN":19,"gnssid":0,"svid":19,"az":68.0,"el":24.0,"ss":31.0,"used":true,"health":1},{"PRN":20,"gnssid":0,"svid":20,"az":145.0,"el":22.0,"ss":34.0,"used":true,"health":1},{"PRN":78,"gnssid":6,"svid":14,"az":156.0,"el":42.0,"ss":34.0,"used":true,"health":1},{"PRN":80,"gnssid":6,"svid":16,"az":325.0,"el":24.0,"ss":45.0,"used":true,"health":1},{"PRN":79,"gnssid":6,"svid":15,"az":295.0,"el":78.0,"ss":35.0,"used":true,"health":1},{"PRN":88,"gnssid":6,"svid":24,"az":37.0,"el":41.0,"ss":35.0,"used":true,"health":1},{"PRN":81,"gnssid":6,"svid":17,"az":268.0,"el":75.0,"ss":20.0,"used":true,"health":1}]}
$GPGSV,4,1,13,25,38,307,42,24,28,210,25,11,72,137,36,12,72,311,43*7F
$GPGSV,4,2,13,06,51,056,35,19,24,068,31,20,22,145,34,78,42,156,34*71
$GPGSV,4,3,13,80,24,325,45,79,78,295,35,88,41,037,35,81,75,268,20*7C
$GPGSV,4,4,13,29,10,261,00*44
{"class":"SKY","time":"2024-03-05T22:35:16.000Z","gdop":11.69,"hdop":5.39,"pdop":9.29,"tdop":1.00,"xdop":4.88,"ydop":2.28,"vdop":7.56,"nSat":13,"uSat":12,"satellites":[{"PRN":25,"gnssid":0,"svid":25,"az":307.0,"el":38.0,"ss":42.0,"used":true,"health":1},{"PRN":24,"gnssid":0,"svid":24,"az":210.0,"el":28.0,"ss":25.0,"used":true,"health":1},{"PRN":11,"gnssid":0,"svid":11,"az":137.0,"el":72.0,"ss":36.0,"used":true,"health":1},{"PRN":12,"gnssid":0,"svid":12,"az":311.0,"el":72.0,"ss":43.0,"used":true,"health":1},{"PRN":6,"gnssid":0,"svid":6,"az":56.0,"el":51.0,"ss":35.0,"used":true,"health":1},{"PRN":19,"gnssid":0,"svid":19,"az":68.0,"el":24.0,"ss":31.0,"used":true,"health":1},{"PRN":20,"gnssid":0,"svid":20,"az":145.0,"el":22.0,"ss":34.0,"used":true,"health":1},{"PRN":78,"gnssid":6,"svid":14,"az":156.0,"el":42.0,"ss":34.0,"used":true,"health":1},{"PRN":80,"gnssid":6,"svid":16,"az":325.0,"el":24.0,"ss":45.0,"used":true,"health":1},{"PRN":79,"gnssid":6,"svid":15,"az":295.0,"el":78.0,"ss":35.0,"used":true,"health":1},{"PRN":88,"gnssid":6,"svid":24,"az":37.0,"el":41.0,"ss":35.0,"used":true,"health":1},{"PRN":81,"gnssid":6,"svid":17,"az":268.0,"el":75.0,"ss":20.0,"used":true,"health":1},{"PRN":29,"gnssid":0,"svid":29,"az":261.0,"el":10.0,"ss":0.0,"used":false,"health":1}]}
$GPGGA,223517.00,,S,,W,7,12,5.39,,M,,M,,*59
$GPRMC,223517.00,A,,S,,W,,,050324,,*0C
$GPGSA,A,3,25,24,11,12,6,19,20,78,80,79,88,81,9.3,5.4,7.6*06
$GPGBS,223517.00,73.272,34.152,173.964,,,,*4D
{"class":"TPV","status":7,"mode":3,"time":"2024-03-05T22:35:17.000Z","leapseconds":18,"ept":0.005,"epx":73.272,"epy":34.152,"epv":173.964,"eps":146.54,"epc":347.93,"eph":102.398,"sep":176.459,"clockbias":13709,"clockdrift":211}
{"class":"SKY","time":"2024-03-05T22:35:16.000Z","gdop":11.69,"hdop":5.39,"pdop":9.29,"tdop":1.00,"xdop":4.88,"ydop":2.28,"vdop":7.56}
$GPGGA,223518.00,4404.1294522,N,12118.8579604,W,7,12,,1138.98,M,-22.155,M,,*79
$GPRMC,223518.00,A,4404.1294522,N,12118.8579604,W,,,050324,14.4,E*71
$GPGSA,A,3,25,24,11,12,6,19,20,78,80,79,88,81,,,*22
{"class":"TPV","status":7,"mode":3,"time":"2024-03-05T22:35:18.000Z","leapseconds":18,"ept":0.005,"lat":44.068824204,"lon":-121.314299340,"altHAE":1116.8286,"altMSL":1138.9834,"alt":1138.9834,"magvar":14.4,"geoidSep":-22.155,"clockbias":-210,"temp":32.229}
$GPGGA,223518.00,4404.1294522,N,12118.8579604,W,7,12,,1138.98,M,-22.155,M,,*79
$GPRMC,223518.00,A,4404.1294522,N,12118.8579604,W,,,050324,14.4,E*71
$GPGSA,A,3,25,24,11,12,6,19,20,78,80,79,88,81,,,*22
{"class":"TPV","status":7,"mode":3,"time":"2024-03-05T22:35:18.000Z","leapseconds":18,"ept":0.005,"lat":44.068824204,"lon":-121.314299340,"altHAE":1116.8286,"altMSL":1138.9834,"alt":1138.9834,"magvar":14.4,"geoidSep":-22.155,"clockbias":13922,"clockdrift":211,"temp":32.229}
{"class":"SKY","time":"2024-03-05T22:35:16.000Z","tdop":1.00}
$GPGGA,223519.00,4404.1294522,N,12118.8579604,W,7,12,,1138.98,M,-22.155,M,,*78
$GPRMC,223519.00,A,4404.1294522,N,12118.8579604,W,0.0000,,050324,14.4,E*6E
$GPGSA,A,3,25,24,11,12,6,19,20,78,80,79,88,81,,,*22
{"class":"TPV","status":7,"mode":3,"time":"2024-03-05T22:35:19.000Z","leapseconds":18,"ept":0.005,"lat":44.068824204,"lon":-121.314299340,"altHAE":1116.8286,"altMSL":1138.9834,"alt":1138.9834,"magvar":14.4,"speed":0.000,"climb":0.000,"geoidSep":-22.155,"clockbias":-211,"temp":32.230}
$GPGGA,223519.00,4404.1294522,N,12118.8579604,W,7,12,,1138.98,M,-22.155,M,,*78
$GPRMC,223519.00,A,4404.1294522,N,12118.8579604,W,0.0000,,050324,14.4,E*6E
$GPGSA,A,3,25,24,11,12,6,19,20,78,80,79,88,81,,,*22
{"class":"TPV","status":7,"mode":3,"time":"2024-03-05T22:35:19.000Z","leapseconds":18,"ept":0.005,"lat":44.068824204,"lon":-121.314299340,"altHAE":1116.8286,"altMSL":1138.9834,"alt":1138.9834,"magvar":14.4,"speed":0.000,"climb":0.000,"geoidSep":-22.155,"clockbias":14133,"clockdrift":211,"temp":32.230}
{"class":"SKY","time":"2024-03-05T22:35:16.000Z","tdop":1.00}
$GPGGA,223520.00,4404.1294522,N,12118.8579604,W,7,12,,1138.98,M,-22.155,M,,*72
$GPRMC,223520.00,A,4404.1294522,N,12118.8579604,W,0.0000,,050324,14.4,E*64
$GPGSA,A,3,25,24,11,12,6,19,20,78,80,79,88,81,,,*22
{"class":"TPV","status":7,"mode":3,"time":"2024-03-05T22:35:20.000Z","leapseconds":18,"ept":0.005,"lat":44.068824204,"lon":-121.314299340,"altHAE":1116.8286,"altMSL":1138.9834,"alt":1138.9834,"magvar":14.4,"speed":0.000,"climb":0.000,"geoidSep":-22.155,"clockbias":-211,"temp":32.232}
$GPGGA,223520.00,4404.1294522,N,12118.8579604,W,7,12,,1138.98,M,-22.155,M,,*72
$GPRMC,223520.00,A,4404.1294522,N,12118.8579604,W,0.0000,,050324,14.4,E*64
$GPGSA,A,3,25,24,11,12,6,19,20,78,80,79,88,81,,,*22
{"class":"TPV","status":7,"mode":3,"time":"2024-03-05T22:35:20.000Z","leapseconds":18,"ept":0.005,"lat":44.068824204,"lon":-121.314299340,"altHAE":1116.8286,"altMSL":1138.9834,"alt":1138.9834,"magvar":14.4,"speed":0.000,"climb":0.000,"geoidSep":-22.155,"clockbias":14343,"clockdrift":211,"temp":32.232}
{"class":"SKY","time":"2024-03-05T22:35:16.000Z","tdop":1.00}
$GPGGA,223521.00,4404.1294522,N,12118.8579604,W,7,12,,1138.98,M,-22.155,M,,*73
$GPRMC,223521.00,A,4404.1294522,N,12118.8579604,W,0.0000,,050324,14.4,E*65
$GPGSA,A,3,25,24,11,12,6,19,20,78,80,79,88,81,,,*22
{"class":"TPV","status":7,"mode":3,"time":"2024-03-05T22:35:21.000Z","leapseconds":18,"ept":0.005,"lat":44.068824204,"lon":-121.314299340,"altHAE":1116.8286,"altMSL":1138.9834,"alt":1138.9834,"magvar":14.4,"speed":0.000,"climb":0.000,"geoidSep":-22.155,"clockbias":-212,"temp":32.234}
$GPGGA,223521.00,4404.1294522,N,12118.8579604,W,7,09,,1138.98,M,-22.155,M,,*79
$GPRMC,223521.00,A,4404.1294522,N,12118.8579604,W,0.0000,,050324,14.4,E*65
$GPGSA,A,3,25,24,11,12,6,19,20,78,80,79,88,81,,,*22
{"class":"TPV","status":7,"mode":3,"time":"2024-03-05T22:35:21.000Z","leapseconds":18,"ept":0.005,"lat":44.068824204,"lon":-121.314299340,"altHAE":1116.8286,"altMSL":1138.9834,"alt":1138.9834,"magvar":14.4,"speed":0.000,"climb":0.000,"geoidSep":-22.155,"clockbias":14556,"clockdrift":211,"temp":32.234}
{"class":"SKY","time":"2024-03-05T22:35:16.000Z","tdop":1.00}
$GPGGA,223522.00,4404.1294522,N,12118.8579604,W,7,09,,1138.98,M,-22.155,M,,*7A
$GPRMC,223522.00,A,4404.1294522,N,12118.8579604,W,0.0000,,050324,14.4,E*66
$GPGSA,A,3,25,24,11,12,6,19,20,78,80,79,88,81,,,*22
{"class":"TPV","status":7,"mode":3,"time":"2024-03-05T22:35:22.000Z","leapseconds":18,"ept":0.005,"lat":44.068824204,"lon":-121.314299340,"altHAE":1116.8286,"altMSL":1138.9834,"alt":1138.9834,"magvar":14.4,"speed":0.000,"climb":0.000,"geoidSep":-22.155,"clockbias":-211,"temp":32.236}
$GPGGA,223522.00,4404.1294522,N,12118.8579604,W,7,12,,1138.98,M,-22.155,M,,*70
$GPRMC,223522.00,A,4404.1294522,N,12118.8579604,W,0.0000,,050324,14.4,E*66
$GPGSA,A,3,25,24,11,12,6,19,20,78,80,79,88,81,,,*22
{"class":"TPV","status":7,"mode":3,"time":"2024-03-05T22:35:22.000Z","leapseconds":18,"ept":0.005,"lat":44.068824204,"lon":-121.314299340,"altHAE":1116.8286,"altMSL":1138.9834,"alt":1138.9834,"magvar":14.4,"speed":0.000,"climb":0.000,"geoidSep":-22.155,"clockbias":14770,"clockdrift":212,"temp":32.236}
{"class":"SKY","time":"2024-03-05T22:35:16.000Z","tdop":1.00}
$GPGGA,223523.00,4404.1294522,N,12118.8579604,W,7,12,,1138.98,M,-22.155,M,,*71
$GPRMC,223523.00,A,4404.1294522,N,12118.8579604,W,0.0000,,050324,14.4,E*67
$GPGSA,A,3,25,24,11,12,6,19,20,78,80,79,88,81,,,*22
{"class":"TPV","status":7,"mode":3,"time":"2024-03-05T22:35:23.000Z","leapseconds":18,"ept":0.005,"lat":44.068824204,"lon":-121.314299340,"altHAE":1116.8286,"altMSL":1138.9834,"alt":1138.9834,"magvar":14.4,"speed":0.000,"climb":0.000,"geoidSep":-22.155,"clockbias":-212,"temp":32.238}
$GPGSV,3,1,12,25,38,307,43,24,28,210,24,11,72,137,37,12,72,311,43*78
$GPGSV,3,2,12,06,51,056,36,19,24,068,30,20,22,145,31,78,42,156,34*70
$GPGSV,3,3,12,80,24,325,45,79,78,295,36,88,41,037,35,81,75,268,22*7B
{"class":"SKY","time":"2024-03-05T22:35:22.000Z","gdop":1.81,"hdop":0.85,"pdop":1.55,"tdop":0.94,"xdop":0.63,"ydop":0.57,"vdop":1.29,"nSat":12,"uSat":12,"satellites":[{"PRN":25,"gnssid":0,"svid":25,"az":307.0,"el":38.0,"ss":43.0,"used":true,"health":1},{"PRN":24,"gnssid":0,"svid":24,"az":210.0,"el":28.0,"ss":24.0,"used":true,"health":1},{"PRN":11,"gnssid":0,"svid":11,"az":137.0,"el":72.0,"ss":37.0,"used":true,"health":1},{"PRN":12,"gnssid":0,"svid":12,"az":311.0,"el":72.0,"ss":43.0,"used":true,"health":1},{"PRN":6,"gnssid":0,"svid":6,"az":56.0,"el":51.0,"ss":36.0,"used":true,"health":1},{"PRN":19,"gnssid":0,"svid":19,"az":68.0,"el":24.0,"ss":30.0,"used":true,"health":1},{"PRN":20,"gnssid":0,"svid":20,"az":145.0,"el":22.0,"ss":31.0,"used":true,"health":1},{"PRN":78,"gnssid":6,"svid":14,"az":156.0,"el":42.0,"ss":34.0,"used":true,"health":1},{"PRN":80,"gnssid":6,"svid":16,"az":325.0,"el":24.0,"ss":45.0,"used":true,"health":1},{"PRN":79,"gnssid":6,"svid":15,"az":295.0,"el":78.0,"ss":36.0,"used":true,"health":1},{"PRN":88,"gnssid":6,"svid":24,"az":37.0,"el":41.0,"ss":35.0,"used":true,"health":1},{"PRN":81,"gnssid":6,"svid":17,"az":268.0,"el":75.0,"ss":22.0,"used":true,"health":1}]}
$GPGSV,4,1,13,25,38,307,43,24,28,210,24,11,72,137,37,12,72,311,43*7E
$GPGSV,4,2,13,06,51,056,36,19,24,068,30,20,22,145,31,78,42,156,34*76
$GPGSV,4,3,13,80,24,325,45,79,78,295,36,88,41,037,35,81,75,268,22*7D
$GPGSV,4,4,13,29,10,261,00*44
{"class":"SKY","time":"2024-03-05T22:35:22.000Z","gdop":1.81,"hdop":0.85,"pdop":1.55,"tdop":0.94,"xdop":0.63,"ydop":0.57,"vdop":1.29,"nSat":13,"uSat":12,"satellites":[{"PRN":25,"gnssid":0,"svid":25,"az":307.0,"el":38.0,"ss":43.0,"used":true,"health":1},{"PRN":24,"gnssid":0,"svid":24,"az":210.0,"el":28.0,"ss":24.0,"used":true,"health":1},{"PRN":11,"gnssid":0,"svid":11,"az":137.0,"el":72.0,"ss":37.0,"used":true,"health":1},{"PRN":12,"gnssid":0,"svid":12,"az":311.0,"el":72.0,"ss":43.0,"used":true,"health":1},{"PRN":6,"gnssid":0,"svid":6,"az":56.0,"el":51.0,"ss":36.0,"used":true,"health":1},{"PRN":19,"gnssid":0,"svid":19,"az":68.0,"el":24.0,"ss":30.0,"used":true,"health":1},{"PRN":20,"gnssid":0,"svid":20,"az":145.0,"el":22.0,"ss":31.0,"used":true,"health":1},{"PRN":78,"gnssid":6,"svid":14,"az":156.0,"el":42.0,"ss":34.0,"used":true,"health":1},{"PRN":80,"gnssid":6,"svid":16,"az":325.0,"el":24.0,"ss":45.0,"used":true,"health":1},{"PRN":79,"gnssid":6,"svid":15,"az":295.0,"el":78.0,"ss":36.0,"used":true,"health":1},{"PRN":88,"gnssid":6,"svid":24,"az":37.0,"el":41.0,"ss":35.0,"used":true,"health":1},{"PRN":81,"gnssid":6,"svid":17,"az":268.0,"el":75.0,"ss":22.0,"used":true,"health":1},{"PRN":29,"gnssid":0,"svid":29,"az":261.0,"el":10.0,"ss":0.0,"used":false,"health":1}]}
$GPGGA,223523.00,4404.1294522,N,12118.8579604,W,7,12,0.85,1138.98,M,-22.155,M,,*62
$GPRMC,223523.00,A,4404.1294522,N,12118.8579604,W,0.0000,,050324,14.4,E*67
$GPGSA,A,3,25,24,11,12,6,19,20,78,80,79,88,81,1.5,0.9,1.3*03
$GPGBS,223523.00,9.488,8.596,29.745,,,,*74
{"class":"TPV","status":7,"mode":3,"time":"2024-03-05T22:35:23.000Z","leapseconds":18,"ept":0.005,"lat":44.068824204,"lon":-121.314299340,"altHAE":1116.8286,"altMSL":1138.9834,"alt":1138.9834,"epx":9.488,"epy":8.596,"epv":29.745,"magvar":14.4,"speed":0.000,"climb":0.000,"geoidSep":-22.155,"eph":16.217,"sep":29.441,"clockbias":14980,"clockdrift":212,"temp":32.238}
{"class":"SKY","time":"2024-03-05T22:35:22.000Z","gdop":1.81,"hdop":0.85,"pdop":1.55,"tdop":1.00,"xdop":0.63,"ydop":0.57,"vdop":1.29}
$GPGGA,223524.00,4404.1294522,N,12118.8579604,W,7,12,,1138.98,M,-22.155,M,,*76
$GPRMC,223524.00,A,4404.1294522,N,12118.8579604,W,0.0000,,050324,14.4,E*60
$GPGSA,A,3,25,24,11,12,6,19,20,78,80,79,88,81,,,*22
{"class":"TPV","status":7,"mode":3,"time":"2024-03-05T22:35:24.000Z","leapseconds":18,"ept":0.005,"lat":44.068824204,"lon":-121.314299340,"altHAE":1116.8286,"altMSL":1138.9834,"alt":1138.9834,"magvar":14.4,"speed":0.000,"climb":0.000,"geoidSep":-22.155,"clockbias":-211,"temp":32.241}
$GPGGA,223524.00,4404.1294522,N,12118.8579604,W,7,12,,1138.98,M,-22.155,M,,*76
$GPRMC,223524.00,A,4404.1294522,N,12118.8579604,W,0.0000,,050324,14.4,E*60
$GPGSA,A,3,25,24,11,12,6,19,20,78,80,79,88,81,,,*22
{"class":"TPV","status":7,"mode":3,"time":"2024-03-05T22:35:24.000Z","leapseconds":18,"ept":0.005,"lat":44.068824204,"lon":-121.314299340,"altHAE":1116.8286,"altMSL":1138.9834,"alt":1138.9834,"magvar":14.4,"speed":0.000,"climb":0.000,"geoidSep":-22.155,"clockbias":15193,"clockdrift":212,"temp":32.241}
{"class":"SKY","time":"2024-03-05T22:35:22.000Z","tdop":1.00}
$GPGGA,223525.00,4404.1294522,N,12118.8579604,W,7,12,,1138.98,M,-22.155,M,,*77
$GPRMC,223525.00,A,4404.1294522,N,12118.8579604,W,0.0000,,050324,14.4,E*61
$GPGSA,A,3,25,24,11,12,6,19,20,78,80,79,88,81,,,*22
{"class":"TPV","status":7,"mode":3,"time":"2024-03-05T22:35:25.000Z","leapseconds":18,"ept":0.005,"lat":44.068824204,"lon":-121.314299340,"altHAE":1116.8286,"altMSL":1138.9834,"alt":1138.9834,"magvar":14.4,"speed":0.000,"climb":0.000,"geoidSep":-22.155,"ant":2,"clockbias":-212,"temp":32.243}
$GPGGA,223525.00,4404.1294522,N,12118.8579604,W,7,12,,1138.98,M,-22.155,M,,*77
$GPRMC,223525.00,A,4404.1294522,N,12118.8579604,W,0.0000,,050324,14.4,E*61
$GPGSA,A,3,25,24,11,12,6,19,20,78,80,79,88,81,,,*22
{"class":"TPV","status":7,"mode":3,"time":"2024-03-05T22:35:25.000Z","leapseconds":18,"ept":0.005,"lat":44.068824204,"lon":-121.314299340,"altHAE":1116.8286,"altMSL":1138.9834,"alt":1138.9834,"magvar":14.4,"speed":0.000,"climb":0.000,"geoidSep":-22.155,"ant":2,"clockbias":15407,"clockdrift":212,"temp":32.243}
{"class":"SKY","time":"2024-03-05T22:35:22.000Z","tdop":1.00}
$GPGGA,223526.00,4404.1294522,N,12118.8579604,W,7,12,,1138.98,M,-22.155,M,,*74
$GPRMC,223526.00,A,4404.1294522,N,12118.8579604,W,0.0000,,050324,14.4,E*62
$GPGSA,A,3,25,24,11,12,6,19,20,78,80,79,88,81,,,*22
{"class":"TPV","status":7,"mode":3,"time":"2024-03-05T22:35:26.000Z","leapseconds":18,"ept":0.005,"lat":44.068824204,"lon":-121.314299340,"altHAE":1116.8286,"altMSL":1138.9834,"alt":1138.9834,"magvar":14.4,"speed":0.000,"climb":0.000,"geoidSep":-22.155,"ant":2,"clockbias":-213,"temp":32.245}
$GPGGA,223526.00,4404.1294522,N,12118.8579604,W,7,02,,1138.98,M,-22.155,M,,*75
$GPRMC,223526.00,A,4404.1294522,N,12118.8579604,W,0.0000,,050324,14.4,E*62
$GPGSA,A,3,25,24,11,12,6,19,20,78,80,79,88,81,,,*22
{"class":"TPV","status":7,"mode":3,"time":"2024-03-05T22:35:26.000Z","leapseconds":18,"ept":0.005,"lat":44.068824204,"lon":-121.314299340,"altHAE":1116.8286,"altMSL":1138.9834,"alt":1138.9834,"magvar":14.4,"speed":0.000,"climb":0.000,"geoidSep":-22.155,"ant":2,"clockbias":15617,"clockdrift":212,"temp":32.245}
{"class":"SKY","time":"2024-03-05T22:35:22.000Z","tdop":1.00}
$GPGGA,223527.00,4404.1294522,N,12118.8579604,W,7,02,,1138.98,M,-22.155,M,,*74
$GPRMC,223527.00,A,4404.1294522,N,12118.8579604,W,0.0000,,050324,14.4,E*63
$GPGSA,A,3,25,24,11,12,6,19,20,78,80,79,88,81,,,*22
{"class":"TPV","status":7,"mode":3,"time":"2024-03-05T22:35:27.000Z","leapseconds":18,"ept":0.005,"lat":44.068824204,"lon":-121.314299340,"altHAE":1116.8286,"altMSL":1138.9834,"alt":1138.9834,"magvar":14.4,"speed":0.000,"climb":0.000,"geoidSep":-22.155,"ant":2,"clockbias":-209,"temp":32.248}
$GPGGA,223527.00,4404.1294522,N,12118.8579604,W,7,01,,1138.98,M,-22.155,M,,*77
$GPRMC,223527.00,A,4404.1294522,N,12118.8579604,W,0.0000,,050324,14.4,E*63
$GPGSA,A,3,25,24,11,12,6,19,20,78,80,79,88,81,,,*22
{"class":"TPV","status":7,"mode":3,"time":"2024-03-05T22:35:27.000Z","leapseconds":18,"ept":0.005,"lat":44.068824204,"lon":-121.314299340,"altHAE":1116.8286,"altMSL":1138.9834,"alt":1138.9834,"magvar":14.4,"speed":0.000,"climb":0.000,"geoidSep":-22.155,"ant":2,"clockbias":15830,"clockdrift":212,"temp":32.248}
{"class":"SKY","time":"2024-03-05T22:35:22.000Z","tdop":1.00}
$GPGGA,223528.00,4404.1294522,N,12118.8579604,W,7,01,,1138.98,M,-22.155,M,,*78
$GPRMC,223528.00,A,4404.1294522,N,12118.8579604,W,0.0000,,050324,14.4,E*6C
$GPGSA,A,3,25,24,11,12,6,19,20,78,80,79,88,81,,,*22
{"class":"TPV","status":7,"mode":3,"time":"2024-03-05T22:35:28.000Z","leapseconds":18,"ept":0.005,"lat":44.068824204,"lon":-121.314299340,"altHAE":1116.8286,"altMSL":1138.9834,"alt":1138.9834,"magvar":14.4,"speed":0.000,"climb":0.000,"geoidSep":-22.155,"ant":2,"clockbias":-213,"temp":32.250}
$GPGGA,223528.00,4404.1294522,N,12118.8579604,W,7,02,,1138.98,M,-22.155,M,,*7B
$GPRMC,223528.00,A,4404.1294522,N,12118.8579604,W,0.0000,,050324,14.4,E*6C
$GPGSA,A,3,25,24,11,12,6,19,20,78,80,79,88,81,,,*22
{"class":"TPV","status":7,"mode":3,"time":"2024-03-05T22:35:28.000Z","leapseconds":18,"ept":0.005,"lat":44.068824204,"lon":-121.314299340,"altHAE":1116.8286,"altMSL":1138.9834,"alt":1138.9834,"magvar":14.4,"speed":0.000,"climb":0.000,"geoidSep":-22.155,"ant":2,"clockbias":16044,"clockdrift":212,"temp":32.250}
{"class":"SKY","time":"2024-03-05T22:35:22.000Z","tdop":1.00}
$GPGGA,223529.00,4404.1294522,N,12118.8579604,W,7,02,,1138.98,M,-22.155,M,,*7A
$GPRMC,223529.00,A,4404.1294522,N,12118.8579604,W,0.0000,,050324,14.4,E*6D
$GPGSA,A,3,25,24,11,12,6,19,20,78,80,79,88,81,,,*22
{"class":"TPV","status":7,"mode":3,"time":"2024-03-05T22:35:29.000Z","leapseconds":18,"ept":0.005,"lat":44.068824204,"lon":-121.314299340,"altHAE":1116.8286,"altMSL":1138.9834,"alt":1138.9834,"magvar":14.4,"speed":0.000,"climb":0.000,"geoidSep":-22.155,"ant":2,"clockbias":-219,"temp":32.254}
$GPGSV,3,1,12,19,24,068,16,25,38,307,16,24,28,210,16,11,72,137,17*7E
$GPGSV,3,2,12,12,72,311,17,06,51,056,17,20,22,145,14,29,11,262,16*72
$GPGSV,3,3,12,81,75,268,18,78,42,156,00,79,78,295,00,80,24,325,00*7A
{"class":"SKY","time":"2024-03-05T22:35:28.000Z","nSat":12,"uSat":1,"satellites":[{"PRN":19,"gnssid":0,"svid":19,"az":68.0,"el":24.0,"ss":16.0,"used":true,"health":1},{"PRN":25,"gnssid":0,"svid":25,"az":307.0,"el":38.0,"ss":16.0,"used":false,"health":1},{"PRN":24,"gnssid":0,"svid":24,"az":210.0,"el":28.0,"ss":16.0,"used":false,"health":1},{"PRN":11,"gnssid":0,"svid":11,"az":137.0,"el":72.0,"ss":17.0,"used":false,"health":1},{"PRN":12,"gnssid":0,"svid":12,"az":311.0,"el":72.0,"ss":17.0,"used":false,"health":1},{"PRN":6,"gnssid":0,"svid":6,"az":56.0,"el":51.0,"ss":17.0,"used":false,"health":1},{"PRN":20,"gnssid":0,"svid":20,"az":145.0,"el":22.0,"ss":14.0,"used":false,"health":1},{"PRN":29,"gnssid":0,"svid":29,"az":262.0,"el":11.0,"ss":16.0,"used":false,"health":1},{"PRN":81,"gnssid":6,"svid":17,"az":268.0,"el":75.0,"ss":18.0,"used":false,"health":1},{"PRN":78,"gnssid":6,"svid":14,"az":156.0,"el":42.0,"ss":0.0,"used":false,"health":1},{"PRN":79,"gnssid":6,"svid":15,"az":295.0,"el":78.0,"ss":0.0,"used":false,"health":1},{"PRN":80,"gnssid":6,"svid":16,"az":325.0,"el":24.0,"ss":0.0,"used":false,"health":1}]}
$GPGSV,4,1,13,19,24,068,16,25,38,307,16,24,28,210,16,11,72,137,17*78
$GPGSV,4,2,13,12,72,311,17,06,51,056,17,20,22,145,14,29,11,262,16*74
$GPGSV,4,3,13,81,75,268,18,78,42,156,00,79,78,295,00,80,24,325,00*7C
$GPGSV,4,4,13,88,41,037,00*4A
{"class":"SKY","time":"2024-03-05T22:35:28.000Z","nSat":13,"uSat":1,"satellites":[{"PRN":19,"gnssid":0,"svid":19,"az":68.0,"el":24.0,"ss":16.0,"used":true,"health":1},{"PRN":25,"gnssid":0,"svid":25,"az":307.0,"el":38.0,"ss":16.0,"used":false,"health":1},{"PRN":24,"gnssid":0,"svid":24,"az":210.0,"el":28.0,"ss":16.0,"used":false,"health":1},{"PRN":11,"gnssid":0,"svid":11,"az":137.0,"el":72.0,"ss":17.0,"used":false,"health":1},{"PRN":12,"gnssid":0,"svid":12,"az":311.0,"el":72.0,"ss":17.0,"used":false,"health":1},{"PRN":6,"gnssid":0,"svid":6,"az":56.0,"el":51.0,"ss":17.0,"used":false,"health":1},{"PRN":20,"gnssid":0,"svid":20,"az":145.0,"el":22.0,"ss":14.0,"used":false,"health":1},{"PRN":29,"gnssid":0,"svid":29,"az":262.0,"el":11.0,"ss":16.0,"used":false,"health":1},{"PRN":81,"gnssid":6,"svid":17,"az":268.0,"el":75.0,"ss":18.0,"used":false,"health":1},{"PRN":78,"gnssid":6,"svid":14,"az":156.0,"el":42.0,"ss":0.0,"used":false,"health":1},{"PRN":79,"gnssid":6,"svid":15,"az":295.0,"el":78.0,"ss":0.0,"used":false,"health":1},{"PRN":80,"gnssid":6,"svid":16,"az":325.0,"el":24.0,"ss":0.0,"used":false,"health":1},{"PRN":88,"gnssid":6,"svid":24,"az":37.0,"el":41.0,"ss":0.0,"used":false,"health":1}]}
$GPGGA,223529.00,4404.1294522,N,12118.8579604,W,7,01,,1138.98,M,-22.155,M,,*79
$GPRMC,223529.00,A,4404.1294522,N,12118.8579604,W,0.0000,,050324,14.4,E*6D
$GPGSA,A,3,19,,,,,,,,,,,,,,*14
{"class":"TPV","status":7,"mode":3,"time":"2024-03-05T22:35:29.000Z","leapseconds":18,"ept":0.005,"lat":44.068824204,"lon":-121.314299340,"altHAE":1116.8286,"altMSL":1138.9834,"alt":1138.9834,"magvar":14.4,"speed":0.000,"climb":0.000,"geoidSep":-22.155,"ant":2,"clockbias":16254,"clockdrift":212,"temp":32.254}
{"class":"SKY","time":"2024-03-05T22:35:28.000Z","tdop":1.00}
$GPGGA,223530.00,4404.1294522,N,12118.8579604,W,7,01,,1138.98,M,-22.155,M,,*71
$GPRMC,223530.00,A,4404.1294522,N,12118.8579604,W,0.0000,,050324,14.4,E*65
$GPGSA,A,3,19,,,,,,,,,,,,,,*14
{"class":"TPV","status":7,"mode":3,"time":"2024-03-05T22:35:30.000Z","leapseconds":18,"ept":0.005,"lat":44.068824204,"lon":-121.314299340,"altHAE":1116.8286,"altMSL":1138.9834,"alt":1138.9834,"magvar":14.4,"speed":0.000,"climb":0.000,"geoidSep":-22.155,"ant":2,"clockbias":-220,"temp":32.258}
$GPGGA,223530.00,4404.1294522,N,12118.8579604,W,7,01,,1138.98,M,-22.155,M,,*71
$GPRMC,223530.00,A,4404.1294522,N,12118.8579604,W,0.0000,,050324,14.4,E*65
$GPGSA,A,3,19,,,,,,,,,,,,,,*14
{"class":"TPV","status":7,"mode":3,"time":"2024-03-05T22:35:30.000Z","leapseconds":18,"ept":0.005,"lat":44.068824204,"lon":-121.314299340,"altHAE":1116.8286,"altMSL":1138.9834,"alt":1138.9834,"magvar":14.4,"speed":0.000,"climb":0.000,"geoidSep":-22.155,"ant":2,"clockbias":16468,"clockdrift":212,"temp":32.258}
{"class":"SKY","time":"2024-03-05T22:35:28.000Z","tdop":1.00}
$GPGGA,223531.00,4404.1294522,N,12118.8579604,W,6,01,,1138.98,M,-22.155,M,,*71
$GPRMC,223531.00,A,4404.1294522,N,12118.8579604,W,0.0000,,050324,14.4,E*64
$GPGSA,A,3,19,,,,,,,,,,,,,,*14
{"class":"TPV","status":5,"mode":3,"time":"2024-03-05T22:35:31.000Z","leapseconds":18,"ept":0.005,"lat":44.068824204,"lon":-121.314299340,"altHAE":1116.8286,"altMSL":1138.9834,"alt":1138.9834,"magvar":14.4,"speed":0.000,"climb":0.000,"geoidSep":-22.155,"ant":2,"clockbias":-220,"temp":32.261}
$GPGGA,223531.00,4404.1294522,N,12118.8579604,W,6,00,,1138.98,M,-22.155,M,,*70
$GPRMC,223531.00,A,4404.1294522,N,12118.8579604,W,0.0000,,050324,14.4,E*64
$GPGSA,A,3,19,,,,,,,,,,,,,,*14
{"class":"TPV","status":5,"mode":3,"time":"2024-03-05T22:35:31.000Z","leapseconds":18,"ept":0.005,"lat":44.068824204,"lon":-121.314299340,"altHAE":1116.8286,"altMSL":1138.9834,"alt":1138.9834,"magvar":14.4,"speed":0.000,"climb":0.000,"geoidSep":-22.155,"ant":2,"clockbias":-220,"temp":32.261}
{"class":"SKY","time":"2024-03-05T22:35:28.000Z","tdop":1.00}
$GPGGA,223532.00,4404.1294522,N,12118.8579604,W,6,00,,1138.98,M,-22.155,M,,*73
$GPRMC,223532.00,A,4404.1294522,N,12118.8579604,W,0.0000,,050324,14.4,E*67
$GPGSA,A,3,19,,,,,,,,,,,,,,*14
{"class":"TPV","status":5,"mode":3,"time":"2024-03-05T22:35:32.000Z","leapseconds":18,"ept":0.005,"lat":44.068824204,"lon":-121.314299340,"altHAE":1116.8286,"altMSL":1138.9834,"alt":1138.9834,"magvar":14.4,"speed":0.000,"climb":0.000,"geoidSep":-22.155,"ant":2,"clockbias":-220,"temp":32.264}
$GPGGA,223532.00,4404.1294522,N,12118.8579604,W,6,00,,1138.98,M,-22.155,M,,*73
$GPRMC,223532.00,A,4404.1294522,N,12118.8579604,W,0.0000,,050324,14.4,E*67
$GPGSA,A,3,19,,,,,,,,,,,,,,*14
{"class":"TPV","status":5,"mode":3,"time":"2024-03-05T22:35:32.000Z","leapseconds":18,"ept":0.005,"lat":44.068824204,"lon":-121.314299340,"altHAE":1116.8286,"altMSL":1138.9834,"alt":1138.9834,"magvar":14.4,"speed":0.000,"climb":0.000,"geoidSep":-22.155,"ant":2,"clockbias":-220,"temp":32.264}
{"class":"SKY","time":"2024-03-05T22:35:28.000Z","tdop":1.00}
$GPGGA,223533.00,4404.1294522,N,12118.8579604,W,7,00,,1138.98,M,-22.155,M,,*73
$GPRMC,223533.00,A,4404.1294522,N,12118.8579604,W,0.0000,,050324,14.4,E*66
$GPGSA,A,3,19,,,,,,,,,,,,,,*14
{"class":"TPV","status":7,"mode":3,"time":"2024-03-05T22:35:33.000Z","leapseconds":18,"ept":0.005,"lat":44.068824204,"lon":-121.314299340,"altHAE":1116.8286,"altMSL":1138.9834,"alt":1138.9834,"magvar":14.4,"speed":0.000,"climb":0.000,"geoidSep":-22.155,"ant":2,"clockbias":-215,"temp":32.267}
$GPGGA,223533.00,4404.1294522,N,12118.8579604,W,7,02,,1138.98,M,-22.155,M,,*71
$GPRMC,223533.00,A,4404.1294522,N,12118.8579604,W,0.0000,,050324,14.4,E*66
$GPGSA,A,3,19,,,,,,,,,,,,,,*14
{"class":"TPV","status":7,"mode":3,"time":"2024-03-05T22:35:33.000Z","leapseconds":18,"ept":0.005,"lat":44.068824204,"lon":-121.314299340,"altHAE":1116.8286,"altMSL":1138.9834,"alt":1138.9834,"magvar":14.4,"speed":0.000,"climb":0.000,"geoidSep":-22.155,"ant":2,"clockbias":17105,"clockdrift":212,"temp":32.267}
{"class":"SKY","time":"2024-03-05T22:35:28.000Z","tdop":1.00}
$GPGGA,223534.00,4404.1294522,N,12118.8579604,W,7,02,,1138.98,M,-22.155,M,,*76
$GPRMC,223534.00,A,4404.1294522,N,12118.8579604,W,0.0000,,050324,14.4,E*61
$GPGSA,A,3,19,,,,,,,,,,,,,,*14
{"class":"TPV","status":7,"mode":3,"time":"2024-03-05T22:35:34.000Z","leapseconds":18,"ept":0.005,"lat":44.068824204,"lon":-121.314299340,"altHAE":1116.8286,"altMSL":1138.9834,"alt":1138.9834,"magvar":14.4,"speed":0.000,"climb":0.000,"geoidSep":-22.155,"ant":2,"clockbias":-215,"temp":32.270}
$GPGGA,223534.00,4404.1294522,N,12118.8579604,W,7,02,,1138.98,M,-22.155,M,,*76
$GPRMC,223534.00,A,4404.1294522,N,12118.8579604,W,0.0000,,050324,14.4,E*61
$GPGSA,A,3,19,,,,,,,,,,,,,,*14
{"class":"TPV","status":7,"mode":3,"time":"2024-03-05T22:35:34.000Z","leapseconds":18,"ept":0.005,"lat":44.068824204,"lon":-121.314299340,"altHAE":1116.8286,"altMSL":1138.9834,"alt":1138.9834,"magvar":14.4,"speed":0.000,"climb":0.000,"geoidSep":-22.155,"ant":2,"clockbias":17318,"clockdrift":212,"temp":32.270}
{"class":"SKY","time":"2024-03-05T22:35:28.000Z","tdop":1.00}
$GPGGA,223535.00,4404.1294522,N,12118.8579604,W,7,02,,1138.98,M,-22.155,M,,*77
$GPRMC,223535.00,A,4404.1294522,N,12118.8579604,W,0.0000,,050324,14.4,E*60
$GPGSA,A,3,19,,,,,,,,,,,,,,*14
{"class":"TPV","status":7,"mode":3,"time":"2024-03-05T22:35:35.000Z","leapseconds":18,"ept":0.005,"lat":44.068824204,"lon":-121.314299340,"altHAE":1116.8286,"altMSL":1138.9834,"alt":1138.9834,"magvar":14.4,"speed":0.000,"climb":0.000,"geoidSep":-22.155,"clockbias":-213,"temp":32.273}
$GPGSV,3,1,12,11,72,137,32,20,22,145,22,25,38,307,43,12,72,311,42*77
$GPGSV,3,2,12,06,51,056,30,19,24,068,22,24,28,210,00,29,10,261,00*79
$GPGSV,3,3,12,78,42,156,00,79,78,295,00,80,24,325,00,81,75,268,00*73
{"class":"SKY","time":"2024-03-05T22:35:34.000Z","nSat":12,"uSat":2,"satellites":[{"PRN":11,"gnssid":0,"svid":11,"az":137.0,"el":72.0,"ss":32.0,"used":true,"health":1},{"PRN":20,"gnssid":0,"svid":20,"az":145.0,"el":22.0,"ss":22.0,"used":true,"health":1},{"PRN":25,"gnssid":0,"svid":25,"az":307.0,"el":38.0,"ss":43.0,"used":false,"health":1},{"PRN":12,"gnssid":0,"svid":12,"az":311.0,"el":72.0,"ss":42.0,"used":false,"health":1},{"PRN":6,"gnssid":0,"svid":6,"az":56.0,"el":51.0,"ss":30.0,"used":false,"health":1},{"PRN":19,"gnssid":0,"svid":19,"az":68.0,"el":24.0,"ss":22.0,"used":false,"health":1},{"PRN":24,"gnssid":0,"svid":24,"az":210.0,"el":28.0,"ss":0.0,"used":false,"health":1},{"PRN":29,"gnssid":0,"svid":29,"az":261.0,"el":10.0,"ss":0.0,"used":false,"health":1},{"PRN":78,"gnssid":6,"svid":14,"az":156.0,"el":42.0,"ss":0.0,"used":false,"health":1},{"PRN":79,"gnssid":6,"svid":15,"az":295.0,"el":78.0,"ss":0.0,"used":false,"health":1},{"PRN":80,"gnssid":6,"svid":16,"az":325.0,"el":24.0,"ss":0.0,"used":false,"health":1},{"PRN":81,"gnssid":6,"svid":17,"az":268.0,"el":75.0,"ss":0.0,"used":false,"health":1}]}
$GPGSV,4,1,13,11,72,137,32,20,22,145,22,25,38,307,43,12,72,311,42*71
$GPGSV,4,2,13,06,51,056,30,19,24,068,22,24,28,210,00,29,10,261,00*7F
$GPGSV,4,3,13,78,42,156,00,79,78,295,00,80,24,325,00,81,75,268,00*75
$GPGSV,4,4,13,88,41,037,00*4A
{"class":"SKY","time":"2024-03-05T22:35:34.000Z","nSat":13,"uSat":2,"satellites":[{"PRN":11,"gnssid":0,"svid":11,"az":137.0,"el":72.0,"ss":32.0,"used":true,"health":1},{"PRN":20,"gnssid":0,"svid":20,"az":145.0,"el":22.0,"ss":22.0,"used":true,"health":1},{"PRN":25,"gnssid":0,"svid":25,"az":307.0,"el":38.0,"ss":43.0,"used":false,"health":1},{"PRN":12,"gnssid":0,"svid":12,"az":311.0,"el":72.0,"ss":42.0,"used":false,"health":1},{"PRN":6,"gnssid":0,"svid":6,"az":56.0,"el":51.0,"ss":30.0,"used":false,"health":1},{"PRN":19,"gnssid":0,"svid":19,"az":68.0,"el":24.0,"ss":22.0,"used":false,"health":1},{"PRN":24,"gnssid":0,"svid":24,"az":210.0,"el":28.0,"ss":0.0,"used":false,"health":1},{"PRN":29,"gnssid":0,"svid":29,"az":261.0,"el":10.0,"ss":0.0,"used":false,"health":1},{"PRN":78,"gnssid":6,"svid":14,"az":156.0,"el":42.0,"ss":0.0,"used":false,"health":1},{"PRN":79,"gnssid":6,"svid":15,"az":295.0,"el":78.0,"ss":0.0,"used":false,"health":1},{"PRN":80,"gnssid":6,"svid":16,"az":325.0,"el":24.0,"ss":0.0,"used":false,"health":1},{"PRN":81,"gnssid":6,"svid":17,"az":268.0,"el":75.0,"ss":0.0,"used":false,"health":1},{"PRN":88,"gnssid":6,"svid":24,"az":37.0,"el":41.0,"ss":0.0,"used":false,"health":1}]}
$GPGGA,223535.00,4404.1294522,N,12118.8579604,W,7,02,,1138.98,M,-22.155,M,,*77
$GPRMC,223535.00,A,4404.1294522,N,12118.8579604,W,0.0000,,050324,14.4,E*60
$GPGSA,A,3,11,20,,,,,,,,,,,,,*1E
{"class":"TPV","status":7,"mode":3,"time":"2024-03-05T22:35:35.000Z","leapseconds":18,"ept":0.005,"lat":44.068824204,"lon":-121.314299340,"altHAE":1116.8286,"altMSL":1138.9834,"alt":1138.9834,"magvar":14.4,"speed":0.000,"climb":0.000,"geoidSep":-22.155,"clockbias":17528,"clockdrift":212,"temp":32.273}
{"class":"SKY","time":"2024-03-05T22:35:34.000Z","tdop":1.00}
$GPGGA,223536.00,4404.1294522,N,12118.8579604,W,7,02,,1138.98,M,-22.155,M,,*74
$GPRMC,223536.00,A,4404.1294522,N,12118.8579604,W,0.0000,,050324,14.4,E*63
$GPGSA,A,3,11,20,,,,,,,,,,,,,*1E
{"class":"TPV","status":7,"mode":3,"time":"2024-03-05T22:35:36.000Z","leapseconds":18,"ept":0.005,"lat":44.068824204,"lon":-121.314299340,"altHAE":1116.8286,"altMSL":1138.9834,"alt":1138.9834,"magvar":14.4,"speed":0.000,"climb":0.000,"geoidSep":-22.155,"clockbias":-211,"temp":32.277}
$GPGGA,223536.00,4404.1294522,N,12118.8579604,W,7,06,,1138.98,M,-22.155,M,,*70
$GPRMC,223536.00,A,4404.1294522,N,12118.8579604,W,0.0000,,050324,14.4,E*63
$GPGSA,A,3,11,20,,,,,,,,,,,,,*1E
{"class":"TPV","status":7,"mode":3,"time":"2024-03-05T22:35:36.000Z","leapseconds":18,"ept":0.005,"lat":44.068824204,"lon":-121.314299340,"altHAE":1116.8286,"altMSL":1138.9834,"alt":1138.9834,"magvar":14.4,"speed":0.000,"climb":0.000,"geoidSep":-22.155,"clockbias":17738,"clockdrift":211,"temp":32.277}
{"class":"SKY","time":"2024-03-05T22:35:34.000Z","tdop":1.00}
$GPGGA,223537.00,4404.1294522,N,12118.8579604,W,7,06,,1138.98,M,-22.155,M,,*71
$GPRMC,223537.00,A,4404.1294522,N,12118.8579604,W,0.0000,,050324,14.4,E*62
$GPGSA,A,3,11,20,,,,,,,,,,,,,*1E
{"class":"TPV","status":7,"mode":3,"time":"2024-03-05T22:35:37.000Z","leapseconds":18,"ept":0.005,"lat":44.068824204,"lon":-121.314299340,"altHAE":1116.8286,"altMSL":1138.9834,"alt":1138.9834,"magvar":14.4,"speed":0.000,"climb":0.000,"geoidSep":-22.155,"clockbias":-210,"temp":32.280}
$GPGGA,223537.00,4404.1294522,N,12118.8579604,W,7,11,,1138.98,M,-22.155,M,,*77
$GPRMC,223537.00,A,4404.1294522,N,12118.8579604,W,0.0000,,050324,14.4,E*62
$GPGSA,A,3,11,20,,,,,,,,,,,,,*1E
{"class":"TPV","status":7,"mode":3,"time":"2024-03-05T22:35:37.000Z","leapseconds":18,"ept":0.005,"lat":44.068824204,"lon":-121.314299340,"altHAE":1116.8286,"altMSL":1138.9834,"alt":1138.9834,"magvar":14.4,"speed":0.000,"climb":0.000,"geoidSep":-22.155,"clockbias":17949,"clockdrift":211,"temp":32.280}
{"class":"SKY","time":"2024-03-05T22:35:34.000Z","tdop":1.00}
$GPGGA,223538.00,4404.1294522,N,12118.8579604,W,7,11,,1138.98,M,-22.155,M,,*78
$GPRMC,223538.00,A,4404.1294522,N,12118.8579604,W,0.0000,,050324,14.4,E*6D
$GPGSA,A,3,11,20,,,,,,,,,,,,,*1E
{"class":"TPV","status":7,"mode":3,"time":"2024-03-05T22:35:38.000Z","leapseconds":18,"ept":0.005,"lat":44.068824204,"lon":-121.314299340,"altHAE":1116.8286,"altMSL":1138.9834,"alt":1138.9834,"magvar":14.4,"speed":0.000,"climb":0.000,"geoidSep":-22.155,"clockbias":-210,"temp":32.283}
$GPGGA,223538.00,4404.1294522,N,12118.8579604,W,7,11,,1138.98,M,-22.155,M,,*78
$GPRMC,223538.00,A,4404.1294522,N,12118.8579604,W,0.0000,,050324,14.4,E*6D
$GPGSA,A,3,11,20,,,,,,,,,,,,,*1E
{"class":"TPV","status":7,"mode":3,"time":"2024-03-05T22:35:38.000Z","leapseconds":18,"ept":0.005,"lat":44.068824204,"lon":-121.314299340,"altHAE":1116.8286,"altMSL":1138.9834,"alt":1138.9834,"magvar":14.4,"speed":0.000,"climb":0.000,"geoidSep":-22.155,"clockbias":18159,"clockdrift":210,"temp":32.283}
{"class":"SKY","time":"2024-03-05T22:35:34.000Z","tdop":1.00}
$GPGGA,223539.00,4404.1294522,N,12118.8579604,W,7,11,,1138.98,M,-22.155,M,,*79
$GPRMC,223539.00,A,4404.1294522,N,12118.8579604,W,0.0000,,050324,14.4,E*6C
$GPGSA,A,3,11,20,,,,,,,,,,,,,*1E
{"class":"TPV","status":7,"mode":3,"time":"2024-03-05T22:35:39.000Z","leapseconds":18,"ept":0.005,"lat":44.068824204,"lon":-121.314299340,"altHAE":1116.8286,"altMSL":1138.9834,"alt":1138.9834,"magvar":14.4,"speed":0.000,"climb":0.000,"geoidSep":-22.155,"clockbias":-209,"temp":32.287}
$GPGGA,223539.00,4404.1294522,N,12118.8579604,W,7,11,,1138.98,M,-22.155,M,,*79
$GPRMC,223539.00,A,4404.1294522,N,12118.8579604,W,0.0000,,050324,14.4,E*6C
$GPGSA,A,3,11,20,,,,,,,,,,,,,*1E
{"class":"TPV","status":7,"mode":3,"time":"2024-03-05T22:35:39.000Z","leapseconds":18,"ept":0.005,"lat":44.068824204,"lon":-121.314299340,"altHAE":1116.8286,"altMSL":1138.9834,"alt":1138.9834,"magvar":14.4,"speed":0.000,"climb":0.000,"geoidSep":-22.155,"clockbias":18366,"clockdrift":209,"temp":32.287}
{"class":"SKY","time":"2024-03-05T22:35:34.000Z","tdop":1.00}
$GPGGA,223540.00,4404.1294522,N,12118.8579604,W,7,11,,1138.98,M,-22.155,M,,*77
$GPRMC,223540.00,A,4404.1294522,N,12118.8579604,W,0.0000,,050324,14.4,E*62
$GPGSA,A,3,11,20,,,,,,,,,,,,,*1E
{"class":"TPV","status":7,"mode":3,"time":"2024-03-05T22:35:40.000Z","leapseconds":18,"ept":0.005,"lat":44.068824204,"lon":-121.314299340,"altHAE":1116.8286,"altMSL":1138.9834,"alt":1138.9834,"magvar":14.4,"speed":0.000,"climb":0.000,"geoidSep":-22.155,"clockbias":-209,"temp":32.291}
$GPGGA,223540.00,4404.1294522,N,12118.8579604,W,7,11,,1138.98,M,-22.155,M,,*77
$GPRMC,223540.00,A,4404.1294522,N,12118.8579604,W,0.0000,,050324,14.4,E*62
$GPGSA,A,3,11,20,,,,,,,,,,,,,*1E
{"class":"TPV","status":7,"mode":3,"time":"2024-03-05T22:35:40.000Z","leapseconds":18,"ept":0.005,"lat":44.068824204,"lon":-121.314299340,"altHAE":1116.8286,"altMSL":1138.9834,"alt":1138.9834,"magvar":14.4,"speed":0.000,"climb":0.000,"geoidSep":-22.155,"clockbias":18572,"clockdrift":209,"temp":32.291}
{"class":"SKY","time":"2024-03-05T22:35:34.000Z","tdop":1.00}
$GPGGA,223541.00,4404.1294522,N,12118.8579604,W,7,11,,1138.98,M,-22.155,M,,*76
$GPRMC,223541.00,A,4404.1294522,N,12118.8579604,W,0.0000,,050324,14.4,E*63
$GPGSA,A,3,11,20,,,,,,,,,,,,,*1E
{"class":"TPV","status":7,"mode":3,"time":"2024-03-05T22:35:41.000Z","leapseconds":18,"ept":0.005,"lat":44.068824204,"lon":-121.314299340,"altHAE":1116.8286,"altMSL":1138.9834,"alt":1138.9834,"magvar":14.4,"speed":0.000,"climb":0.000,"geoidSep":-22.155,"clockbias":-208,"temp":32.295}
$GPGSV,3,1,12,25,38,307,44,24,28,210,24,11,72,137,35,12,72,311,43*7D
$GPGSV,3,2,12,06,51,056,36,19,24,068,28,20,22,145,25,78,42,156,36*7E
$GPGSV,3,3,12,88,41,037,35,79,78,295,36,80,24,325,47,29,11,262,00*73
{"class":"SKY","time":"2024-03-05T22:35:40.000Z","gdop":1.89,"hdop":0.86,"pdop":1.63,"tdop":0.97,"xdop":0.64,"ydop":0.57,"vdop":1.38,"nSat":12,"uSat":11,"satellites":[{"PRN":25,"gnssid":0,"svid":25,"az":307.0,"el":38.0,"ss":44.0,"used":true,"health":1},{"PRN":24,"gnssid":0,"svid":24,"az":210.0,"el":28.0,"ss":24.0,"used":true,"health":1},{"PRN":11,"gnssid":0,"svid":11,"az":137.0,"el":72.0,"ss":35.0,"used":true,"health":1},{"PRN":12,"gnssid":0,"svid":12,"az":311.0,"el":72.0,"ss":43.0,"used":true,"health":1},{"PRN":6,"gnssid":0,"svid":6,"az":56.0,"el":51.0,"ss":36.0,"used":true,"health":1},{"PRN":19,"gnssid":0,"svid":19,"az":68.0,"el":24.0,"ss":28.0,"used":true,"health":1},{"PRN":20,"gnssid":0,"svid":20,"az":145.0,"el":22.0,"ss":25.0,"used":true,"health":1},{"PRN":78,"gnssid":6,"svid":14,"az":156.0,"el":42.0,"ss":36.0,"used":true,"health":1},{"PRN":88,"gnssid":6,"svid":24,"az":37.0,"el":41.0,"ss":35.0,"used":true,"health":1},{"PRN":79,"gnssid":6,"svid":15,"az":295.0,"el":78.0,"ss":36.0,"used":true,"health":1},{"PRN":80,"gnssid":6,"svid":16,"az":325.0,"el":24.0,"ss":47.0,"used":true,"health":1},{"PRN":29,"gnssid":0,"svid":29,"az":262.0,"el":11.0,"ss":0.0,"used":false,"health":1}]}
$GPGSV,4,1,13,25,38,307,44,24,28,210,24,11,72,137,35,12,72,311,43*7B
$GPGSV,4,2,13,06,51,056,36,19,24,068,28,20,22,145,25,78,42,156,36*78
$GPGSV,4,3,13,88,41,037,35,79,78,295,36,80,24,325,47,29,11,262,00*75
$GPGSV,4,4,13,81,75,268,00*4C
{"class":"SKY","time":"2024-03-05T22:35:40.000Z","gdop":1.89,"hdop":0.86,"pdop":1.63,"tdop":0.97,"xdop":0.64,"ydop":0.57,"vdop":1.38,"nSat":13,"uSat":11,"satellites":[{"PRN":25,"gnssid":0,"svid":25,"az":307.0,"el":38.0,"ss":44.0,"used":true,"health":1},{"PRN":24,"gnssid":0,"svid":24,"az":210.0,"el":28.0,"ss":24.0,"used":true,"health":1},{"PRN":11,"gnssid":0,"svid":11,"az":137.0,"el":72.0,"ss":35.0,"used":true,"health":1},{"PRN":12,"gnssid":0,"svid":12,"az":311.0,"el":72.0,"ss":43.0,"used":true,"health":1},{"PRN":6,"gnssid":0,"svid":6,"az":56.0,"el":51.0,"ss":36.0,"used":true,"health":1},{"PRN":19,"gnssid":0,"svid":19,"az":68.0,"el":24.0,"ss":28.0,"used":true,"health":1},{"PRN":20,"gnssid":0,"svid":20,"az":145.0,"el":22.0,"ss":25.0,"used":true,"health":1},{"PRN":78,"gnssid":6,"svid":14,"az":156.0,"el":42.0,"ss":36.0,"used":true,"health":1},{"PRN":88,"gnssid":6,"svid":24,"az":37.0,"el":41.0,"ss":35.0,"used":true,"health":1},{"PRN":79,"gnssid":6,"svid":15,"az":295.0,"el":78.0,"ss":36.0,"used":true,"health":1},{"PRN":80,"gnssid":6,"svid":16,"az":325.0,"el":24.0,"ss":47.0,"used":true,"health":1},{"PRN":29,"gnssid":0,"svid":29,"az":262.0,"el":11.0,"ss":0.0,"used":false,"health":1},{"PRN":81,"gnssid":6,"svid":17,"az":268.0,"el":75.0,"ss":0.0,"used":false,"health":1}]}
$GPGGA,223541.00,4404.1294522,N,12118.8579604,W,7,11,0.86,1138.98,M,-22.155,M,,*66
$GPRMC,223541.00,A,4404.1294522,N,12118.8579604,W,0.0000,,050324,14.4,E*63
$GPGSA,A,3,25,24,11,12,6,19,20,78,88,79,80,,1.6,0.9,1.4*0E
$GPGBS,223541.00,9.604,8.620,31.810,,,,*7E
{"class":"TPV","status":7,"mode":3,"time":"2024-03-05T22:35:41.000Z","leapseconds":18,"ept":0.005,"lat":44.068824204,"lon":-121.314299340,"altHAE":1116.8286,"altMSL":1138.9834,"alt":1138.9834,"epx":9.604,"epy":8.620,"epv":31.810,"magvar":14.4,"speed":0.000,"climb":0.000,"geoidSep":-22.155,"eph":16.346,"sep":30.947,"clockbias":18782,"clockdrift":209,"temp":32.295}
{"class":"SKY","time":"2024-03-05T22:35:40.000Z","gdop":1.89,"hdop":0.86,"pdop":1.63,"tdop":1.00,"xdop":0.64,"ydop":0.57,"vdop":1.38}
$GPGGA,223542.00,4404.1294522,N,12118.8579604,W,7,11,,1138.98,M,-22.155,M,,*75
$GPRMC,223542.00,A,4404.1294522,N,12118.8579604,W,0.0000,,050324,14.4,E*60
$GPGSA,A,3,25,24,11,12,6,19,20,78,88,79,80,,,,*2B
{"class":"TPV","status":7,"mode":3,"time":"2024-03-05T22:35:42.000Z","leapseconds":18,"ept":0.005,"lat":44.068824204,"lon":-121.314299340,"altHAE":1116.8286,"altMSL":1138.9834,"alt":1138.9834,"magvar":14.4,"speed":0.000,"climb":0.000,"geoidSep":-22.155,"clockbias":-209,"temp":32.299}
$GPGGA,223542.00,4404.1294522,N,12118.8579604,W,7,11,,1138.98,M,-22.155,M,,*75
$GPRMC,223542.00,A,4404.1294522,N,12118.8579604,W,0.0000,,050324,14.4,E*60
$GPGSA,A,3,25,24,11,12,6,19,20,78,88,79,80,,,,*2B
{"class":"TPV","status":7,"mode":3,"time":"2024-03-05T22:35:42.000Z","leapseconds":18,"ept":0.005,"lat":44.068824204,"lon":-121.314299340,"altHAE":1116.8286,"altMSL":1138.9834,"alt":1138.9834,"magvar":14.4,"speed":0.000,"climb":0.000,"geoidSep":-22.155,"clockbias":18993,"clockdrift":209,"temp":32.299}
{"class":"SKY","time":"2024-03-05T22:35:40.000Z","tdop":1.00}
$GPGGA,223543.00,4404.1294522,N,12118.8579604,W,7,11,,1138.98,M,-22.155,M,,*74
$GPRMC,223543.00,A,4404.1294522,N,12118.8579604,W,0.0000,,050324,14.4,E*61
$GPGSA,A,3,25,24,11,12,6,19,20,78,88,79,80,,,,*2B
{"class":"TPV","status":7,"mode":3,"time":"2024-03-05T22:35:43.000Z","leapseconds":18,"ept":0.005,"lat":44.068824204,"lon":-121.314299340,"altHAE":1116.8286,"altMSL":1138.9834,"alt":1138.9834,"magvar":14.4,"speed":0.000,"climb":0.000,"geoidSep":-22.155,"clockbias":-209,"temp":32.303}
