$GPRMC,040929.00,V,,S,,W,0.0000,0.000,120419,,*22
$GPGSA,A,1,,,,,,,,,,,,,,,,*32
{"class":"TPV","mode":1,"time":"2019-04-12T04:09:29.000Z","ept":0.005}
$GPRMC,040930.00,V,2037.7075,N,08704.0535,W,,,120419,-2.0,W*6A
$GPGSA,A,1,,,,,,,,,,,,,2.9,2.3,1.7*3C
{"class":"TPV","mode":0,"time":"2019-04-12T04:09:30.000Z","ept":0.005}
$GPGGA,040930.00,2037.7075,N,08704.0535,W,1,05,2.34,27.90,M,-15.010,M,,*6F
$GPRMC,040930.00,A,2037.7075,N,08704.0535,W,0.0000,0.000,120419,-2.0,W*4D
$GPGSA,A,3,,,,,,,,,,,,,2.9,2.3,1.7*3E
{"class":"TPV","mode":3,"time":"2019-04-12T04:09:30.000Z","ept":0.005,"lat":20.628457567,"lon":-87.067558169,"altHAE":12.8922,"altMSL":27.9021,"alt":27.9021,"epv":39.373,"track":0.0000,"magtrack":358.0076,"magvar":-2.0,"speed":0.000,"climb":0.000,"velN":0.000,"velE":0.000,"velD":-0.000,"geoidSep":-15.010,"eph":44.377,"sep":55.020}
$GPRMC,040931.00,V,2037.7075,N,08704.0535,W,,,120419,-2.0,W*6B
$GPGSA,A,1,,,,,,,,,,,,,,,,*32
{"class":"TPV","mode":1,"time":"2019-04-12T04:09:31.000Z","ept":0.005}
$GPGGA,040931.00,2037.7075,N,08704.0535,W,1,05,2.34,27.90,M,-15.010,M,,*6E
$GPRMC,040931.00,A,2037.7075,N,08704.0535,W,0.0000,0.000,120419,-2.0,W*4C
$GPGSA,A,3,,,,,,,,,,,,,2.9,2.3,1.7*3E
{"class":"TPV","mode":3,"time":"2019-04-12T04:09:31.000Z","ept":0.005,"lat":20.628457697,"lon":-87.067558187,"altHAE":12.8941,"altMSL":27.9039,"alt":27.9039,"epv":39.384,"track":0.0000,"magtrack":358.0076,"magvar":-2.0,"speed":0.000,"climb":0.000,"epc":78.76,"velN":0.000,"velE":0.000,"velD":-0.000,"geoidSep":-15.010,"eph":44.392,"sep":55.038}
$GPZDA,040932.00,12,04,2019,00,00*67
$GPGGA,040932.00,2037.7075,N,08704.0535,W,1,05,2.34,27.91,M,-15.010,M,,*6C
$GPRMC,040932.00,A,2037.7075,N,08704.0535,W,0.0308,,120419,-2.0,W*6A
$GPGSA,A,3,,,,,,,,,,,,,2.9,2.3,1.7*3E
{"class":"TPV","mode":3,"time":"2019-04-12T04:09:32.000Z","ept":0.005,"lat":20.628457840,"lon":-87.067558197,"altHAE":12.8959,"altMSL":27.9058,"alt":27.9058,"epv":39.384,"magvar":-2.0,"speed":0.016,"climb":0.002,"epc":78.77,"geoidSep":-15.010,"eph":44.392,"sep":55.038}
$GPGGA,040932.00,2037.7075,N,08704.0535,W,1,05,2.34,27.91,M,-15.010,M,,*6C
$GPRMC,040932.00,A,2037.7075,N,08704.0535,W,0.0308,0.000,120419,-2.0,W*44
$GPGSA,A,3,,,,,,,,,,,,,2.9,2.3,1.7*3E
{"class":"TPV","mode":3,"time":"2019-04-12T04:09:32.000Z","ept":0.005,"lat":20.628457840,"lon":-87.067558197,"altHAE":12.8959,"altMSL":27.9058,"alt":27.9058,"epv":39.384,"track":0.0000,"magtrack":358.0076,"magvar":-2.0,"speed":0.016,"climb":0.002,"epc":78.77,"velN":0.000,"velE":0.000,"velD":-0.000,"geoidSep":-15.010,"eph":44.392,"sep":55.038}
$GPZDA,040933.00,12,04,2019,00,00*66
$GPGGA,040933.00,2037.7075,N,08704.0535,W,1,05,2.34,27.91,M,-15.010,M,,*6D
$GPRMC,040933.00,A,2037.7075,N,08704.0535,W,0.0324,,120419,-2.0,W*65
$GPGSA,A,3,,,,,,,,,,,,,2.9,2.3,1.7*3E
{"class":"TPV","mode":3,"time":"2019-04-12T04:09:33.000Z","ept":0.005,"lat":20.628457990,"lon":-87.067558204,"altHAE":12.8974,"altMSL":27.9073,"alt":27.9073,"epv":39.384,"magvar":-2.0,"speed":0.017,"climb":0.002,"epc":78.77,"geoidSep":-15.010,"eph":44.392,"sep":55.038}
$GPGGA,040937.53,2037.7075,N,08704.0535,W,1,05,2.34,27.91,M,-15.010,M,,*6F
$GPRMC,040937.53,A,2037.7075,N,08704.0535,W,0.0324,0.000,221206,-2.0,W*43
$GPGSA,A,3,,,,,,,,,,,,,2.9,2.3,1.7*3E
{"class":"TPV","mode":3,"time":"2006-12-22T04:09:37.531Z","leapseconds":14,"ept":0.005,"lat":20.628457990,"lon":-87.067558204,"altHAE":12.8974,"altMSL":27.9073,"alt":27.9073,"epv":39.384,"track":0.0000,"magtrack":358.0076,"magvar":-2.0,"speed":0.017,"climb":0.002,"epc":78.77,"velN":0.000,"velE":0.000,"velD":-0.000,"geoidSep":-15.010,"eph":44.392,"sep":55.038}
$GPZDA,040938.00,22,12,2006,00,00*67
$GPGGA,040938.00,2037.7075,N,08704.0535,W,1,05,2.34,27.91,M,-15.010,M,,*66
$GPRMC,040938.00,A,2037.7075,N,08704.0535,W,0.0730,,221206,-2.0,W*65
$GPGSA,A,3,,,,,,,,,,,,,2.9,2.3,1.7*3E
{"class":"TPV","mode":3,"time":"2006-12-22T04:09:38.000Z","leapseconds":14,"ept":0.005,"lat":20.628458149,"lon":-87.067558205,"altHAE":12.8990,"altMSL":27.9089,"alt":27.9089,"epv":39.393,"magvar":-2.0,"speed":0.038,"climb":0.003,"epc":168.06,"geoidSep":-15.010,"eph":44.405,"sep":55.053}
$GPGGA,040938.00,2037.7075,N,08704.0535,W,1,05,2.34,27.91,M,-15.010,M,,*66
$GPRMC,040938.00,A,2037.7075,N,08704.0535,W,0.0730,0.000,221206,-2.0,W*4B
$GPGSA,A,3,,,,,,,,,,,,,2.9,2.3,1.7*3E
{"class":"TPV","mode":3,"time":"2006-12-22T04:09:38.000Z","leapseconds":14,"ept":0.005,"lat":20.628458149,"lon":-87.067558205,"altHAE":12.8990,"altMSL":27.9089,"alt":27.9089,"epv":39.393,"track":0.0000,"magtrack":358.0076,"magvar":-2.0,"speed":0.038,"climb":0.003,"epc":168.06,"velN":0.000,"velE":0.000,"velD":-0.000,"geoidSep":-15.010,"eph":44.405,"sep":55.053}
$GPZDA,040939.00,22,12,2006,00,00*66
$GPGGA,040939.00,2037.7075,N,08704.0535,W,1,05,2.34,27.91,M,-15.010,M,,*67
$GPRMC,040939.00,A,2037.7075,N,08704.0535,W,0.0340,,221206,-2.0,W*67
$GPGSA,A,3,,,,,,,,,,,,,2.9,2.3,1.7*3E
{"class":"TPV","mode":3,"time":"2006-12-22T04:09:39.000Z","leapseconds":14,"ept":0.005,"lat":20.628458307,"lon":-87.067558207,"altHAE":12.9003,"altMSL":27.9101,"alt":27.9101,"epv":39.393,"magvar":-2.0,"speed":0.017,"climb":0.001,"epc":78.79,"geoidSep":-15.010,"eph":44.405,"sep":55.053}
$GPGGA,040939.00,2037.7075,N,08704.0535,W,1,05,2.34,27.91,M,-15.010,M,,*67
$GPRMC,040939.00,A,2037.7075,N,08704.0535,W,0.0340,0.000,221206,-2.0,W*49
$GPGSA,A,3,,,,,,,,,,,,,2.9,2.3,1.7*3E
{"class":"TPV","mode":3,"time":"2006-12-22T04:09:39.000Z","leapseconds":14,"ept":0.005,"lat":20.628458307,"lon":-87.067558207,"altHAE":12.9003,"altMSL":27.9101,"alt":27.9101,"epv":39.393,"track":0.0000,"magtrack":358.0076,"magvar":-2.0,"speed":0.017,"climb":0.001,"epc":78.79,"velN":0.000,"velE":0.000,"velD":-0.000,"geoidSep":-15.010,"eph":44.405,"sep":55.053}
$GPZDA,040940.00,22,12,2006,00,00*68
$GPGGA,040940.00,2037.7075,N,08704.0535,W,1,05,2.34,27.91,M,-15.010,M,,*69
$GPRMC,040940.00,A,2037.7075,N,08704.0535,W,0.0037,,221206,-2.0,W*6A
$GPGSA,A,3,,,,,,,,,,,,,2.9,2.3,1.7*3E
{"class":"TPV","mode":3,"time":"2006-12-22T04:09:40.000Z","leapseconds":14,"ept":0.005,"lat":20.628458324,"lon":-87.067558207,"altHAE":12.9004,"altMSL":27.9102,"alt":27.9102,"epv":39.402,"magvar":-2.0,"speed":0.002,"climb":0.000,"epc":78.80,"geoidSep":-15.010,"eph":44.419,"sep":55.068}
$GPGGA,040940.00,2037.7075,N,08704.0535,W,1,05,2.34,27.91,M,-15.010,M,,*69
$GPRMC,040940.00,A,2037.7075,N,08704.0535,W,0.0037,0.000,221206,-2.0,W*44
$GPGSA,A,3,,,,,,,,,,,,,2.9,2.3,1.7*3E
{"class":"TPV","mode":3,"time":"2006-12-22T04:09:40.000Z","leapseconds":14,"ept":0.005,"lat":20.628458324,"lon":-87.067558207,"altHAE":12.9004,"altMSL":27.9102,"alt":27.9102,"epv":39.402,"track":0.0000,"magtrack":358.0076,"magvar":-2.0,"speed":0.002,"climb":0.000,"epc":78.80,"velN":0.000,"velE":0.000,"velD":-0.000,"geoidSep":-15.010,"eph":44.419,"sep":55.068}
$GPZDA,040941.00,22,12,2006,00,00*69
$GPGGA,040941.00,2037.7075,N,08704.0535,W,1,05,2.34,27.91,M,-15.010,M,,*68
$GPRMC,040941.00,A,2037.7075,N,08704.0535,W,0.0039,,221206,-2.0,W*65
$GPGSA,A,3,,,,,,,,,,,,,2.9,2.3,1.7*3E
{"class":"TPV","mode":3,"time":"2006-12-22T04:09:41.000Z","leapseconds":14,"ept":0.005,"lat":20.628458343,"lon":-87.067558205,"altHAE":12.9005,"altMSL":27.9104,"alt":27.9104,"epv":39.402,"magvar":-2.0,"speed":0.002,"climb":0.000,"epc":78.80,"geoidSep":-15.010,"eph":44.419,"sep":55.068}
$GPGGA,040941.00,2037.7075,N,08704.0535,W,1,05,2.34,27.91,M,-15.010,M,,*68
$GPRMC,040941.00,A,2037.7075,N,08704.0535,W,0.0039,0.000,221206,-2.0,W*4B
$GPGSA,A,3,,,,,,,,,,,,,2.9,2.3,1.7*3E
{"class":"TPV","mode":3,"time":"2006-12-22T04:09:41.000Z","leapseconds":14,"ept":0.005,"lat":20.628458343,"lon":-87.067558205,"altHAE":12.9005,"altMSL":27.9104,"alt":27.9104,"epv":39.402,"track":0.0000,"magtrack":358.0076,"magvar":-2.0,"speed":0.002,"climb":0.000,"epc":78.80,"velN":0.000,"velE":0.000,"velD":-0.000,"geoidSep":-15.010,"eph":44.419,"sep":55.068}
$GPZDA,040942.00,22,12,2006,00,00*6A
$GPGGA,040942.00,2037.7075,N,08704.0535,W,1,05,2.34,27.91,M,-15.010,M,,*6B
$GPRMC,040942.00,A,2037.7075,N,08704.0535,W,0.0042,,221206,-2.0,W*6A
$GPGSA,A,3,,,,,,,,,,,,,2.9,2.3,1.7*3E
{"class":"TPV","mode":3,"time":"2006-12-22T04:09:42.000Z","leapseconds":14,"ept":0.005,"lat":20.628458362,"lon":-87.067558203,"altHAE":12.9006,"altMSL":27.9105,"alt":27.9105,"epv":39.411,"magvar":-2.0,"speed":0.002,"climb":0.000,"epc":78.81,"geoidSep":-15.010,"eph":44.432,"sep":55.083}
$GPGGA,040942.59,2037.7075,N,08704.0535,W,1,05,2.34,27.91,M,-15.010,M,,*67
$GPRMC,040942.59,A,2037.7075,N,08704.0535,W,0.0042,0.000,221206,-2.0,W*48
$GPGSA,A,3,,,,,,,,,,,,,2.9,2.3,1.7*3E
{"class":"TPV","mode":3,"time":"2006-12-22T04:09:42.594Z","leapseconds":14,"ept":0.005,"lat":20.628458362,"lon":-87.067558203,"altHAE":12.9006,"altMSL":27.9105,"alt":27.9105,"epv":39.411,"track":0.0000,"magtrack":358.0076,"magvar":-2.0,"speed":0.002,"climb":0.000,"epc":132.75,"velN":0.000,"velE":0.000,"velD":-0.000,"geoidSep":-15.010,"eph":44.432,"sep":55.083}
$GPZDA,040943.00,22,12,2006,00,00*6B
$GPGGA,040943.00,2037.7075,N,08704.0535,W,1,05,2.34,27.91,M,-15.010,M,,*6A
$GPRMC,040943.00,A,2037.7075,N,08704.0535,W,0.1045,,221206,-2.0,W*6D
$GPGSA,A,3,,,,,,,,,,,,,2.9,2.3,1.7*3E
{"class":"TPV","mode":3,"time":"2006-12-22T04:09:43.000Z","leapseconds":14,"ept":0.005,"lat":20.628458558,"lon":-87.067558182,"altHAE":12.9019,"altMSL":27.9117,"alt":27.9117,"epv":39.411,"magvar":-2.0,"speed":0.054,"climb":0.003,"epc":194.02,"geoidSep":-15.010,"eph":44.432,"sep":55.083}
$GPGGA,040943.00,2037.7075,N,08704.0535,W,1,05,2.34,27.91,M,-15.010,M,,*6A
$GPRMC,040943.00,A,2037.7075,N,08704.0535,W,0.1045,0.000,221206,-2.0,W*43
$GPGSA,A,3,,,,,,,,,,,,,2.9,2.3,1.7*3E
{"class":"TPV","mode":3,"time":"2006-12-22T04:09:43.000Z","leapseconds":14,"ept":0.005,"lat":20.628458558,"lon":-87.067558182,"altHAE":12.9019,"altMSL":27.9117,"alt":27.9117,"epv":39.411,"track":0.0000,"magtrack":358.0076,"magvar":-2.0,"speed":0.054,"climb":0.003,"epc":194.02,"velN":0.000,"velE":0.000,"velD":-0.000,"geoidSep":-15.010,"eph":44.432,"sep":55.083}
$GPZDA,040944.00,22,12,2006,00,00*6C
$GPGGA,040944.00,2037.7075,N,08704.0535,W,1,05,2.34,27.91,M,-15.010,M,,*6D
$GPRMC,040944.00,A,2037.7075,N,08704.0535,W,0.0431,,221206,-2.0,W*6C
$GPGSA,A,3,,,,,,,,,,,,,2.9,2.3,1.7*3E
{"class":"TPV","mode":3,"time":"2006-12-22T04:09:44.000Z","leapseconds":14,"ept":0.005,"lat":20.628458758,"lon":-87.067558159,"altHAE":12.9030,"altMSL":27.9128,"alt":27.9128,"epv":39.411,"magvar":-2.0,"speed":0.022,"climb":0.001,"epc":78.82,"geoidSep":-15.010,"eph":44.432,"sep":55.083}
$GPGGA,040944.00,2037.7075,N,08704.0535,W,1,05,2.34,27.91,M,-15.010,M,,*6D
$GPRMC,040944.00,A,2037.7075,N,08704.0535,W,0.0431,0.000,221206,-2.0,W*42
$GPGSA,A,3,,,,,,,,,,,,,2.9,2.3,1.7*3E
{"class":"TPV","mode":3,"time":"2006-12-22T04:09:44.000Z","leapseconds":14,"ept":0.005,"lat":20.628458758,"lon":-87.067558159,"altHAE":12.9030,"altMSL":27.9128,"alt":27.9128,"epv":39.411,"track":0.0000,"magtrack":358.0076,"magvar":-2.0,"speed":0.022,"climb":0.001,"epc":78.82,"velN":0.000,"velE":0.000,"velD":-0.000,"geoidSep":-15.010,"eph":44.432,"sep":55.083}
$GPZDA,040945.00,22,12,2006,00,00*6D
$GPGGA,040945.00,2037.7075,N,08704.0535,W,1,05,2.34,27.91,M,-15.010,M,,*6C
$GPRMC,040945.00,A,2037.7075,N,08704.0535,W,0.0430,,221206,-2.0,W*6C
$GPGSA,A,3,,,,,,,,,,,,,2.9,2.3,1.7*3E
{"class":"TPV","mode":3,"time":"2006-12-22T04:09:45.000Z","leapseconds":14,"ept":0.005,"lat":20.628458957,"lon":-87.067558137,"altHAE":12.9038,"altMSL":27.9137,"alt":27.9137,"epv":39.421,"magvar":-2.0,"speed":0.022,"climb":0.001,"epc":78.83,"geoidSep":-15.010,"eph":44.447,"sep":55.101}
$GPGGA,040945.00,2037.7075,N,08704.0535,W,1,05,2.34,27.91,M,-15.010,M,,*6C
$GPRMC,040945.00,A,2037.7075,N,08704.0535,W,0.0430,0.000,221206,-2.0,W*42
$GPGSA,A,3,,,,,,,,,,,,,2.9,2.3,1.7*3E
{"class":"TPV","mode":3,"time":"2006-12-22T04:09:45.000Z","leapseconds":14,"ept":0.005,"lat":20.628458957,"lon":-87.067558137,"altHAE":12.9038,"altMSL":27.9137,"alt":27.9137,"epv":39.421,"track":0.0000,"magtrack":358.0076,"magvar":-2.0,"speed":0.022,"climb":0.001,"epc":78.83,"velN":0.000,"velE":0.000,"velD":-0.000,"geoidSep":-15.010,"eph":44.447,"sep":55.101}
$GPZDA,040946.00,22,12,2006,00,00*6E
$GPGGA,040946.00,2037.7075,N,08704.0535,W,1,05,2.34,27.91,M,-15.010,M,,*6F
$GPRMC,040946.00,A,2037.7075,N,08704.0535,W,0.0422,,221206,-2.0,W*6C
$GPGSA,A,3,,,,,,,,,,,,,2.9,2.3,1.7*3E
{"class":"TPV","mode":3,"time":"2006-12-22T04:09:46.000Z","leapseconds":14,"ept":0.005,"lat":20.628459152,"lon":-87.067558118,"altHAE":12.9044,"altMSL":27.9143,"alt":27.9143,"epv":39.421,"magvar":-2.0,"speed":0.022,"climb":0.001,"epc":78.84,"geoidSep":-15.010,"eph":44.447,"sep":55.101}
$GPGGA,040946.00,2037.7075,N,08704.0535,W,1,05,2.34,27.91,M,-15.010,M,,*6F
$GPRMC,040946.00,A,2037.7075,N,08704.0535,W,0.0422,0.000,221206,-2.0,W*42
$GPGSA,A,3,,,,,,,,,,,,,2.9,2.3,1.7*3E
{"class":"TPV","mode":3,"time":"2006-12-22T04:09:46.000Z","leapseconds":14,"ept":0.005,"lat":20.628459152,"lon":-87.067558118,"altHAE":12.9044,"altMSL":27.9143,"alt":27.9143,"epv":39.421,"track":0.0000,"magtrack":358.0076,"magvar":-2.0,"speed":0.022,"climb":0.001,"epc":78.84,"velN":0.000,"velE":0.000,"velD":-0.000,"geoidSep":-15.010,"eph":44.447,"sep":55.101}
$GPZDA,040947.00,22,12,2006,00,00*6F
$GPGGA,040947.00,2037.7076,N,08704.0535,W,1,05,2.34,27.91,M,-15.010,M,,*6D
$GPRMC,040947.00,A,2037.7076,N,08704.0535,W,0.0418,,221206,-2.0,W*67
$GPGSA,A,3,,,,,,,,,,,,,2.9,2.3,1.7*3E
{"class":"TPV","mode":3,"time":"2006-12-22T04:09:47.000Z","leapseconds":14,"ept":0.005,"lat":20.628459346,"lon":-87.067558101,"altHAE":12.9046,"altMSL":27.9145,"alt":27.9145,"epv":39.430,"magvar":-2.0,"speed":0.021,"climb":0.000,"epc":78.85,"geoidSep":-15.010,"eph":44.461,"sep":55.116}
$GPGGA,040947.44,2037.7076,N,08704.0535,W,1,05,2.34,27.91,M,-15.010,M,,*6D
$GPRMC,040947.44,A,2037.7076,N,08704.0535,W,0.0418,0.000,221206,-2.0,W*49
$GPGSA,A,3,,,,,,,,,,,,,2.9,2.3,1.7*3E
{"class":"TPV","mode":3,"time":"2006-12-22T04:09:47.438Z","leapseconds":14,"ept":0.005,"lat":20.628459346,"lon":-87.067558101,"altHAE":12.9046,"altMSL":27.9145,"alt":27.9145,"epv":39.430,"track":0.0000,"magtrack":358.0076,"magvar":-2.0,"speed":0.021,"climb":0.000,"epc":180.25,"velN":0.000,"velE":0.000,"velD":-0.000,"geoidSep":-15.010,"eph":44.461,"sep":55.116}
$GPZDA,040948.00,22,12,2006,00,00*60
$GPGGA,040948.00,2037.7076,N,08704.0535,W,1,05,2.34,27.91,M,-15.010,M,,*62
$GPRMC,040948.00,A,2037.7076,N,08704.0535,W,0.0720,,221206,-2.0,W*60
$GPGSA,A,3,,,,,,,,,,,,,2.9,2.3,1.7*3E
{"class":"TPV","mode":3,"time":"2006-12-22T04:09:48.000Z","leapseconds":14,"ept":0.005,"lat":20.628459533,"lon":-87.067558088,"altHAE":12.9046,"altMSL":27.9144,"alt":27.9144,"epv":39.430,"magvar":-2.0,"speed":0.037,"climb":0.000,"epc":140.20,"geoidSep":-15.010,"eph":44.461,"sep":55.116}
$GPGGA,040948.00,2037.7076,N,08704.0535,W,1,05,2.34,27.91,M,-15.010,M,,*62
$GPRMC,040948.00,A,2037.7076,N,08704.0535,W,0.0720,0.000,221206,-2.0,W*4E
$GPGSA,A,3,,,,,,,,,,,,,2.9,2.3,1.7*3E
{"class":"TPV","mode":3,"time":"2006-12-22T04:09:48.000Z","leapseconds":14,"ept":0.005,"lat":20.628459533,"lon":-87.067558088,"altHAE":12.9046,"altMSL":27.9144,"alt":27.9144,"epv":39.430,"track":0.0000,"magtrack":358.0076,"magvar":-2.0,"speed":0.037,"climb":0.000,"epc":140.20,"velN":0.000,"velE":0.000,"velD":-0.000,"geoidSep":-15.010,"eph":44.461,"sep":55.116}
$GPZDA,040949.00,22,12,2006,00,00*61
$GPGGA,040949.00,2037.7076,N,08704.0535,W,1,05,2.34,27.91,M,-15.010,M,,*63
$GPRMC,040949.00,A,2037.7076,N,08704.0535,W,0.0375,,221206,-2.0,W*65
$GPGSA,A,3,,,,,,,,,,,,,2.9,2.3,1.7*3E
{"class":"TPV","mode":3,"time":"2006-12-22T04:09:49.000Z","leapseconds":14,"ept":0.005,"lat":20.628459708,"lon":-87.067558086,"altHAE":12.9042,"altMSL":27.9141,"alt":27.9141,"epv":39.440,"magvar":-2.0,"speed":0.019,"climb":0.000,"epc":78.87,"geoidSep":-15.010,"eph":44.474,"sep":55.131}
$GPGGA,040949.00,2037.7076,N,08704.0535,W,1,05,2.34,27.91,M,-15.010,M,,*63
$GPRMC,040949.00,A,2037.7076,N,08704.0535,W,0.0375,0.000,221206,-2.0,W*4B
$GPGSA,A,3,,,,,,,,,,,,,2.9,2.3,1.7*3E
{"class":"TPV","mode":3,"time":"2006-12-22T04:09:49.000Z","leapseconds":14,"ept":0.005,"lat":20.628459708,"lon":-87.067558086,"altHAE":12.9042,"altMSL":27.9141,"alt":27.9141,"epv":39.440,"track":0.0000,"magtrack":358.0076,"magvar":-2.0,"speed":0.019,"climb":0.000,"epc":78.87,"velN":0.000,"velE":0.000,"velD":-0.000,"geoidSep":-15.010,"eph":44.474,"sep":55.131}
$GPZDA,040950.00,22,12,2006,00,00*69
$GPGGA,040950.00,2037.7077,N,08704.0534,W,1,05,2.34,27.91,M,-15.010,M,,*6B
$GPRMC,040950.00,A,2037.7077,N,08704.0534,W,0.5630,,221206,-2.0,W*6C
$GPGSA,A,3,,,,,,,,,,,,,2.9,2.3,1.7*3E
{"class":"TPV","mode":3,"time":"2006-12-22T04:09:50.000Z","leapseconds":14,"ept":0.005,"lat":20.628461879,"lon":-87.067556535,"altHAE":12.9039,"altMSL":27.9137,"alt":27.9137,"epv":39.440,"magvar":-2.0,"speed":0.290,"climb":0.000,"epc":78.88,"geoidSep":-15.010,"eph":44.474,"sep":55.131}
$GPGGA,040950.00,2037.7077,N,08704.0534,W,1,04,5.94,27.91,M,-15.010,M,,*67
$GPRMC,040950.00,A,2037.7077,N,08704.0534,W,0.5630,36.764,221206,-2.0,W*72
$GPGSA,A,2,,,,,,,,,,,,,5.9,5.9,0.0*33
{"class":"TPV","mode":2,"time":"2006-12-22T04:09:50.000Z","leapseconds":14,"ept":0.005,"lat":20.628461879,"lon":-87.067556535,"altHAE":12.9039,"altMSL":27.9137,"alt":27.9137,"epv":39.440,"track":36.7642,"magtrack":34.7718,"magvar":-2.0,"speed":0.290,"eph":44.474,"sep":55.131}
$GPZDA,040951.00,22,12,2006,00,00*68
$GPGGA,040951.00,2037.7077,N,08704.0534,W,1,04,5.94,27.91,M,-15.010,M,,*66
$GPRMC,040951.00,A,2037.7077,N,08704.0534,W,0.0237,,221206,-2.0,W*6B
$GPGSA,A,3,,,,,,,,,,,,,5.9,5.9,0.0*32
{"class":"TPV","mode":3,"time":"2006-12-22T04:09:51.000Z","leapseconds":14,"ept":0.005,"lat":20.628461935,"lon":-87.067556636,"altHAE":12.9033,"altMSL":27.9132,"alt":27.9132,"epv":0.802,"magvar":-2.0,"speed":0.012,"epc":40.24,"geoidSep":-15.010,"eph":112.803,"sep":112.805}
$GPGGA,040951.00,2037.7077,N,08704.0534,W,1,04,5.94,27.91,M,-15.010,M,,*66
$GPRMC,040951.00,A,2037.7077,N,08704.0534,W,0.0237,146.790,221206,-2.0,W*48
$GPGSA,A,2,,,,,,,,,,,,,5.9,5.9,0.0*33
{"class":"TPV","mode":2,"time":"2006-12-22T04:09:51.000Z","leapseconds":14,"ept":0.005,"lat":20.628461935,"lon":-87.067556636,"altHAE":12.9033,"altMSL":27.9132,"alt":27.9132,"epv":0.802,"track":146.7902,"magtrack":144.7978,"magvar":-2.0,"speed":0.012,"eph":112.803,"sep":112.805}
$GPZDA,040952.00,22,12,2006,00,00*6B
$GPGGA,040952.00,2037.7076,N,08704.0535,W,1,04,5.94,27.91,M,-15.010,M,,*65
$GPRMC,040952.00,A,2037.7076,N,08704.0535,W,0.5792,,221206,-2.0,W*67
$GPGSA,A,2,,,,,,,,,,,,,5.9,5.9,0.0*33
{"class":"TPV","mode":2,"time":"2006-12-22T04:09:52.000Z","leapseconds":14,"ept":0.005,"lat":20.628459841,"lon":-87.067558434,"altHAE":12.9022,"altMSL":27.9121,"alt":27.9121,"magvar":-2.0,"speed":0.298,"eph":112.803,"sep":112.805}
$GPGGA,040952.44,2037.7076,N,08704.0535,W,1,04,5.95,27.91,M,-15.010,M,,*64
$GPRMC,040952.44,A,2037.7076,N,08704.0535,W,0.5792,212.494,221206,-2.0,W*41
$GPGSA,A,2,,,,,,,,,,,,,5.9,5.9,0.0*33
{"class":"TPV","mode":2,"time":"2006-12-22T04:09:52.438Z","leapseconds":14,"ept":0.005,"lat":20.628459841,"lon":-87.067558434,"altHAE":12.9022,"altMSL":27.9121,"alt":27.9121,"track":212.4936,"magtrack":210.5011,"magvar":-2.0,"speed":0.298,"eph":112.803,"sep":112.805}
$GPZDA,040953.00,22,12,2006,00,00*6A
$GPGGA,040953.00,2037.7059,N,08704.0550,W,1,04,5.95,27.90,M,-15.010,M,,*6A
$GPRMC,040953.00,A,2037.7059,N,08704.0550,W,14.2793,,221206,-2.0,W*5B
$GPGSA,A,2,,,,,,,,,,,,,5.9,5.9,0.0*33
{"class":"TPV","mode":2,"time":"2006-12-22T04:09:53.000Z","leapseconds":14,"ept":0.005,"lat":20.628431397,"lon":-87.067584101,"altHAE":12.8878,"altMSL":27.8975,"alt":27.8975,"magvar":-2.0,"speed":7.346,"eph":113.000,"sep":113.001}
$GPGGA,040953.00,2037.7059,N,08704.0550,W,1,04,5.95,27.90,M,-15.010,M,,*6A
$GPRMC,040953.00,A,2037.7059,N,08704.0550,W,14.2793,0.000,221206,-2.0,W*75
$GPGSA,A,2,,,,,,,,,,,,,5.9,5.9,0.0*33
{"class":"TPV","mode":2,"time":"2006-12-22T04:09:53.000Z","leapseconds":14,"ept":0.005,"lat":20.628431397,"lon":-87.067584101,"altHAE":12.8878,"altMSL":27.8975,"alt":27.8975,"track":0.0000,"magtrack":358.0076,"magvar":-2.0,"speed":7.346,"eph":113.000,"sep":113.001}
$GPZDA,040954.00,22,12,2006,00,00*6D
$GPGGA,040954.00,2037.7053,N,08704.0556,W,1,04,5.95,27.89,M,-15.010,M,,*69
$GPRMC,040954.00,A,2037.7053,N,08704.0556,W,2.6241,,221206,-2.0,W*69
$GPGSA,A,2,,,,,,,,,,,,,5.9,5.9,0.0*33
{"class":"TPV","mode":2,"time":"2006-12-22T04:09:54.000Z","leapseconds":14,"ept":0.005,"lat":20.628422135,"lon":-87.067592525,"altHAE":12.8830,"altMSL":27.8928,"alt":27.8928,"magvar":-2.0,"speed":1.350,"eph":113.000,"sep":113.001}
$GPGGA,040954.00,2037.7053,N,08704.0556,W,1,04,5.95,27.89,M,-15.010,M,,*69
$GPRMC,040954.00,A,2037.7053,N,08704.0556,W,2.6241,0.000,221206,-2.0,W*47
$GPGSA,A,2,,,,,,,,,,,,,6.0,6.0,0.0*33
{"class":"TPV","mode":2,"time":"2006-12-22T04:09:54.000Z","leapseconds":14,"ept":0.005,"lat":20.628422135,"lon":-87.067592525,"altHAE":12.8830,"altMSL":27.8928,"alt":27.8928,"track":0.0000,"magtrack":358.0076,"magvar":-2.0,"speed":1.350,"eph":113.000,"sep":113.001}
$GPZDA,040955.00,22,12,2006,00,00*6C
$GPGGA,040955.00,2037.7051,N,08704.0558,W,1,04,5.95,27.89,M,-15.010,M,,*64
$GPRMC,040955.00,A,2037.7051,N,08704.0558,W,1.3091,,221206,-2.0,W*6D
$GPGSA,A,2,,,,,,,,,,,,,6.0,6.0,0.0*33
{"class":"TPV","mode":2,"time":"2006-12-22T04:09:55.000Z","leapseconds":14,"ept":0.005,"lat":20.628417512,"lon":-87.067596726,"altHAE":12.8807,"altMSL":27.8904,"alt":27.8904,"magvar":-2.0,"speed":0.673,"eph":113.097,"sep":113.099}
$GPGGA,040955.00,2037.7051,N,08704.0558,W,1,04,5.96,27.89,M,-15.010,M,,*67
$GPRMC,040955.00,A,2037.7051,N,08704.0558,W,1.3091,0.000,221206,-2.0,W*43
$GPGSA,A,2,,,,,,,,,,,,,6.0,6.0,0.0*33
{"class":"TPV","mode":2,"time":"2006-12-22T04:09:55.000Z","leapseconds":14,"ept":0.005,"lat":20.628417512,"lon":-87.067596726,"altHAE":12.8807,"altMSL":27.8904,"alt":27.8904,"track":0.0000,"magtrack":358.0076,"magvar":-2.0,"speed":0.673,"eph":113.097,"sep":113.099}
$GPZDA,040956.00,22,12,2006,00,00*6F
$GPGGA,040956.00,2037.7049,N,08704.0559,W,1,04,5.96,27.89,M,-15.010,M,,*6C
$GPRMC,040956.00,A,2037.7049,N,08704.0559,W,0.7525,,221206,-2.0,W*69
$GPGSA,A,2,,,,,,,,,,,,,6.0,6.0,0.0*33
{"class":"TPV","mode":2,"time":"2006-12-22T04:09:56.000Z","leapseconds":14,"ept":0.005,"lat":20.628414864,"lon":-87.067599151,"altHAE":12.8792,"altMSL":27.8890,"alt":27.8890,"magvar":-2.0,"speed":0.387,"eph":113.257,"sep":113.259}
$GPGGA,040956.00,2037.7049,N,08704.0559,W,1,04,5.96,27.89,M,-15.010,M,,*6C
$GPRMC,040956.00,A,2037.7049,N,08704.0559,W,0.7525,0.000,221206,-2.0,W*47
$GPGSA,A,2,,,,,,,,,,,,,6.0,6.0,0.0*33
{"class":"TPV","mode":2,"time":"2006-12-22T04:09:56.000Z","leapseconds":14,"ept":0.005,"lat":20.628414864,"lon":-87.067599151,"altHAE":12.8792,"altMSL":27.8890,"alt":27.8890,"track":0.0000,"magtrack":358.0076,"magvar":-2.0,"speed":0.387,"eph":113.257,"sep":113.259}
$GPZDA,040957.00,22,12,2006,00,00*6E
$GPGGA,040957.00,2037.7048,N,08704.0560,W,1,04,5.96,27.89,M,-15.010,M,,*66
$GPRMC,040957.00,A,2037.7048,N,08704.0560,W,0.4636,,221206,-2.0,W*61
$GPGSA,A,2,,,,,,,,,,,,,6.0,6.0,0.0*33
{"class":"TPV","mode":2,"time":"2006-12-22T04:09:57.000Z","leapseconds":14,"ept":0.005,"lat":20.628413245,"lon":-87.067600661,"altHAE":12.8783,"altMSL":27.8880,"alt":27.8880,"magvar":-2.0,"speed":0.239,"eph":113.257,"sep":113.259}
$GPGGA,040957.53,2037.7048,N,08704.0560,W,1,04,5.97,27.89,M,-15.010,M,,*61
$GPRMC,040957.53,A,2037.7048,N,08704.0560,W,0.4636,0.000,221206,-2.0,W*49
$GPGSA,A,2,,,,,,,,,,,,,6.0,6.0,0.0*33
{"class":"TPV","mode":2,"time":"2006-12-22T04:09:57.531Z","leapseconds":14,"ept":0.005,"lat":20.628413245,"lon":-87.067600661,"altHAE":12.8783,"altMSL":27.8880,"alt":27.8880,"track":0.0000,"magtrack":358.0076,"magvar":-2.0,"speed":0.239,"eph":113.257,"sep":113.259}
$GPZDA,040958.00,22,12,2006,00,00*61
$GPGGA,040958.00,2037.7047,N,08704.0561,W,1,04,5.97,27.89,M,-15.010,M,,*66
$GPRMC,040958.00,A,2037.7047,N,08704.0561,W,0.6695,,221206,-2.0,W*6B
$GPGSA,A,2,,,,,,,,,,,,,6.0,6.0,0.0*33
{"class":"TPV","mode":2,"time":"2006-12-22T04:09:58.000Z","leapseconds":14,"ept":0.005,"lat":20.628412157,"lon":-87.067601693,"altHAE":12.8776,"altMSL":27.8874,"alt":27.8874,"magvar":-2.0,"speed":0.344,"eph":113.449,"sep":113.451}
$GPGGA,040958.00,2037.7047,N,08704.0561,W,1,04,5.97,27.89,M,-15.010,M,,*66
$GPRMC,040958.00,A,2037.7047,N,08704.0561,W,0.6695,0.000,221206,-2.0,W*45
$GPGSA,A,2,,,,,,,,,,,,,6.0,6.0,0.0*33
{"class":"TPV","mode":2,"time":"2006-12-22T04:09:58.000Z","leapseconds":14,"ept":0.005,"lat":20.628412157,"lon":-87.067601693,"altHAE":12.8776,"altMSL":27.8874,"alt":27.8874,"track":0.0000,"magtrack":358.0076,"magvar":-2.0,"speed":0.344,"eph":113.449,"sep":113.451}
$GPZDA,040959.00,22,12,2006,00,00*60
$GPGGA,040959.00,2037.7047,N,08704.0561,W,1,04,5.97,27.89,M,-15.010,M,,*67
$GPRMC,040959.00,A,2037.7047,N,08704.0561,W,0.2105,,221206,-2.0,W*60
$GPGSA,A,2,,,,,,,,,,,,,6.0,6.0,0.0*33
{"class":"TPV","mode":2,"time":"2006-12-22T04:09:59.000Z","leapseconds":14,"ept":0.005,"lat":20.628411442,"lon":-87.067602401,"altHAE":12.8772,"altMSL":27.8869,"alt":27.8869,"magvar":-2.0,"speed":0.108,"eph":113.449,"sep":113.451}
$GPGGA,040959.00,2037.7047,N,08704.0561,W,1,04,5.98,27.89,M,-15.010,M,,*68
$GPRMC,040959.00,A,2037.7047,N,08704.0561,W,0.2105,0.000,221206,-2.0,W*4E
$GPGSA,A,2,,,,,,,,,,,,,6.0,6.0,0.0*33
{"class":"TPV","mode":2,"time":"2006-12-22T04:09:59.000Z","leapseconds":14,"ept":0.005,"lat":20.628411442,"lon":-87.067602401,"altHAE":12.8772,"altMSL":27.8869,"alt":27.8869,"track":0.0000,"magtrack":358.0076,"magvar":-2.0,"speed":0.108,"eph":113.449,"sep":113.451}
$GPZDA,041000.00,22,12,2006,00,00*64
$GPGGA,041000.00,2037.7046,N,08704.0562,W,1,04,5.98,27.89,M,-15.010,M,,*6E
$GPRMC,041000.00,A,2037.7046,N,08704.0562,W,0.1835,,221206,-2.0,W*6F
$GPGSA,A,2,,,,,,,,,,,,,6.0,6.0,0.0*33
{"class":"TPV","mode":2,"time":"2006-12-22T04:10:00.000Z","leapseconds":14,"ept":0.005,"lat":20.628410818,"lon":-87.067603019,"altHAE":12.8767,"altMSL":27.8864,"alt":27.8864,"magvar":-2.0,"speed":0.094,"eph":113.680,"sep":113.681}
$GPGGA,041000.00,2037.7046,N,08704.0562,W,1,04,5.98,27.89,M,-15.010,M,,*6E
$GPRMC,041000.00,A,2037.7046,N,08704.0562,W,0.1835,0.000,221206,-2.0,W*41
$GPGSA,A,2,,,,,,,,,,,,,6.0,6.0,0.0*33
{"class":"TPV","mode":2,"time":"2006-12-22T04:10:00.000Z","leapseconds":14,"ept":0.005,"lat":20.628410818,"lon":-87.067603019,"altHAE":12.8767,"altMSL":27.8864,"alt":27.8864,"track":0.0000,"magtrack":358.0076,"magvar":-2.0,"speed":0.094,"eph":113.680,"sep":113.681}
$GPZDA,041001.00,22,12,2006,00,00*65
$GPGGA,041001.00,2037.7046,N,08704.0562,W,1,04,5.98,27.89,M,-15.010,M,,*6F
$GPRMC,041001.00,A,2037.7046,N,08704.0562,W,0.1399,,221206,-2.0,W*63
$GPGSA,A,2,,,,,,,,,,,,,6.0,6.0,0.0*33
{"class":"TPV","mode":2,"time":"2006-12-22T04:10:01.000Z","leapseconds":14,"ept":0.005,"lat":20.628410348,"lon":-87.067603497,"altHAE":12.8764,"altMSL":27.8861,"alt":27.8861,"magvar":-2.0,"speed":0.072,"eph":113.680,"sep":113.681}
$GPGGA,041001.00,2037.7046,N,08704.0562,W,1,04,5.99,27.89,M,-15.010,M,,*6E
$GPRMC,041001.00,A,2037.7046,N,08704.0562,W,0.1399,0.000,221206,-2.0,W*4D
$GPGSA,A,2,,,,,,,,,,,,,6.0,6.0,0.0*33
{"class":"TPV","mode":2,"time":"2006-12-22T04:10:01.000Z","leapseconds":14,"ept":0.005,"lat":20.628410348,"lon":-87.067603497,"altHAE":12.8764,"altMSL":27.8861,"alt":27.8861,"track":0.0000,"magtrack":358.0076,"magvar":-2.0,"speed":0.072,"eph":113.680,"sep":113.681}
$GPZDA,041002.00,22,12,2006,00,00*66
$GPGGA,041002.00,2037.7046,N,08704.0562,W,1,04,5.99,27.89,M,-15.010,M,,*6D
$GPRMC,041002.00,A,2037.7046,N,08704.0562,W,0.1274,,221206,-2.0,W*62
$GPGSA,A,2,,,,,,,,,,,,,6.0,6.0,0.0*33
{"class":"TPV","mode":2,"time":"2006-12-22T04:10:02.000Z","leapseconds":14,"ept":0.005,"lat":20.628409918,"lon":-87.067603928,"altHAE":12.8761,"altMSL":27.8858,"alt":27.8858,"magvar":-2.0,"speed":0.066,"eph":113.887,"sep":113.889}
$GPGGA,041002.59,2037.7046,N,08704.0562,W,1,04,5.99,27.89,M,-15.010,M,,*61
$GPRMC,041002.59,A,2037.7046,N,08704.0562,W,0.1274,0.000,221206,-2.0,W*40
$GPGSA,A,2,,,,,,,,,,,,,6.0,6.0,0.0*33
{"class":"TPV","mode":2,"time":"2006-12-22T04:10:02.594Z","leapseconds":14,"ept":0.005,"lat":20.628409918,"lon":-87.067603928,"altHAE":12.8761,"altMSL":27.8858,"alt":27.8858,"track":0.0000,"magtrack":358.0076,"magvar":-2.0,"speed":0.066,"eph":113.887,"sep":113.889}
$GPZDA,041003.00,22,12,2006,00,00*67
$GPGGA,041003.00,2037.7046,N,08704.0563,W,1,04,5.99,27.89,M,-15.010,M,,*6D
$GPRMC,041003.00,A,2037.7046,N,08704.0563,W,0.2160,,221206,-2.0,W*67
$GPGSA,A,2,,,,,,,,,,,,,6.0,6.0,0.0*33
{"class":"TPV","mode":2,"time":"2006-12-22T04:10:03.000Z","leapseconds":14,"ept":0.005,"lat":20.628409633,"lon":-87.067604238,"altHAE":12.8759,"altMSL":27.8856,"alt":27.8856,"magvar":-2.0,"speed":0.111,"eph":113.887,"sep":113.889}
$GPGGA,041003.00,2037.7046,N,08704.0563,W,1,04,6.00,27.89,M,-15.010,M,,*6E
$GPRMC,041003.00,A,2037.7046,N,08704.0563,W,0.2160,0.000,221206,-2.0,W*49
$GPGSA,A,2,,,,,,,,,,,,,6.0,6.0,0.0*33
{"class":"TPV","mode":2,"time":"2006-12-22T04:10:03.000Z","leapseconds":14,"ept":0.005,"lat":20.628409633,"lon":-87.067604238,"altHAE":12.8759,"altMSL":27.8856,"alt":27.8856,"track":0.0000,"magtrack":358.0076,"magvar":-2.0,"speed":0.111,"eph":113.887,"sep":113.889}
$GPZDA,041004.00,22,12,2006,00,00*60
$GPGGA,041004.00,2037.7046,N,08704.0563,W,1,04,6.00,27.89,M,-15.010,M,,*69
$GPRMC,041004.00,A,2037.7046,N,08704.0563,W,0.0670,,221206,-2.0,W*64
$GPGSA,A,2,,,,,,,,,,,,,6.0,6.0,0.0*33
{"class":"TPV","mode":2,"time":"2006-12-22T04:10:04.000Z","leapseconds":14,"ept":0.005,"lat":20.628409424,"lon":-87.067604483,"altHAE":12.8758,"altMSL":27.8855,"alt":27.8855,"magvar":-2.0,"speed":0.034,"eph":113.978,"sep":113.980}
$GPGGA,041004.00,2037.7046,N,08704.0563,W,1,04,6.01,27.89,M,-15.010,M,,*68
$GPRMC,041004.00,A,2037.7046,N,08704.0563,W,0.0670,0.000,221206,-2.0,W*4A
$GPGSA,A,2,,,,,,,,,,,,,6.0,6.0,0.0*33
{"class":"TPV","mode":2,"time":"2006-12-22T04:10:04.000Z","leapseconds":14,"ept":0.005,"lat":20.628409424,"lon":-87.067604483,"altHAE":12.8758,"altMSL":27.8855,"alt":27.8855,"track":0.0000,"magtrack":358.0076,"magvar":-2.0,"speed":0.034,"eph":113.978,"sep":113.980}
$GPZDA,041005.00,22,12,2006,00,00*61
$GPGGA,041005.00,2037.7046,N,08704.0563,W,1,04,6.01,27.89,M,-15.010,M,,*69
$GPRMC,041005.00,A,2037.7046,N,08704.0563,W,0.0425,,221206,-2.0,W*67
$GPGSA,A,2,,,,,,,,,,,,,6.0,6.0,0.0*33
{"class":"TPV","mode":2,"time":"2006-12-22T04:10:05.000Z","leapseconds":14,"ept":0.005,"lat":20.628409303,"lon":-87.067604649,"altHAE":12.8756,"altMSL":27.8853,"alt":27.8853,"magvar":-2.0,"speed":0.022,"eph":114.095,"sep":114.097}
$GPGGA,041005.00,2037.7046,N,08704.0563,W,1,04,6.01,27.89,M,-15.010,M,,*69
$GPRMC,041005.00,A,2037.7046,N,08704.0563,W,0.0425,0.000,221206,-2.0,W*49
$GPGSA,A,2,,,,,,,,,,,,,6.0,6.0,0.0*33
{"class":"TPV","mode":2,"time":"2006-12-22T04:10:05.000Z","leapseconds":14,"ept":0.005,"lat":20.628409303,"lon":-87.067604649,"altHAE":12.8756,"altMSL":27.8853,"alt":27.8853,"track":0.0000,"magtrack":358.0076,"magvar":-2.0,"speed":0.022,"eph":114.095,"sep":114.097}
$GPZDA,041006.00,22,12,2006,00,00*62
$GPGGA,041006.00,2037.7046,N,08704.0563,W,1,04,6.01,27.89,M,-15.010,M,,*6A
$GPRMC,041006.00,A,2037.7046,N,08704.0563,W,0.0642,,221206,-2.0,W*67
$GPGSA,A,2,,,,,,,,,,,,,6.0,6.0,0.0*33
{"class":"TPV","mode":2,"time":"2006-12-22T04:10:06.000Z","leapseconds":14,"ept":0.005,"lat":20.628409574,"lon":-87.067604517,"altHAE":12.8756,"altMSL":27.8853,"alt":27.8853,"magvar":-2.0,"speed":0.033,"eph":114.095,"sep":114.097}
$GPGGA,041006.00,2037.7046,N,08704.0563,W,1,04,6.02,27.89,M,-15.010,M,,*69
$GPRMC,041006.00,A,2037.7046,N,08704.0563,W,0.0642,0.000,221206,-2.0,W*49
$GPGSA,A,2,,,,,,,,,,,,,6.0,6.0,0.0*33
{"class":"TPV","mode":2,"time":"2006-12-22T04:10:06.000Z","leapseconds":14,"ept":0.005,"lat":20.628409574,"lon":-87.067604517,"altHAE":12.8756,"altMSL":27.8853,"alt":27.8853,"track":0.0000,"magtrack":358.0076,"magvar":-2.0,"speed":0.033,"eph":114.095,"sep":114.097}
$GPZDA,041007.00,22,12,2006,00,00*63
$GPGGA,041007.00,2037.7046,N,08704.0562,W,1,04,6.02,27.89,M,-15.010,M,,*69
$GPRMC,041007.00,A,2037.7046,N,08704.0562,W,0.1407,,221206,-2.0,W*65
$GPGSA,A,2,,,,,,,,,,,,,6.0,6.0,0.0*33
{"class":"TPV","mode":2,"time":"2006-12-22T04:10:07.000Z","leapseconds":14,"ept":0.005,"lat":20.628410134,"lon":-87.067604158,"altHAE":12.8755,"altMSL":27.8852,"alt":27.8852,"magvar":-2.0,"speed":0.072,"eph":114.331,"sep":114.333}
$GPGGA,041007.44,2037.7046,N,08704.0562,W,1,04,6.02,27.89,M,-15.010,M,,*69
$GPRMC,041007.44,A,2037.7046,N,08704.0562,W,0.1407,0.000,221206,-2.0,W*4B
$GPGSA,A,2,,,,,,,,,,,,,6.0,6.0,0.0*33
{"class":"TPV","mode":2,"time":"2006-12-22T04:10:07.438Z","leapseconds":14,"ept":0.005,"lat":20.628410134,"lon":-87.067604158,"altHAE":12.8755,"altMSL":27.8852,"alt":27.8852,"track":0.0000,"magtrack":358.0076,"magvar":-2.0,"speed":0.072,"eph":114.331,"sep":114.333}
$GPZDA,041008.00,22,12,2006,00,00*6C
$GPGGA,041008.00,2037.7054,N,08704.0557,W,1,04,6.02,27.88,M,-15.010,M,,*62
$GPRMC,041008.00,A,2037.7054,N,08704.0557,W,5.7887,,221206,-2.0,W*68
$GPGSA,A,2,,,,,,,,,,,,,6.0,6.0,0.0*33
{"class":"TPV","mode":2,"time":"2006-12-22T04:10:08.000Z","leapseconds":14,"ept":0.005,"lat":20.628422923,"lon":-87.067595569,"altHAE":12.8746,"altMSL":27.8843,"alt":27.8843,"magvar":-2.0,"speed":2.978,"eph":114.331,"sep":114.333}
$GPGGA,041008.00,2037.7054,N,08704.0557,W,1,04,6.03,27.88,M,-15.010,M,,*63
$GPRMC,041008.00,A,2037.7054,N,08704.0557,W,5.7887,36.580,221206,-2.0,W*7E
$GPGSA,A,2,,,,,,,,,,,,,6.0,6.0,0.0*33
{"class":"TPV","mode":2,"time":"2006-12-22T04:10:08.000Z","leapseconds":14,"ept":0.005,"lat":20.628422923,"lon":-87.067595569,"altHAE":12.8746,"altMSL":27.8843,"alt":27.8843,"track":36.5797,"magtrack":34.5873,"magvar":-2.0,"speed":2.978,"eph":114.331,"sep":114.333}
$GPZDA,041009.00,22,12,2006,00,00*6D
$GPGGA,041009.00,2037.7055,N,08704.0557,W,1,04,6.03,27.88,M,-15.010,M,,*63
$GPRMC,041009.00,A,2037.7055,N,08704.0557,W,0.3961,,221206,-2.0,W*60
$GPGSA,A,2,,,,,,,,,,,,,6.0,6.0,0.0*33
{"class":"TPV","mode":2,"time":"2006-12-22T04:10:09.000Z","leapseconds":14,"ept":0.005,"lat":20.628424397,"lon":-87.067594400,"altHAE":12.8749,"altMSL":27.8846,"alt":27.8846,"magvar":-2.0,"speed":0.204,"eph":114.548,"sep":114.550}
$GPGGA,041009.00,2037.7055,N,08704.0557,W,1,04,6.03,27.88,M,-15.010,M,,*63
$GPRMC,041009.00,A,2037.7055,N,08704.0557,W,0.3961,213.164,221206,-2.0,W*4D
$GPGSA,A,2,,,,,,,,,,,,,6.0,6.0,0.0*33
{"class":"TPV","mode":2,"time":"2006-12-22T04:10:09.000Z","leapseconds":14,"ept":0.005,"lat":20.628424397,"lon":-87.067594400,"altHAE":12.8749,"altMSL":27.8846,"alt":27.8846,"track":213.1641,"magtrack":211.1717,"magvar":-2.0,"speed":0.204,"eph":114.548,"sep":114.550}
$GPZDA,041010.00,22,12,2006,00,00*65
$GPGGA,041010.00,2037.7055,N,08704.0556,W,1,04,6.03,27.88,M,-15.010,M,,*6A
$GPRMC,041010.00,A,2037.7055,N,08704.0556,W,0.2386,,221206,-2.0,W*6B
$GPGSA,A,2,,,,,,,,,,,,,6.0,6.0,0.0*33
{"class":"TPV","mode":2,"time":"2006-12-22T04:10:10.000Z","leapseconds":14,"ept":0.005,"lat":20.628425279,"lon":-87.067593686,"altHAE":12.8750,"altMSL":27.8848,"alt":27.8848,"magvar":-2.0,"speed":0.123,"eph":114.548,"sep":114.550}
$GPGGA,041010.00,2037.7055,N,08704.0556,W,1,04,6.04,27.88,M,-15.010,M,,*6D
$GPRMC,041010.00,A,2037.7055,N,08704.0556,W,0.2386,37.410,221206,-2.0,W*74
$GPGSA,A,2,,,,,,,,,,,,,6.0,6.0,0.0*33
{"class":"TPV","mode":2,"time":"2006-12-22T04:10:10.000Z","leapseconds":14,"ept":0.005,"lat":20.628425279,"lon":-87.067593686,"altHAE":12.8750,"altMSL":27.8848,"alt":27.8848,"track":37.4096,"magtrack":35.4172,"magvar":-2.0,"speed":0.123,"eph":114.548,"sep":114.550}
$GPZDA,041011.00,22,12,2006,00,00*64
$GPGGA,041011.00,2037.7056,N,08704.0556,W,1,04,6.04,27.88,M,-15.010,M,,*6F
$GPRMC,041011.00,A,2037.7056,N,08704.0556,W,0.2603,,221206,-2.0,W*61
$GPGSA,A,2,,,,,,,,,,,,,6.0,6.0,0.0*33
{"class":"TPV","mode":2,"time":"2006-12-22T04:10:11.000Z","leapseconds":14,"ept":0.005,"lat":20.628426358,"lon":-87.067593107,"altHAE":12.8744,"altMSL":27.8841,"alt":27.8841,"magvar":-2.0,"speed":0.134,"eph":114.769,"sep":114.771}
$GPGGA,041011.00,2037.7056,N,08704.0556,W,1,04,6.04,27.88,M,-15.010,M,,*6F
$GPRMC,041011.00,A,2037.7056,N,08704.0556,W,0.2603,0.000,221206,-2.0,W*4F
$GPGSA,A,2,,,,,,,,,,,,,6.0,6.0,0.0*33
{"class":"TPV","mode":2,"time":"2006-12-22T04:10:11.000Z","leapseconds":14,"ept":0.005,"lat":20.628426358,"lon":-87.067593107,"altHAE":12.8744,"altMSL":27.8841,"alt":27.8841,"track":0.0000,"magtrack":358.0076,"magvar":-2.0,"speed":0.134,"eph":114.769,"sep":114.771}
$GPZDA,041012.00,22,12,2006,00,00*67
$GPGGA,041012.00,2037.7057,N,08704.0555,W,1,04,6.04,27.88,M,-15.010,M,,*6E
$GPRMC,041012.00,A,2037.7057,N,08704.0555,W,0.3721,,221206,-2.0,W*60
$GPGSA,A,2,,,,,,,,,,,,,6.0,6.0,0.0*33
{"class":"TPV","mode":2,"time":"2006-12-22T04:10:12.000Z","leapseconds":14,"ept":0.005,"lat":20.628427819,"lon":-87.067592123,"altHAE":12.8744,"altMSL":27.8841,"alt":27.8841,"magvar":-2.0,"speed":0.191,"eph":114.769,"sep":114.771}
$GPGGA,041012.44,2037.7057,N,08704.0555,W,1,04,6.05,27.88,M,-15.010,M,,*6F
$GPRMC,041012.44,A,2037.7057,N,08704.0555,W,0.3721,0.000,221206,-2.0,W*4E
$GPGSA,A,2,,,,,,,,,,,,,6.1,6.1,0.0*33
{"class":"TPV","mode":2,"time":"2006-12-22T04:10:12.438Z","leapseconds":14,"ept":0.005,"lat":20.628427819,"lon":-87.067592123,"altHAE":12.8744,"altMSL":27.8841,"alt":27.8841,"track":0.0000,"magtrack":358.0076,"magvar":-2.0,"speed":0.191,"eph":114.769,"sep":114.771}
$GPZDA,041013.00,22,12,2006,00,00*66
$GPGGA,041013.00,2037.7058,N,08704.0555,W,1,04,6.05,27.88,M,-15.010,M,,*61
$GPRMC,041013.00,A,2037.7058,N,08704.0555,W,0.7168,,221206,-2.0,W*61
$GPGSA,A,2,,,,,,,,,,,,,6.1,6.1,0.0*33
{"class":"TPV","mode":2,"time":"2006-12-22T04:10:13.000Z","leapseconds":14,"ept":0.005,"lat":20.628429374,"lon":-87.067591015,"altHAE":12.8743,"altMSL":27.8841,"alt":27.8841,"magvar":-2.0,"speed":0.369,"eph":115.002,"sep":115.004}
$GPGGA,041013.00,2037.7058,N,08704.0555,W,1,04,6.05,27.88,M,-15.010,M,,*61
$GPRMC,041013.00,A,2037.7058,N,08704.0555,W,0.7168,0.000,221206,-2.0,W*4F
$GPGSA,A,2,,,,,,,,,,,,,6.1,6.1,0.0*33
{"class":"TPV","mode":2,"time":"2006-12-22T04:10:13.000Z","leapseconds":14,"ept":0.005,"lat":20.628429374,"lon":-87.067591015,"altHAE":12.8743,"altMSL":27.8841,"alt":27.8841,"track":0.0000,"magtrack":358.0076,"magvar":-2.0,"speed":0.369,"eph":115.002,"sep":115.004}
