$GPGGA,,,S,,W,1,04,2.37,,M,,M,,*7F
$GPRMC,,A,,S,,W,,,,,*22
$GPGSA,A,3,,,,,,,,,,,,,3.8,2.4,3.0*3C
{"class":"TPV","mode":3,"epv":68.490,"eph":44.949,"sep":72.261}
{"class":"SKY","hdop":2.37,"pdop":3.80,"tdop":2.18,"vdop":2.98}
$GPGGA,,,S,,W,1,04,2.37,,M,,M,,*7F
$GPRMC,,A,,S,,W,,,,,*22
$GPGSA,A,3,,,,,,,,,,,,,3.8,2.4,3.0*3C
{"class":"TPV","mode":3,"epv":68.490,"eph":44.949,"sep":72.261}
{"class":"SKY","hdop":2.37,"pdop":3.80,"tdop":2.18,"vdop":2.98}
$GPGGA,,,S,,W,1,05,1.43,,M,,M,,*7E
$GPRMC,,A,,S,,W,,,,,*22
$GPGSA,A,3,,,,,,,,,,,,,2.9,1.4,2.6*38
{"class":"TPV","mode":3,"epv":68.490,"eph":44.949,"sep":72.261}
{"class":"SKY","hdop":1.43,"pdop":2.93,"tdop":1.47,"vdop":2.56}
$GPGSV,1,1,01,19,26,250,29*48
{"class":"SKY","time":"1999-08-22T06:57:22.584Z","hdop":1.43,"pdop":2.93,"tdop":1.47,"vdop":2.56,"nSat":1,"uSat":1,"satellites":[]}
$GPGSV,1,1,02,19,26,250,29,18,26,096,35*7F
{"class":"SKY","time":"1999-08-22T06:57:22.584Z","hdop":1.43,"pdop":2.93,"tdop":1.47,"vdop":2.56,"nSat":2,"uSat":2,"satellites":[{"PRN":19,"gnssid":0,"svid":19,"az":249.7,"el":26.0,"ss":29.0,"used":true,"health":1}]}
$GPGSV,1,1,03,19,26,250,29,18,26,096,35,01,29,221,26*41
{"class":"SKY","time":"1999-08-22T06:57:22.584Z","hdop":1.43,"pdop":2.93,"tdop":1.47,"vdop":2.56,"nSat":3,"uSat":2,"satellites":[{"PRN":19,"gnssid":0,"svid":19,"az":249.7,"el":26.0,"ss":29.0,"used":true,"health":1}]}
$GPGSV,1,1,04,19,26,250,29,18,26,096,35,01,29,221,26,11,24,307,29*7F
{"class":"SKY","time":"1999-08-22T06:57:22.584Z","hdop":1.43,"pdop":2.93,"tdop":1.47,"vdop":2.56,"nSat":4,"uSat":3,"satellites":[{"PRN":19,"gnssid":0,"svid":19,"az":249.7,"el":26.0,"ss":29.0,"used":true,"health":1},{"PRN":18,"gnssid":0,"svid":18,"az":95.6,"el":26.3,"ss":35.0,"used":true,"health":1}]}
$GPGSV,2,1,05,19,26,250,29,18,26,096,35,01,29,221,26,11,24,307,29*7D
$GPGSV,2,2,05,03,08,225,28*48
{"class":"SKY","time":"1999-08-22T06:57:22.584Z","hdop":1.43,"pdop":2.93,"tdop":1.47,"vdop":2.56,"nSat":5,"uSat":3,"satellites":[{"PRN":19,"gnssid":0,"svid":19,"az":249.7,"el":26.0,"ss":29.0,"used":true,"health":1},{"PRN":18,"gnssid":0,"svid":18,"az":95.6,"el":26.3,"ss":35.0,"used":true,"health":1},{"PRN":1,"gnssid":0,"svid":1,"az":221.2,"el":29.1,"ss":26.0,"used":false,"health":1}]}
$GPGSV,2,1,06,19,26,250,29,18,26,096,35,01,29,221,26,11,24,307,29*7E
$GPGSV,2,2,06,03,08,225,28,22,65,094,38*7E
{"class":"SKY","time":"1999-08-22T06:57:22.584Z","gdop":3.59,"hdop":1.43,"pdop":2.93,"tdop":1.47,"xdop":0.75,"ydop":1.62,"vdop":2.56,"nSat":6,"uSat":4,"satellites":[{"PRN":19,"gnssid":0,"svid":19,"az":249.7,"el":26.0,"ss":29.0,"used":true,"health":1},{"PRN":18,"gnssid":0,"svid":18,"az":95.6,"el":26.3,"ss":35.0,"used":true,"health":1},{"PRN":1,"gnssid":0,"svid":1,"az":221.2,"el":29.1,"ss":26.0,"used":false,"health":1},{"PRN":11,"gnssid":0,"svid":11,"az":307.3,"el":24.4,"ss":29.0,"used":true,"health":1}]}
$GPGSV,2,1,07,19,26,250,29,18,26,096,35,01,29,221,26,11,24,307,29*7F
$GPGSV,2,2,07,03,08,225,28,22,65,094,38,09,24,045,38*4A
{"class":"SKY","time":"1999-08-22T06:57:22.584Z","gdop":3.59,"hdop":1.43,"pdop":2.93,"tdop":1.47,"xdop":0.75,"ydop":1.62,"vdop":2.56,"nSat":7,"uSat":5,"satellites":[{"PRN":19,"gnssid":0,"svid":19,"az":249.7,"el":26.0,"ss":29.0,"used":true,"health":1},{"PRN":18,"gnssid":0,"svid":18,"az":95.6,"el":26.3,"ss":35.0,"used":true,"health":1},{"PRN":1,"gnssid":0,"svid":1,"az":221.2,"el":29.1,"ss":26.0,"used":false,"health":1},{"PRN":11,"gnssid":0,"svid":11,"az":307.3,"el":24.4,"ss":29.0,"used":true,"health":1},{"PRN":3,"gnssid":0,"svid":3,"az":225.4,"el":7.9,"ss":28.0,"used":false,"health":1}]}
$GPGGA,,,S,,W,1,05,1.43,,M,,M,,*7E
$GPRMC,,A,,S,,W,,,,,*22
$GPGSA,A,3,19,18,11,22,9,,,,,,,,2.9,1.4,2.6*00
{"class":"TPV","mode":3,"epx":11.285,"epy":24.245,"epv":68.490,"eph":44.949,"sep":72.261}
{"class":"SKY","time":"1999-08-22T06:57:22.584Z","gdop":3.59,"hdop":1.43,"pdop":2.93,"tdop":1.47,"xdop":0.75,"ydop":1.62,"vdop":2.56}
$GPGGA,065729.48,,S,,W,1,05,,,M,,M,,*4B
$GPRMC,065729.48,A,,S,,W,,,261106,,*0D
$GPGSA,A,2,19,18,11,22,9,,,,,,,,,,*25
{"class":"TPV","mode":2,"time":"2006-11-26T06:57:29.477Z","leapseconds":14,"ept":0.005}
$GPGGA,065729.48,,S,,W,1,05,1.43,,M,,M,,*53
$GPRMC,065729.48,A,,S,,W,,,261106,,*0D
$GPGSA,A,3,19,18,11,22,9,,,,,,,,2.9,1.4,2.6*00
{"class":"TPV","mode":3,"time":"2006-11-26T06:57:29.477Z","leapseconds":14,"ept":0.005,"epv":58.836,"eph":27.125,"sep":55.660}
{"class":"SKY","time":"1999-08-22T06:57:22.584Z","hdop":1.43,"pdop":2.93,"tdop":1.47,"vdop":2.56}
$GPGGA,065729.48,,S,,W,1,05,1.43,,M,,M,,*53
$GPRMC,065729.48,A,,S,,W,,,261106,,*0D
$GPGSA,A,3,19,18,11,22,9,,,,,,,,2.9,1.4,2.6*00
{"class":"TPV","mode":3,"time":"2006-11-26T06:57:29.477Z","leapseconds":14,"ept":0.005,"epv":58.836,"eph":27.125,"sep":55.660}
{"class":"SKY","time":"1999-08-22T06:57:22.584Z","hdop":1.43,"pdop":2.93,"tdop":1.47,"vdop":2.56}
$GPGGA,065729.48,,S,,W,1,05,1.43,,M,,M,,*53
$GPRMC,065729.48,A,,S,,W,,,261106,,*0D
$GPGSA,A,3,19,18,11,22,9,,,,,,,,2.9,1.4,2.6*00
{"class":"TPV","mode":3,"time":"2006-11-26T06:57:29.477Z","leapseconds":14,"ept":0.005,"epv":58.836,"eph":27.125,"sep":55.660}
{"class":"SKY","time":"1999-08-22T06:57:22.584Z","hdop":1.43,"pdop":2.93,"tdop":1.47,"vdop":2.56}
$GPGSV,2,1,07,19,26,250,29,18,26,096,37,01,29,221,26,11,24,307,29*7D
$GPGSV,2,2,07,03,08,225,28,22,65,094,37,09,24,045,37*4A
{"class":"SKY","time":"2006-11-26T06:57:32.588Z","gdop":3.27,"hdop":1.43,"pdop":2.93,"tdop":1.47,"xdop":0.65,"ydop":1.27,"vdop":2.56,"nSat":7,"uSat":5,"satellites":[{"PRN":19,"gnssid":0,"svid":19,"az":249.7,"el":26.0,"ss":29.0,"used":true,"health":1},{"PRN":18,"gnssid":0,"svid":18,"az":95.6,"el":26.2,"ss":37.0,"used":true,"health":1},{"PRN":1,"gnssid":0,"svid":1,"az":221.3,"el":29.1,"ss":26.0,"used":false,"health":1},{"PRN":11,"gnssid":0,"svid":11,"az":307.3,"el":24.5,"ss":29.0,"used":true,"health":1},{"PRN":3,"gnssid":0,"svid":3,"az":225.4,"el":7.9,"ss":28.0,"used":false,"health":1}]}
$GPGGA,065729.48,,S,,W,1,05,1.43,,M,,M,,*53
$GPRMC,065729.48,A,,S,,W,,,261106,,*0D
$GPGSA,A,2,19,18,11,22,9,,,,,,,,2.9,1.4,2.6*01
$GPGBS,065729.48,9.752,19.047,58.836,,,,*40
{"class":"TPV","mode":2,"time":"2006-11-26T06:57:29.477Z","leapseconds":14,"ept":0.005,"epx":9.752,"epy":19.047,"epv":58.836,"eph":27.125,"sep":55.660}
{"class":"SKY","time":"2006-11-26T06:57:32.588Z","gdop":3.27,"hdop":1.43,"pdop":2.93,"tdop":1.47,"xdop":0.65,"ydop":1.27,"vdop":2.56}
$GPGGA,065739.46,,S,,W,1,05,1.75,,M,,M,,*59
$GPRMC,065739.46,A,,S,,W,,,261106,,*02
$GPGSA,A,3,19,18,11,22,9,,,,,,,,3.1,1.8,2.5*06
{"class":"TPV","mode":3,"time":"2006-11-26T06:57:39.455Z","leapseconds":14,"ept":0.005,"epv":57.701,"epc":11.68,"eph":33.298,"sep":58.145}
{"class":"SKY","time":"2006-11-26T06:57:32.588Z","hdop":1.75,"pdop":3.06,"tdop":1.38,"vdop":2.51}
$GPGGA,065739.46,,S,,W,1,05,1.75,,M,,M,,*59
$GPRMC,065739.46,A,,S,,W,,,261106,,*02
$GPGSA,A,3,19,18,11,22,9,,,,,,,,3.1,1.8,2.5*06
{"class":"TPV","mode":3,"time":"2006-11-26T06:57:39.455Z","leapseconds":14,"ept":0.005,"epv":57.701,"epc":11.68,"eph":33.298,"sep":58.145}
{"class":"SKY","time":"2006-11-26T06:57:32.588Z","hdop":1.75,"pdop":3.06,"tdop":1.38,"vdop":2.51}
$GPGSV,2,1,07,19,26,250,29,18,26,096,38,01,29,221,29,11,25,307,26*73
$GPGSV,2,2,07,03,08,225,28,22,65,094,38,09,24,045,38*4A
{"class":"SKY","time":"2006-11-26T06:57:39.555Z","gdop":3.36,"hdop":1.75,"pdop":3.06,"tdop":1.38,"xdop":0.93,"ydop":1.49,"vdop":2.51,"nSat":7,"uSat":5,"satellites":[{"PRN":19,"gnssid":0,"svid":19,"az":249.7,"el":26.0,"ss":29.0,"used":true,"health":1},{"PRN":18,"gnssid":0,"svid":18,"az":95.7,"el":26.2,"ss":38.0,"used":true,"health":1},{"PRN":1,"gnssid":0,"svid":1,"az":221.3,"el":29.2,"ss":29.0,"used":true,"health":1},{"PRN":11,"gnssid":0,"svid":11,"az":307.3,"el":24.5,"ss":26.0,"used":false,"health":1},{"PRN":3,"gnssid":0,"svid":3,"az":225.4,"el":7.8,"ss":28.0,"used":false,"health":1}]}
$GPGGA,065739.46,,S,,W,1,04,2.07,,M,,M,,*5E
$GPRMC,065739.46,A,,S,,W,,,261106,,*02
$GPGSA,A,3,19,18,1,22,9,,,,,,,,3.3,2.1,2.5*3F
$GPGBS,065739.46,13.933,22.280,57.701,,,,*78
{"class":"TPV","mode":3,"time":"2006-11-26T06:57:39.455Z","leapseconds":14,"ept":0.005,"epx":13.933,"epy":22.280,"epv":57.701,"eps":4.14,"epc":11.68,"eph":33.298,"sep":58.145}
{"class":"SKY","time":"2006-11-26T06:57:39.555Z","gdop":3.36,"hdop":2.07,"pdop":3.27,"tdop":1.54,"xdop":0.93,"ydop":1.49,"vdop":2.53}
$GPGGA,065739.46,,S,,W,1,04,2.07,,M,,M,,*5E
$GPRMC,065739.46,A,,S,,W,,,261106,,*02
$GPGSA,A,2,19,18,1,22,9,,,,,,,,3.3,2.1,2.5*3E
$GPGBS,065739.46,13.933,22.280,57.701,,,,*78
{"class":"TPV","mode":2,"time":"2006-11-26T06:57:39.455Z","leapseconds":14,"ept":0.005,"epx":13.933,"epy":22.280,"epv":57.701,"eps":4.14,"eph":33.298,"sep":58.145}
$GPGGA,065739.46,,S,,W,1,04,2.07,,M,,M,,*5E
$GPRMC,065739.46,A,,S,,W,,,261106,,*02
$GPGSA,A,3,19,18,1,22,9,,,,,,,,3.3,2.1,2.5*3F
$GPGBS,065739.46,13.933,22.280,57.701,,,,*78
{"class":"TPV","mode":3,"time":"2006-11-26T06:57:39.455Z","leapseconds":14,"ept":0.005,"epx":13.933,"epy":22.280,"epv":57.701,"eps":4.14,"epc":11.68,"eph":33.298,"sep":58.145}
{"class":"SKY","time":"2006-11-26T06:57:39.555Z","gdop":3.36,"hdop":2.07,"pdop":3.27,"tdop":1.54,"xdop":0.93,"ydop":1.49,"vdop":2.53}
$GPGGA,065739.46,,S,,W,1,04,2.07,,M,,M,,*5E
$GPRMC,065739.46,A,,S,,W,,,261106,,*02
$GPGSA,A,3,19,18,1,22,9,,,,,,,,3.3,2.1,2.5*3F
$GPGBS,065739.46,13.933,22.280,57.701,,,,*78
{"class":"TPV","mode":3,"time":"2006-11-26T06:57:39.455Z","leapseconds":14,"ept":0.005,"epx":13.933,"epy":22.280,"epv":57.701,"eps":4.14,"epc":11.68,"eph":33.298,"sep":58.145}
{"class":"SKY","time":"2006-11-26T06:57:39.555Z","gdop":3.36,"hdop":2.07,"pdop":3.27,"tdop":1.54,"xdop":0.93,"ydop":1.49,"vdop":2.53}
$GPGGA,065739.46,,S,,W,1,04,2.07,,M,,M,,*5E
$GPRMC,065739.46,A,,S,,W,,,261106,,*02
$GPGSA,A,3,19,18,1,22,9,,,,,,,,3.3,2.1,2.5*3F
$GPGBS,065739.46,13.933,22.280,57.701,,,,*78
{"class":"TPV","mode":3,"time":"2006-11-26T06:57:39.455Z","leapseconds":14,"ept":0.005,"epx":13.933,"epy":22.280,"epv":57.701,"eps":4.14,"epc":11.68,"eph":33.298,"sep":58.145}
{"class":"SKY","time":"2006-11-26T06:57:39.555Z","gdop":3.36,"hdop":2.07,"pdop":3.27,"tdop":1.54,"xdop":0.93,"ydop":1.49,"vdop":2.54}
$GPGGA,065744.46,,S,,W,1,04,2.07,,M,,M,,*54
$GPRMC,065744.46,A,,S,,W,,,261106,,*08
$GPGSA,A,3,19,18,1,22,9,,,,,,,,3.3,2.1,2.5*3F
{"class":"TPV","mode":3,"time":"2006-11-26T06:57:44.463Z","leapseconds":14,"ept":0.005,"epv":58.323,"epc":23.17,"eph":39.294,"sep":62.171}
{"class":"SKY","time":"2006-11-26T06:57:44.557Z","hdop":2.07,"pdop":3.27,"tdop":1.54,"vdop":2.54}
$GPGSV,2,1,07,19,26,250,29,18,26,096,39,01,29,221,30,11,25,307,26*7A
$GPGSV,2,2,07,03,08,225,28,22,65,094,38,09,24,045,41*44
{"class":"SKY","time":"2006-11-26T06:57:49.584Z","gdop":3.36,"hdop":2.07,"pdop":3.27,"tdop":1.54,"xdop":0.93,"ydop":1.48,"vdop":2.54,"nSat":7,"uSat":5,"satellites":[{"PRN":19,"gnssid":0,"svid":19,"az":249.7,"el":26.0,"ss":29.0,"used":true,"health":1},{"PRN":18,"gnssid":0,"svid":18,"az":95.7,"el":26.1,"ss":39.0,"used":true,"health":1},{"PRN":1,"gnssid":0,"svid":1,"az":221.3,"el":29.2,"ss":30.0,"used":true,"health":1},{"PRN":11,"gnssid":0,"svid":11,"az":307.2,"el":24.6,"ss":26.0,"used":false,"health":1},{"PRN":3,"gnssid":0,"svid":3,"az":225.4,"el":7.8,"ss":28.0,"used":false,"health":1}]}
$GPGGA,065744.46,,S,,W,1,04,2.07,,M,,M,,*54
$GPRMC,065744.46,A,,S,,W,,,261106,,*08
$GPGSA,A,3,19,18,1,22,9,,,,,,,,3.3,2.1,2.5*3F
$GPGBS,065744.46,13.914,22.261,58.323,,,,*73
{"class":"TPV","mode":3,"time":"2006-11-26T06:57:44.463Z","leapseconds":14,"ept":0.005,"epx":13.914,"epy":22.261,"epv":58.323,"eps":8.89,"epc":23.17,"eph":39.294,"sep":62.171}
{"class":"SKY","time":"2006-11-26T06:57:49.584Z","gdop":3.36,"hdop":2.07,"pdop":3.27,"tdop":1.54,"xdop":0.93,"ydop":1.48,"vdop":2.54}
$GPGGA,065744.46,,S,,W,1,04,2.07,,M,,M,,*54
$GPRMC,065744.46,A,,S,,W,,,261106,,*08
$GPGSA,A,3,19,18,1,22,9,,,,,,,,3.3,2.1,2.5*3F
$GPGBS,065744.46,13.914,22.261,58.323,,,,*73
{"class":"TPV","mode":3,"time":"2006-11-26T06:57:44.463Z","leapseconds":14,"ept":0.005,"epx":13.914,"epy":22.261,"epv":58.323,"eps":8.89,"epc":23.17,"eph":39.294,"sep":62.171}
{"class":"SKY","time":"2006-11-26T06:57:49.584Z","gdop":3.36,"hdop":2.07,"pdop":3.27,"tdop":1.54,"xdop":0.93,"ydop":1.48,"vdop":2.54}
$GPGGA,065744.46,,S,,W,1,04,2.07,,M,,M,,*54
$GPRMC,065744.46,A,,S,,W,,,261106,,*08
$GPGSA,A,3,19,18,1,22,9,,,,,,,,3.3,2.1,2.5*3F
$GPGBS,065744.46,13.914,22.261,58.323,,,,*73
{"class":"TPV","mode":3,"time":"2006-11-26T06:57:44.463Z","leapseconds":14,"ept":0.005,"epx":13.914,"epy":22.261,"epv":58.323,"eps":8.89,"epc":23.17,"eph":39.294,"sep":62.171}
{"class":"SKY","time":"2006-11-26T06:57:49.584Z","gdop":3.36,"hdop":2.07,"pdop":3.27,"tdop":1.54,"xdop":0.93,"ydop":1.48,"vdop":2.54}
$GPGGA,065744.46,,S,,W,1,04,2.07,,M,,M,,*54
$GPRMC,065744.46,A,,S,,W,,,261106,,*08
$GPGSA,A,3,19,18,1,22,9,,,,,,,,3.3,2.1,2.5*3F
$GPGBS,065744.46,13.914,22.261,58.323,,,,*73
{"class":"TPV","mode":3,"time":"2006-11-26T06:57:44.463Z","leapseconds":14,"ept":0.005,"epx":13.914,"epy":22.261,"epv":58.323,"eps":8.89,"epc":23.17,"eph":39.294,"sep":62.171}
{"class":"SKY","time":"2006-11-26T06:57:49.584Z","gdop":3.36,"hdop":2.07,"pdop":3.27,"tdop":1.54,"xdop":0.93,"ydop":1.48,"vdop":2.54}
$GPGSV,2,1,07,19,26,250,29,18,26,096,39,01,29,221,30,11,25,307,26*7A
$GPGSV,2,2,07,03,08,225,28,22,64,094,39,09,24,045,40*45
{"class":"SKY","time":"2006-11-26T06:57:54.551Z","gdop":3.36,"hdop":2.07,"pdop":3.27,"tdop":1.54,"xdop":0.93,"ydop":1.48,"vdop":2.54,"nSat":7,"uSat":5,"satellites":[{"PRN":19,"gnssid":0,"svid":19,"az":249.7,"el":26.0,"ss":29.0,"used":true,"health":1},{"PRN":18,"gnssid":0,"svid":18,"az":95.7,"el":26.1,"ss":39.0,"used":true,"health":1},{"PRN":1,"gnssid":0,"svid":1,"az":221.3,"el":29.3,"ss":30.0,"used":true,"health":1},{"PRN":11,"gnssid":0,"svid":11,"az":307.2,"el":24.6,"ss":26.0,"used":false,"health":1},{"PRN":3,"gnssid":0,"svid":3,"az":225.3,"el":7.8,"ss":28.0,"used":false,"health":1}]}
$GPGGA,065744.46,,S,,W,1,04,2.06,,M,,M,,*55
$GPRMC,065744.46,A,,S,,W,,,261106,,*08
$GPGSA,A,3,19,18,1,22,9,,,,,,,,3.3,2.1,2.5*3F
$GPGBS,065744.46,13.914,22.261,58.323,,,,*73
{"class":"TPV","mode":3,"time":"2006-11-26T06:57:44.463Z","leapseconds":14,"ept":0.005,"epx":13.914,"epy":22.261,"epv":58.323,"eps":8.89,"epc":23.17,"eph":39.294,"sep":62.171}
{"class":"SKY","time":"2006-11-26T06:57:54.551Z","gdop":3.36,"hdop":2.06,"pdop":3.27,"tdop":1.54,"xdop":0.93,"ydop":1.48,"vdop":2.54}
$GPGGA,065756.57,,S,,W,1,04,,,M,,M,,*4C
$GPRMC,065756.57,A,,S,,W,,,261106,,*0B
$GPGSA,A,3,19,18,1,22,9,,,,,,,,,,*15
{"class":"TPV","mode":3,"time":"2006-11-26T06:57:56.566Z","leapseconds":14,"ept":0.005}
$GPGGA,065756.57,,S,,W,1,04,2.06,,M,,M,,*56
$GPRMC,065756.57,A,,S,,W,,,261106,,*0B
$GPGSA,A,3,19,18,1,22,9,,,,,,,,3.3,2.1,2.5*3F
{"class":"TPV","mode":3,"time":"2006-11-26T06:57:56.566Z","leapseconds":14,"ept":0.005,"epv":58.355,"epc":9.64,"eph":39.221,"sep":62.146}
{"class":"SKY","time":"2006-11-26T06:57:54.551Z","hdop":2.06,"pdop":3.27,"tdop":1.54,"vdop":2.54}
$GPGGA,065756.57,,S,,W,1,04,2.06,,M,,M,,*56
$GPRMC,065756.57,A,,S,,W,,,261106,,*0B
$GPGSA,A,3,19,18,1,22,9,,,,,,,,3.3,2.1,2.5*3F
{"class":"TPV","mode":3,"time":"2006-11-26T06:57:56.566Z","leapseconds":14,"ept":0.005,"epv":58.355,"epc":9.64,"eph":39.221,"sep":62.146}
{"class":"SKY","time":"2006-11-26T06:57:54.551Z","hdop":2.06,"pdop":3.27,"tdop":1.54,"vdop":2.54}
$GPGGA,065756.57,,S,,W,1,04,2.06,,M,,M,,*56
$GPRMC,065756.57,A,,S,,W,,,261106,,*0B
$GPGSA,A,3,19,18,1,22,9,,,,,,,,3.3,2.1,2.5*3F
{"class":"TPV","mode":3,"time":"2006-11-26T06:57:56.566Z","leapseconds":14,"ept":0.005,"epv":58.355,"epc":9.64,"eph":39.221,"sep":62.146}
{"class":"SKY","time":"2006-11-26T06:57:54.551Z","hdop":2.06,"pdop":3.27,"tdop":1.54,"vdop":2.54}
$GPGSV,2,1,07,19,26,250,29,18,26,096,39,01,29,221,30,11,25,307,26*7A
$GPGSV,2,2,07,03,08,225,28,22,64,094,40,09,24,045,39*45
{"class":"SKY","time":"2006-11-26T06:57:59.566Z","gdop":3.36,"hdop":2.06,"pdop":3.27,"tdop":1.54,"xdop":0.93,"ydop":1.48,"vdop":2.54,"nSat":7,"uSat":5,"satellites":[{"PRN":19,"gnssid":0,"svid":19,"az":249.7,"el":26.0,"ss":29.0,"used":true,"health":1},{"PRN":18,"gnssid":0,"svid":18,"az":95.7,"el":26.1,"ss":39.0,"used":true,"health":1},{"PRN":1,"gnssid":0,"svid":1,"az":221.3,"el":29.3,"ss":30.0,"used":true,"health":1},{"PRN":11,"gnssid":0,"svid":11,"az":307.2,"el":24.6,"ss":26.0,"used":false,"health":1},{"PRN":3,"gnssid":0,"svid":3,"az":225.3,"el":7.7,"ss":28.0,"used":false,"health":1}]}
$GPGSV,2,1,07,19,26,250,29,18,26,096,39,01,29,221,29,11,25,307,26*72
$GPGSV,2,2,07,03,08,225,28,22,64,094,41,09,24,045,38*45
{"class":"SKY","time":"2006-11-26T06:58:04.547Z","gdop":3.36,"hdop":1.75,"pdop":3.06,"tdop":1.38,"xdop":0.93,"ydop":1.48,"vdop":2.51,"nSat":7,"uSat":5,"satellites":[{"PRN":19,"gnssid":0,"svid":19,"az":249.7,"el":26.0,"ss":29.0,"used":true,"health":1},{"PRN":18,"gnssid":0,"svid":18,"az":95.7,"el":26.0,"ss":39.0,"used":true,"health":1},{"PRN":1,"gnssid":0,"svid":1,"az":221.3,"el":29.3,"ss":29.0,"used":true,"health":1},{"PRN":11,"gnssid":0,"svid":11,"az":307.2,"el":24.7,"ss":26.0,"used":false,"health":1},{"PRN":3,"gnssid":0,"svid":3,"az":225.3,"el":7.7,"ss":28.0,"used":false,"health":1}]}
$GPGGA,065804.45,,S,,W,1,04,2.06,,M,,M,,*5D
$GPRMC,065804.45,A,,S,,W,,,261106,,*00
$GPGSA,A,3,19,18,1,22,9,,,,,,,,3.3,2.1,2.5*3F
$GPGBS,065804.45,13.881,22.227,58.389,,,,*74
{"class":"TPV","mode":3,"time":"2006-11-26T06:58:04.449Z","leapseconds":14,"ept":0.005,"epx":13.881,"epy":22.227,"epv":58.389,"eps":5.64,"epc":14.81,"eph":39.146,"sep":62.121}
{"class":"SKY","time":"2006-11-26T06:58:04.547Z","gdop":3.36,"hdop":2.06,"pdop":3.27,"tdop":1.54,"xdop":0.93,"ydop":1.48,"vdop":2.54}
$GPGGA,065804.45,,S,,W,1,04,2.06,,M,,M,,*5D
$GPRMC,065804.45,A,,S,,W,,,261106,,*00
$GPGSA,A,3,19,18,1,22,9,,,,,,,,3.3,2.1,2.5*3F
$GPGBS,065804.45,13.881,22.227,58.389,,,,*74
{"class":"TPV","mode":3,"time":"2006-11-26T06:58:04.449Z","leapseconds":14,"ept":0.005,"epx":13.881,"epy":22.227,"epv":58.389,"eps":5.64,"epc":14.81,"eph":39.146,"sep":62.121}
{"class":"SKY","time":"2006-11-26T06:58:04.547Z","gdop":3.36,"hdop":2.06,"pdop":3.27,"tdop":1.54,"xdop":0.93,"ydop":1.48,"vdop":2.54}
$GPGGA,065804.45,,S,,W,1,04,2.06,,M,,M,,*5D
$GPRMC,065804.45,A,,S,,W,,,261106,,*00
$GPGSA,A,3,19,18,1,22,9,,,,,,,,3.3,2.1,2.5*3F
$GPGBS,065804.45,13.881,22.227,58.389,,,,*74
{"class":"TPV","mode":3,"time":"2006-11-26T06:58:04.449Z","leapseconds":14,"ept":0.005,"epx":13.881,"epy":22.227,"epv":58.389,"eps":5.64,"epc":14.81,"eph":39.146,"sep":62.121}
{"class":"SKY","time":"2006-11-26T06:58:04.547Z","gdop":3.36,"hdop":2.06,"pdop":3.27,"tdop":1.54,"xdop":0.93,"ydop":1.48,"vdop":2.54}
$GPGSV,2,1,07,19,26,250,29,18,26,096,39,01,29,221,28,11,25,307,26*73
$GPGSV,2,2,07,03,08,225,28,22,64,094,41,09,24,045,40*4A
{"class":"SKY","time":"2006-11-26T06:58:09.527Z","gdop":3.36,"hdop":1.75,"pdop":3.06,"tdop":1.38,"xdop":0.92,"ydop":1.48,"vdop":2.51,"nSat":7,"uSat":5,"satellites":[{"PRN":19,"gnssid":0,"svid":19,"az":249.7,"el":26.0,"ss":29.0,"used":true,"health":1},{"PRN":18,"gnssid":0,"svid":18,"az":95.8,"el":26.0,"ss":39.0,"used":true,"health":1},{"PRN":1,"gnssid":0,"svid":1,"az":221.4,"el":29.4,"ss":28.0,"used":true,"health":1},{"PRN":11,"gnssid":0,"svid":11,"az":307.2,"el":24.7,"ss":26.0,"used":false,"health":1},{"PRN":3,"gnssid":0,"svid":3,"az":225.3,"el":7.7,"ss":28.0,"used":false,"health":1}]}
$GPGGA,065809.43,,S,,W,1,04,2.06,,M,,M,,*56
$GPRMC,065809.43,A,,S,,W,,,261106,,*0B
$GPGSA,A,3,19,18,1,22,9,,,,,,,,3.3,2.1,2.5*3F
$GPGBS,065809.43,13.867,22.213,58.405,,,,*73
{"class":"TPV","mode":3,"time":"2006-11-26T06:58:09.434Z","leapseconds":14,"ept":0.005,"epx":13.867,"epy":22.213,"epv":58.405,"eps":8.92,"epc":23.43,"eph":39.110,"sep":62.108}
{"class":"SKY","time":"2006-11-26T06:58:09.527Z","gdop":3.36,"hdop":2.06,"pdop":3.27,"tdop":1.54,"xdop":0.92,"ydop":1.48,"vdop":2.54}
$GPGGA,065809.43,,S,,W,1,04,2.06,,M,,M,,*56
$GPRMC,065809.43,A,,S,,W,,,261106,,*0B
$GPGSA,A,3,19,18,1,22,9,,,,,,,,3.3,2.1,2.5*3F
$GPGBS,065809.43,13.867,22.213,58.405,,,,*73
{"class":"TPV","mode":3,"time":"2006-11-26T06:58:09.434Z","leapseconds":14,"ept":0.005,"epx":13.867,"epy":22.213,"epv":58.405,"eps":8.92,"epc":23.43,"eph":39.110,"sep":62.108}
$GPZDA,065813.00,26,11,2006,00,00*6F
$GPGGA,065813.00,5332.3090664,N,11329.9352846,W,1,03,,698.01,M,-18.860,M,,*40
$GPRMC,065813.00,A,5332.3090664,N,11329.9352846,W,0.0000,0.000,261106,13.9,E*4C
$GPGSA,A,2,19,18,1,22,9,,,,,,,,,,*14
{"class":"TPV","mode":2,"time":"2006-11-26T06:58:13.000Z","leapseconds":14,"ept":0.005,"lat":53.538484440,"lon":-113.498921410,"altHAE":679.1490,"altMSL":698.0086,"alt":698.0086,"track":0.0000,"magtrack":13.9355,"magvar":13.9,"speed":0.000}
$GPZDA,065814.00,26,11,2006,00,00*68
$GPGGA,065814.00,5332.3090463,N,11329.9352695,W,1,03,,698.01,M,-18.860,M,,*42
$GPRMC,065814.00,A,5332.3090463,N,11329.9352695,W,0.0000,0.000,261106,13.9,E*4E
$GPGSA,A,2,19,18,1,22,9,,,,,,,,,,*14
{"class":"TPV","mode":2,"time":"2006-11-26T06:58:14.000Z","leapseconds":14,"ept":0.005,"lat":53.538484105,"lon":-113.498921158,"altHAE":679.1530,"altMSL":698.0126,"alt":698.0126,"track":0.0000,"magtrack":13.9355,"magvar":13.9,"speed":0.000}
$GPGGA,065814.45,,S,,W,1,03,3.72,,M,,M,,*59
$GPRMC,065814.45,A,,S,,W,,,261106,,*01
$GPGSA,A,2,19,18,1,22,9,,,,,,,,3.8,3.7,1.0*34
{"class":"TPV","mode":2,"time":"2006-11-26T06:58:14.451Z","leapseconds":14,"ept":0.005,"eph":70.603,"sep":73.121}
{"class":"SKY","time":"2006-11-26T06:58:09.527Z","hdop":3.72,"pdop":3.85,"tdop":2.55,"vdop":1.00}
$GPGSV,2,1,07,19,26,249,27,18,26,096,38,01,29,221,26,11,25,307,26*7A
$GPGSV,2,2,07,03,08,225,28,22,64,094,41,09,24,045,41*4B
{"class":"SKY","time":"2006-11-26T06:58:14.529Z","hdop":3.72,"pdop":3.85,"tdop":2.55,"vdop":1.00,"nSat":7,"uSat":3,"satellites":[{"PRN":19,"gnssid":0,"svid":19,"az":249.4,"el":25.7,"ss":27.0,"used":false,"health":1},{"PRN":18,"gnssid":0,"svid":18,"az":95.8,"el":26.0,"ss":38.0,"used":true,"health":1},{"PRN":1,"gnssid":0,"svid":1,"az":221.4,"el":29.4,"ss":26.0,"used":false,"health":1},{"PRN":11,"gnssid":0,"svid":11,"az":307.2,"el":24.7,"ss":26.0,"used":false,"health":1},{"PRN":3,"gnssid":0,"svid":3,"az":225.3,"el":7.6,"ss":28.0,"used":false,"health":1}]}
$GPZDA,065815.00,26,11,2006,00,00*69
$GPGGA,065815.00,5332.3090262,N,11329.9352544,W,1,03,,698.02,M,-18.860,M,,*48
$GPRMC,065815.00,A,5332.3090262,N,11329.9352544,W,0.0000,0.000,261106,13.9,E*47
$GPGSA,A,2,18,22,9,,,,,,,,,,,,*2D
{"class":"TPV","mode":2,"time":"2006-11-26T06:58:15.000Z","leapseconds":14,"ept":0.005,"lat":53.538483769,"lon":-113.498920907,"altHAE":679.1570,"altMSL":698.0166,"alt":698.0166,"track":0.0000,"magtrack":13.9355,"magvar":13.9,"speed":0.000}
$GPZDA,065816.00,26,11,2006,00,00*6A
$GPGGA,065816.00,5332.3090060,N,11329.9352444,W,1,03,,698.02,M,-18.860,M,,*4A
$GPRMC,065816.00,A,5332.3090060,N,11329.9352444,W,0.0000,0.000,261106,13.9,E*45
$GPGSA,A,2,18,22,9,,,,,,,,,,,,*2D
{"class":"TPV","mode":2,"time":"2006-11-26T06:58:16.000Z","leapseconds":14,"ept":0.005,"lat":53.538483434,"lon":-113.498920739,"altHAE":679.1610,"altMSL":698.0206,"alt":698.0206,"track":0.0000,"magtrack":13.9355,"magvar":13.9,"speed":0.000}
$GPGGA,065816.00,5332.3090060,N,11329.9352444,W,1,03,,698.02,M,-18.860,M,,*4A
$GPRMC,065816.00,A,5332.3090060,N,11329.9352444,W,0.0000,0.000,261106,13.9,E*45
$GPGSA,A,2,18,22,9,,,,,,,,,,,,*2D
{"class":"TPV","mode":2,"time":"2006-11-26T06:58:16.000Z","leapseconds":14,"ept":0.005,"lat":53.538483434,"lon":-113.498920739,"altHAE":679.1610,"altMSL":698.0206,"alt":698.0206,"track":0.0000,"magtrack":13.9355,"magvar":13.9,"speed":0.000}
$GPZDA,065817.00,26,11,2006,00,00*6B
$GPGGA,065817.00,5332.3089859,N,11329.9352293,W,1,03,,698.02,M,-18.860,M,,*4D
$GPRMC,065817.00,A,5332.3089859,N,11329.9352293,W,0.0000,0.000,261106,13.9,E*42
$GPGSA,A,2,18,22,9,,,,,,,,,,,,*2D
{"class":"TPV","mode":2,"time":"2006-11-26T06:58:17.000Z","leapseconds":14,"ept":0.005,"lat":53.538483099,"lon":-113.498920488,"altHAE":679.1650,"altMSL":698.0246,"alt":698.0246,"track":0.0000,"magtrack":13.9355,"magvar":13.9,"speed":0.000}
$GPZDA,065818.00,26,11,2006,00,00*64
$GPGGA,065818.00,5332.3089658,N,11329.9352192,W,1,03,,698.03,M,-18.860,M,,*4E
$GPRMC,065818.00,A,5332.3089658,N,11329.9352192,W,0.0000,0.000,261106,13.9,E*40
$GPGSA,A,2,18,22,9,,,,,,,,,,,,*2D
{"class":"TPV","mode":2,"time":"2006-11-26T06:58:18.000Z","leapseconds":14,"ept":0.005,"lat":53.538482764,"lon":-113.498920320,"altHAE":679.1690,"altMSL":698.0286,"alt":698.0286,"track":0.0000,"magtrack":13.9355,"magvar":13.9,"speed":0.000}
$GPGGA,065818.00,5332.3089658,N,11329.9352192,W,1,03,3.72,698.03,M,-18.860,M,,*56
$GPRMC,065818.00,A,5332.3089658,N,11329.9352192,W,0.0000,0.000,261106,13.9,E*40
$GPGSA,A,2,18,22,9,,,,,,,,,,3.9,3.7,1.0*0C
{"class":"TPV","mode":2,"time":"2006-11-26T06:58:18.000Z","leapseconds":14,"ept":0.005,"lat":53.538482764,"lon":-113.498920320,"altHAE":679.1690,"altMSL":698.0286,"alt":698.0286,"track":0.0000,"magtrack":13.9355,"magvar":13.9,"speed":0.000,"eph":70.637,"sep":73.154}
{"class":"SKY","time":"2006-11-26T06:58:14.529Z","hdop":3.72,"pdop":3.85,"tdop":2.55,"vdop":1.00}
$GPZDA,065819.00,26,11,2006,00,00*65
$GPGGA,065819.00,5332.3089507,N,11329.9352092,W,1,03,,698.03,M,-18.860,M,,*47
$GPRMC,065819.00,A,5332.3089507,N,11329.9352092,W,0.0000,0.000,261106,13.9,E*49
$GPGSA,A,2,18,22,9,,,,,,,,,,,,*2D
{"class":"TPV","mode":2,"time":"2006-11-26T06:58:19.000Z","leapseconds":14,"ept":0.005,"lat":53.538482512,"lon":-113.498920153,"altHAE":679.1720,"altMSL":698.0316,"alt":698.0316,"track":0.0000,"magtrack":13.9355,"magvar":13.9,"speed":0.000}
$GPGGA,065819.43,,S,,W,1,03,,,M,,M,,*4A
$GPRMC,065819.43,A,,S,,W,,,261106,,*0A
$GPGSA,A,2,18,22,9,,,,,,,,,,,,*2D
{"class":"TPV","mode":2,"time":"2006-11-26T06:58:19.432Z","leapseconds":14,"ept":0.005}
$GPGGA,065819.43,,S,,W,1,03,3.72,,M,,M,,*52
$GPRMC,065819.43,A,,S,,W,,,261106,,*0A
$GPGSA,A,2,18,22,9,,,,,,,,,,3.9,3.7,1.0*0C
{"class":"TPV","mode":2,"time":"2006-11-26T06:58:19.432Z","leapseconds":14,"ept":0.005,"eph":70.637,"sep":73.154}
{"class":"SKY","time":"2006-11-26T06:58:14.529Z","hdop":3.72,"pdop":3.85,"tdop":2.55,"vdop":1.00}
$GPGSV,2,1,07,19,26,249,27,18,26,096,38,01,29,221,26,11,25,307,26*7A
$GPGSV,2,2,07,03,08,225,28,22,64,094,42,09,24,045,41*48
{"class":"SKY","time":"2006-11-26T06:58:19.512Z","hdop":3.72,"pdop":3.85,"tdop":2.55,"vdop":1.00,"nSat":7,"uSat":3,"satellites":[{"PRN":19,"gnssid":0,"svid":19,"az":249.4,"el":25.7,"ss":27.0,"used":false,"health":1},{"PRN":18,"gnssid":0,"svid":18,"az":95.8,"el":26.0,"ss":38.0,"used":true,"health":1},{"PRN":1,"gnssid":0,"svid":1,"az":221.4,"el":29.5,"ss":26.0,"used":false,"health":1},{"PRN":11,"gnssid":0,"svid":11,"az":307.1,"el":24.7,"ss":26.0,"used":false,"health":1},{"PRN":3,"gnssid":0,"svid":3,"az":225.3,"el":7.6,"ss":28.0,"used":false,"health":1}]}
$GPZDA,065820.00,26,11,2006,00,00*6F
$GPGGA,065820.00,5332.3089306,N,11329.9351941,W,1,03,,698.04,M,-18.860,M,,*49
$GPRMC,065820.00,A,5332.3089306,N,11329.9351941,W,0.0000,0.000,261106,13.9,E*40
$GPGSA,A,2,18,22,9,,,,,,,,,,,,*2D
{"class":"TPV","mode":2,"time":"2006-11-26T06:58:20.000Z","leapseconds":14,"ept":0.005,"lat":53.538482177,"lon":-113.498919901,"altHAE":679.1760,"altMSL":698.0356,"alt":698.0356,"track":0.0000,"magtrack":13.9355,"magvar":13.9,"speed":0.000}
$GPGGA,065820.00,5332.3089306,N,11329.9351941,W,1,03,3.72,698.04,M,-18.860,M,,*51
$GPRMC,065820.00,A,5332.3089306,N,11329.9351941,W,0.0000,0.000,261106,13.9,E*40
$GPGSA,A,2,18,22,9,,,,,,,,,,3.9,3.7,1.0*0C
{"class":"TPV","mode":2,"time":"2006-11-26T06:58:20.000Z","leapseconds":14,"ept":0.005,"lat":53.538482177,"lon":-113.498919901,"altHAE":679.1760,"altMSL":698.0356,"alt":698.0356,"track":0.0000,"magtrack":13.9355,"magvar":13.9,"speed":0.000,"eph":70.653,"sep":73.170}
{"class":"SKY","time":"2006-11-26T06:58:19.512Z","hdop":3.72,"pdop":3.85,"tdop":2.55,"vdop":1.00}
$GPZDA,065821.00,26,11,2006,00,00*6E
$GPGGA,065821.00,5332.3089105,N,11329.9351840,W,1,03,,698.04,M,-18.860,M,,*49
$GPRMC,065821.00,A,5332.3089105,N,11329.9351840,W,0.0000,0.000,261106,13.9,E*40
$GPGSA,A,2,18,22,9,,,,,,,,,,,,*2D
{"class":"TPV","mode":2,"time":"2006-11-26T06:58:21.000Z","leapseconds":14,"ept":0.005,"lat":53.538481842,"lon":-113.498919734,"altHAE":679.1800,"altMSL":698.0396,"alt":698.0396,"track":0.0000,"magtrack":13.9355,"magvar":13.9,"speed":0.000}
$GPGGA,065821.00,5332.3089105,N,11329.9351840,W,1,03,3.72,698.04,M,-18.860,M,,*51
$GPRMC,065821.00,A,5332.3089105,N,11329.9351840,W,0.0000,0.000,261106,13.9,E*40
$GPGSA,A,2,18,22,9,,,,,,,,,,3.9,3.7,1.0*0C
{"class":"TPV","mode":2,"time":"2006-11-26T06:58:21.000Z","leapseconds":14,"ept":0.005,"lat":53.538481842,"lon":-113.498919734,"altHAE":679.1800,"altMSL":698.0396,"alt":698.0396,"track":0.0000,"magtrack":13.9355,"magvar":13.9,"speed":0.000,"eph":70.653,"sep":73.170}
{"class":"SKY","time":"2006-11-26T06:58:19.512Z","hdop":3.72,"pdop":3.85,"tdop":2.55,"vdop":1.00}
$GPZDA,065823.00,26,11,2006,00,00*6C
$GPGGA,065823.00,5332.3088803,N,11329.9351689,W,1,03,,698.05,M,-18.860,M,,*4F
$GPRMC,065823.00,A,5332.3088803,N,11329.9351689,W,0.0000,0.000,261106,13.9,E*47
$GPGSA,A,2,18,22,9,,,,,,,,,,,,*2D
{"class":"TPV","mode":2,"time":"2006-11-26T06:58:23.000Z","leapseconds":14,"ept":0.005,"lat":53.538481339,"lon":-113.498919482,"altHAE":679.1870,"altMSL":698.0466,"alt":698.0466,"track":0.0000,"magtrack":13.9355,"magvar":13.9,"speed":0.000}
$GPGGA,065823.00,5332.3088803,N,11329.9351689,W,1,03,3.72,698.05,M,-18.860,M,,*57
$GPRMC,065823.00,A,5332.3088803,N,11329.9351689,W,0.0000,0.000,261106,13.9,E*47
$GPGSA,A,2,18,22,9,,,,,,,,,,3.9,3.7,1.0*0C
{"class":"TPV","mode":2,"time":"2006-11-26T06:58:23.000Z","leapseconds":14,"ept":0.005,"lat":53.538481339,"lon":-113.498919482,"altHAE":679.1870,"altMSL":698.0466,"alt":698.0466,"track":0.0000,"magtrack":13.9355,"magvar":13.9,"speed":0.000,"eph":70.669,"sep":73.185}
{"class":"SKY","time":"2006-11-26T06:58:19.512Z","hdop":3.72,"pdop":3.85,"tdop":2.55,"vdop":1.00}
$GPZDA,065824.00,26,11,2006,00,00*6B
$GPGGA,065824.00,5332.3088602,N,11329.9351589,W,1,03,,698.05,M,-18.860,M,,*44
$GPRMC,065824.00,A,5332.3088602,N,11329.9351589,W,0.0000,0.000,261106,13.9,E*4C
$GPGSA,A,2,18,22,9,,,,,,,,,,,,*2D
{"class":"TPV","mode":2,"time":"2006-11-26T06:58:24.000Z","leapseconds":14,"ept":0.005,"lat":53.538481003,"lon":-113.498919314,"altHAE":679.1910,"altMSL":698.0506,"alt":698.0506,"track":0.0000,"magtrack":13.9355,"magvar":13.9,"speed":0.000}
$GPGGA,065824.00,5332.3088602,N,11329.9351589,W,1,03,,698.05,M,-18.860,M,,*44
$GPRMC,065824.00,A,5332.3088602,N,11329.9351589,W,0.0000,0.000,261106,13.9,E*4C
$GPGSA,A,2,18,22,9,,,,,,,,,,,,*2D
{"class":"TPV","mode":2,"time":"2006-11-26T06:58:24.000Z","leapseconds":14,"ept":0.005,"lat":53.538481003,"lon":-113.498919314,"altHAE":679.1910,"altMSL":698.0506,"alt":698.0506,"track":0.0000,"magtrack":13.9355,"magvar":13.9,"speed":0.000}
$GPGSV,2,1,07,19,26,249,27,18,26,096,35,01,30,221,26,11,25,307,26*7F
$GPGSV,2,2,07,03,08,225,28,22,64,094,42,09,24,045,40*49
{"class":"SKY","time":"2006-11-26T06:58:24.494Z","nSat":7,"uSat":3,"satellites":[{"PRN":19,"gnssid":0,"svid":19,"az":249.4,"el":25.7,"ss":27.0,"used":false,"health":1},{"PRN":18,"gnssid":0,"svid":18,"az":95.8,"el":25.9,"ss":35.0,"used":true,"health":1},{"PRN":1,"gnssid":0,"svid":1,"az":221.4,"el":29.5,"ss":26.0,"used":false,"health":1},{"PRN":11,"gnssid":0,"svid":11,"az":307.1,"el":24.7,"ss":26.0,"used":false,"health":1},{"PRN":3,"gnssid":0,"svid":3,"az":225.2,"el":7.6,"ss":28.0,"used":false,"health":1}]}
$GPZDA,065825.00,26,11,2006,00,00*6A
$GPGGA,065825.00,5332.3088451,N,11329.9351488,W,1,03,,698.05,M,-18.860,M,,*41
$GPRMC,065825.00,A,5332.3088451,N,11329.9351488,W,0.0000,0.000,261106,13.9,E*49
$GPGSA,A,2,18,22,9,,,,,,,,,,,,*2D
{"class":"TPV","mode":2,"time":"2006-11-26T06:58:25.000Z","leapseconds":14,"ept":0.005,"lat":53.538480752,"lon":-113.498919147,"altHAE":679.1940,"altMSL":698.0536,"alt":698.0536,"track":0.0000,"magtrack":13.9355,"magvar":13.9,"speed":0.000}
$GPGGA,065825.00,5332.3088451,N,11329.9351488,W,1,03,3.72,698.05,M,-18.860,M,,*59
$GPRMC,065825.00,A,5332.3088451,N,11329.9351488,W,0.0000,0.000,261106,13.9,E*49
$GPGSA,A,2,18,22,9,,,,,,,,,,3.9,3.7,1.0*0C
{"class":"TPV","mode":2,"time":"2006-11-26T06:58:25.000Z","leapseconds":14,"ept":0.005,"lat":53.538480752,"lon":-113.498919147,"altHAE":679.1940,"altMSL":698.0536,"alt":698.0536,"track":0.0000,"magtrack":13.9355,"magvar":13.9,"speed":0.000,"eph":70.686,"sep":73.201}
{"class":"SKY","time":"2006-11-26T06:58:24.494Z","hdop":3.72,"pdop":3.85,"tdop":2.55,"vdop":1.00}
$GPZDA,065826.00,26,11,2006,00,00*69
$GPGGA,065826.00,5332.3088300,N,11329.9351438,W,1,03,,698.06,M,-18.860,M,,*49
$GPRMC,065826.00,A,5332.3088300,N,11329.9351438,W,0.0000,0.000,261106,13.9,E*42
$GPGSA,A,2,18,22,9,,,,,,,,,,,,*2D
{"class":"TPV","mode":2,"time":"2006-11-26T06:58:26.000Z","leapseconds":14,"ept":0.005,"lat":53.538480500,"lon":-113.498919063,"altHAE":679.1980,"altMSL":698.0576,"alt":698.0576,"track":0.0000,"magtrack":13.9355,"magvar":13.9,"speed":0.000}
$GPZDA,065827.00,26,11,2006,00,00*68
$GPGGA,065827.00,5332.3088149,N,11329.9351337,W,1,03,,698.06,M,-18.860,M,,*4F
$GPRMC,065827.00,A,5332.3088149,N,11329.9351337,W,0.0000,0.000,261106,13.9,E*44
$GPGSA,A,2,18,22,9,,,,,,,,,,,,*2D
{"class":"TPV","mode":2,"time":"2006-11-26T06:58:27.000Z","leapseconds":14,"ept":0.005,"lat":53.538480249,"lon":-113.498918895,"altHAE":679.2010,"altMSL":698.0606,"alt":698.0606,"track":0.0000,"magtrack":13.9355,"magvar":13.9,"speed":0.000}
$GPGGA,065827.00,5332.3088149,N,11329.9351337,W,1,03,3.72,698.06,M,-18.860,M,,*57
$GPRMC,065827.00,A,5332.3088149,N,11329.9351337,W,0.0000,0.000,261106,13.9,E*44
$GPGSA,A,2,18,22,9,,,,,,,,,,3.9,3.7,1.0*0C
{"class":"TPV","mode":2,"time":"2006-11-26T06:58:27.000Z","leapseconds":14,"ept":0.005,"lat":53.538480249,"lon":-113.498918895,"altHAE":679.2010,"altMSL":698.0606,"alt":698.0606,"track":0.0000,"magtrack":13.9355,"magvar":13.9,"speed":0.000,"eph":70.702,"sep":73.217}
{"class":"SKY","time":"2006-11-26T06:58:24.494Z","hdop":3.72,"pdop":3.85,"tdop":2.56,"vdop":1.00}
$GPZDA,065828.00,26,11,2006,00,00*67
$GPGGA,065828.00,5332.3088049,N,11329.9351237,W,1,03,,698.06,M,-18.860,M,,*40
$GPRMC,065828.00,A,5332.3088049,N,11329.9351237,W,0.0000,0.000,261106,13.9,E*4B
$GPGSA,A,2,18,22,9,,,,,,,,,,,,*2D
{"class":"TPV","mode":2,"time":"2006-11-26T06:58:28.000Z","leapseconds":14,"ept":0.005,"lat":53.538480081,"lon":-113.498918728,"altHAE":679.2050,"altMSL":698.0646,"alt":698.0646,"track":0.0000,"magtrack":13.9355,"magvar":13.9,"speed":0.000}
$GPGGA,065828.00,5332.3088049,N,11329.9351237,W,1,03,3.72,698.06,M,-18.860,M,,*58
$GPRMC,065828.00,A,5332.3088049,N,11329.9351237,W,0.0000,0.000,261106,13.9,E*4B
$GPGSA,A,2,18,22,9,,,,,,,,,,3.9,3.7,1.0*0C
{"class":"TPV","mode":2,"time":"2006-11-26T06:58:28.000Z","leapseconds":14,"ept":0.005,"lat":53.538480081,"lon":-113.498918728,"altHAE":679.2050,"altMSL":698.0646,"alt":698.0646,"track":0.0000,"magtrack":13.9355,"magvar":13.9,"speed":0.000,"eph":70.719,"sep":73.233}
{"class":"SKY","time":"2006-11-26T06:58:24.494Z","hdop":3.72,"pdop":3.85,"tdop":2.56,"vdop":1.00}
$GPZDA,065829.00,26,11,2006,00,00*66
$GPGGA,065829.00,5332.3087898,N,11329.9351186,W,1,03,,698.07,M,-18.860,M,,*42
$GPRMC,065829.00,A,5332.3087898,N,11329.9351186,W,0.0000,0.000,261106,13.9,E*48
$GPGSA,A,2,18,22,9,,,,,,,,,,,,*2D
{"class":"TPV","mode":2,"time":"2006-11-26T06:58:29.000Z","leapseconds":14,"ept":0.005,"lat":53.538479830,"lon":-113.498918644,"altHAE":679.2080,"altMSL":698.0676,"alt":698.0676,"track":0.0000,"magtrack":13.9355,"magvar":13.9,"speed":0.000}
$GPGGA,065829.00,5332.3087898,N,11329.9351186,W,1,03,,698.07,M,-18.860,M,,*42
$GPRMC,065829.00,A,5332.3087898,N,11329.9351186,W,0.0000,0.000,261106,13.9,E*48
$GPGSA,A,2,18,22,9,,,,,,,,,,,,*2D
{"class":"TPV","mode":2,"time":"2006-11-26T06:58:29.000Z","leapseconds":14,"ept":0.005,"lat":53.538479830,"lon":-113.498918644,"altHAE":679.2080,"altMSL":698.0676,"alt":698.0676,"track":0.0000,"magtrack":13.9355,"magvar":13.9,"speed":0.000}
$GPGSV,2,1,07,19,26,249,27,18,26,096,32,01,30,221,26,11,25,307,26*78
$GPGSV,2,2,07,03,08,225,28,22,64,094,41,09,24,045,39*44
{"class":"SKY","time":"2006-11-26T06:58:29.537Z","nSat":7,"uSat":3,"satellites":[{"PRN":19,"gnssid":0,"svid":19,"az":249.4,"el":25.7,"ss":27.0,"used":false,"health":1},{"PRN":18,"gnssid":0,"svid":18,"az":95.8,"el":25.9,"ss":32.0,"used":true,"health":1},{"PRN":1,"gnssid":0,"svid":1,"az":221.4,"el":29.5,"ss":26.0,"used":false,"health":1},{"PRN":11,"gnssid":0,"svid":11,"az":307.1,"el":24.8,"ss":26.0,"used":false,"health":1},{"PRN":3,"gnssid":0,"svid":3,"az":225.2,"el":7.6,"ss":28.0,"used":false,"health":1}]}
$GPZDA,065830.00,26,11,2006,00,00*6E
$GPGGA,065830.00,5332.3087747,N,11329.9351086,W,1,03,,698.07,M,-18.860,M,,*46
$GPRMC,065830.00,A,5332.3087747,N,11329.9351086,W,0.0000,0.000,261106,13.9,E*4C
$GPGSA,A,2,18,22,9,,,,,,,,,,,,*2D
{"class":"TPV","mode":2,"time":"2006-11-26T06:58:30.000Z","leapseconds":14,"ept":0.005,"lat":53.538479578,"lon":-113.498918476,"altHAE":679.2120,"altMSL":698.0716,"alt":698.0716,"track":0.0000,"magtrack":13.9355,"magvar":13.9,"speed":0.000}
$GPZDA,065831.00,26,11,2006,00,00*6F
$GPGGA,065831.00,5332.3087596,N,11329.9350985,W,1,03,,698.07,M,-18.860,M,,*42
$GPRMC,065831.00,A,5332.3087596,N,11329.9350985,W,0.0000,0.000,261106,13.9,E*48
$GPGSA,A,2,18,22,9,,,,,,,,,,,,*2D
{"class":"TPV","mode":2,"time":"2006-11-26T06:58:31.000Z","leapseconds":14,"ept":0.005,"lat":53.538479327,"lon":-113.498918309,"altHAE":679.2150,"altMSL":698.0746,"alt":698.0746,"track":0.0000,"magtrack":13.9355,"magvar":13.9,"speed":0.000}
$GPGGA,065831.00,5332.3087596,N,11329.9350985,W,1,03,3.72,698.07,M,-18.860,M,,*5A
$GPRMC,065831.00,A,5332.3087596,N,11329.9350985,W,0.0000,0.000,261106,13.9,E*48
$GPGSA,A,2,18,22,9,,,,,,,,,,3.9,3.7,1.0*0C
{"class":"TPV","mode":2,"time":"2006-11-26T06:58:31.000Z","leapseconds":14,"ept":0.005,"lat":53.538479327,"lon":-113.498918309,"altHAE":679.2150,"altMSL":698.0746,"alt":698.0746,"track":0.0000,"magtrack":13.9355,"magvar":13.9,"speed":0.000,"eph":70.735,"sep":73.249}
{"class":"SKY","time":"2006-11-26T06:58:29.537Z","hdop":3.72,"pdop":3.86,"tdop":2.56,"vdop":1.00}
$GPZDA,065832.00,26,11,2006,00,00*6C
$GPGGA,065832.00,5332.3087496,N,11329.9350885,W,1,03,,698.08,M,-18.860,M,,*4E
$GPRMC,065832.00,A,5332.3087496,N,11329.9350885,W,0.0000,0.000,261106,13.9,E*4B
$GPGSA,A,2,18,22,9,,,,,,,,,,,,*2D
{"class":"TPV","mode":2,"time":"2006-11-26T06:58:32.000Z","leapseconds":14,"ept":0.005,"lat":53.538479159,"lon":-113.498918141,"altHAE":679.2180,"altMSL":698.0776,"alt":698.0776,"track":0.0000,"magtrack":13.9355,"magvar":13.9,"speed":0.000}
$GPGGA,065832.00,5332.3087496,N,11329.9350885,W,1,03,3.72,698.08,M,-18.860,M,,*56
$GPRMC,065832.00,A,5332.3087496,N,11329.9350885,W,0.0000,0.000,261106,13.9,E*4B
$GPGSA,A,2,18,22,9,,,,,,,,,,3.9,3.7,1.0*0C
{"class":"TPV","mode":2,"time":"2006-11-26T06:58:32.000Z","leapseconds":14,"ept":0.005,"lat":53.538479159,"lon":-113.498918141,"altHAE":679.2180,"altMSL":698.0776,"alt":698.0776,"track":0.0000,"magtrack":13.9355,"magvar":13.9,"speed":0.000,"eph":70.735,"sep":73.249}
{"class":"SKY","time":"2006-11-26T06:58:29.537Z","hdop":3.72,"pdop":3.86,"tdop":2.56,"vdop":1.00}
$GPZDA,065833.00,26,11,2006,00,00*6D
$GPGGA,065833.00,5332.3087345,N,11329.9350834,W,1,03,,698.08,M,-18.860,M,,*4C
$GPRMC,065833.00,A,5332.3087345,N,11329.9350834,W,0.0000,0.000,261106,13.9,E*49
$GPGSA,A,2,18,22,9,,,,,,,,,,,,*2D
{"class":"TPV","mode":2,"time":"2006-11-26T06:58:33.000Z","leapseconds":14,"ept":0.005,"lat":53.538478908,"lon":-113.498918057,"altHAE":679.2220,"altMSL":698.0816,"alt":698.0816,"track":0.0000,"magtrack":13.9355,"magvar":13.9,"speed":0.000}
$GPGGA,065833.00,5332.3087345,N,11329.9350834,W,1,03,3.72,698.08,M,-18.860,M,,*54
$GPRMC,065833.00,A,5332.3087345,N,11329.9350834,W,0.0000,0.000,261106,13.9,E*49
$GPGSA,A,2,18,22,9,,,,,,,,,,3.9,3.7,1.0*0C
{"class":"TPV","mode":2,"time":"2006-11-26T06:58:33.000Z","leapseconds":14,"ept":0.005,"lat":53.538478908,"lon":-113.498918057,"altHAE":679.2220,"altMSL":698.0816,"alt":698.0816,"track":0.0000,"magtrack":13.9355,"magvar":13.9,"speed":0.000,"eph":70.753,"sep":73.266}
{"class":"SKY","time":"2006-11-26T06:58:29.537Z","hdop":3.72,"pdop":3.86,"tdop":2.56,"vdop":1.00}
$GPZDA,065834.00,26,11,2006,00,00*6A
$GPGGA,065834.00,5332.3087244,N,11329.9350734,W,1,03,,698.08,M,-18.860,M,,*44
$GPRMC,065834.00,A,5332.3087244,N,11329.9350734,W,0.0000,0.000,261106,13.9,E*41
$GPGSA,A,2,18,22,9,,,,,,,,,,,,*2D
{"class":"TPV","mode":2,"time":"2006-11-26T06:58:34.000Z","leapseconds":14,"ept":0.005,"lat":53.538478740,"lon":-113.498917890,"altHAE":679.2250,"altMSL":698.0846,"alt":698.0846,"track":0.0000,"magtrack":13.9355,"magvar":13.9,"speed":0.000}
$GPGSV,2,1,07,19,26,249,27,18,26,096,32,01,30,221,26,11,25,307,26*78
$GPGSV,2,2,07,03,08,225,28,22,64,094,40,09,24,045,38*44
{"class":"SKY","time":"2006-11-26T06:58:34.512Z","nSat":7,"uSat":3,"satellites":[{"PRN":19,"gnssid":0,"svid":19,"az":249.3,"el":25.6,"ss":27.0,"used":false,"health":1},{"PRN":18,"gnssid":0,"svid":18,"az":95.9,"el":25.8,"ss":32.0,"used":true,"health":1},{"PRN":1,"gnssid":0,"svid":1,"az":221.4,"el":29.6,"ss":26.0,"used":false,"health":1},{"PRN":11,"gnssid":0,"svid":11,"az":307.1,"el":24.8,"ss":26.0,"used":false,"health":1},{"PRN":3,"gnssid":0,"svid":3,"az":225.2,"el":7.5,"ss":28.0,"used":false,"health":1}]}
$GPZDA,065835.00,26,11,2006,00,00*6B
$GPGGA,065835.00,5332.3087093,N,11329.9350683,W,1,03,,698.09,M,-18.860,M,,*41
$GPRMC,065835.00,A,5332.3087093,N,11329.9350683,W,0.0000,0.000,261106,13.9,E*45
$GPGSA,A,2,18,22,9,,,,,,,,,,,,*2D
{"class":"TPV","mode":2,"time":"2006-11-26T06:58:35.000Z","leapseconds":14,"ept":0.005,"lat":53.538478489,"lon":-113.498917806,"altHAE":679.2280,"altMSL":698.0876,"alt":698.0876,"track":0.0000,"magtrack":13.9355,"magvar":13.9,"speed":0.000}
$GPGGA,065835.00,5332.3087093,N,11329.9350683,W,1,03,,698.09,M,-18.860,M,,*41
$GPRMC,065835.00,A,5332.3087093,N,11329.9350683,W,0.0000,0.000,261106,13.9,E*45
$GPGSA,A,2,18,22,9,,,,,,,,,,,,*2D
{"class":"TPV","mode":2,"time":"2006-11-26T06:58:35.000Z","leapseconds":14,"ept":0.005,"lat":53.538478489,"lon":-113.498917806,"altHAE":679.2280,"altMSL":698.0876,"alt":698.0876,"track":0.0000,"magtrack":13.9355,"magvar":13.9,"speed":0.000}
$GPGGA,065835.00,5332.3087093,N,11329.9350683,W,1,03,3.72,698.09,M,-18.860,M,,*59
$GPRMC,065835.00,A,5332.3087093,N,11329.9350683,W,0.0000,0.000,261106,13.9,E*45
$GPGSA,A,2,18,22,9,,,,,,,,,,3.9,3.7,1.0*0C
{"class":"TPV","mode":2,"time":"2006-11-26T06:58:35.000Z","leapseconds":14,"ept":0.005,"lat":53.538478489,"lon":-113.498917806,"altHAE":679.2280,"altMSL":698.0876,"alt":698.0876,"track":0.0000,"magtrack":13.9355,"magvar":13.9,"speed":0.000,"eph":70.770,"sep":73.282}
{"class":"SKY","time":"2006-11-26T06:58:34.512Z","hdop":3.72,"pdop":3.86,"tdop":2.56,"vdop":1.00}
$GPZDA,065837.00,26,11,2006,00,00*69
$GPGGA,065837.00,5332.3086892,N,11329.9350633,W,1,03,,698.09,M,-18.860,M,,*40
$GPRMC,065837.00,A,5332.3086892,N,11329.9350633,W,0.0000,0.000,261106,13.9,E*44
$GPGSA,A,2,18,22,9,,,,,,,,,,,,*2D
{"class":"TPV","mode":2,"time":"2006-11-26T06:58:37.000Z","leapseconds":14,"ept":0.005,"lat":53.538478154,"lon":-113.498917722,"altHAE":679.2350,"altMSL":698.0946,"alt":698.0946,"track":0.0000,"magtrack":13.9355,"magvar":13.9,"speed":0.000}
$GPGGA,065837.00,5332.3086892,N,11329.9350633,W,1,03,3.73,698.09,M,-18.860,M,,*59
$GPRMC,065837.00,A,5332.3086892,N,11329.9350633,W,0.0000,0.000,261106,13.9,E*44
$GPGSA,A,2,18,22,9,,,,,,,,,,3.9,3.7,1.0*0C
{"class":"TPV","mode":2,"time":"2006-11-26T06:58:37.000Z","leapseconds":14,"ept":0.005,"lat":53.538478154,"lon":-113.498917722,"altHAE":679.2350,"altMSL":698.0946,"alt":698.0946,"track":0.0000,"magtrack":13.9355,"magvar":13.9,"speed":0.000,"eph":70.787,"sep":73.299}
{"class":"SKY","time":"2006-11-26T06:58:34.512Z","hdop":3.73,"pdop":3.86,"tdop":2.56,"vdop":1.00}
$GPZDA,065838.00,26,11,2006,00,00*66
$GPGGA,065838.00,5332.3086792,N,11329.9350633,W,1,03,,698.10,M,-18.860,M,,*48
$GPRMC,065838.00,A,5332.3086792,N,11329.9350633,W,0.0000,0.000,261106,13.9,E*44
$GPGSA,A,2,18,22,9,,,,,,,,,,,,*2D
{"class":"TPV","mode":2,"time":"2006-11-26T06:58:38.000Z","leapseconds":14,"ept":0.005,"lat":53.538477986,"lon":-113.498917722,"altHAE":679.2380,"altMSL":698.0976,"alt":698.0976,"track":0.0000,"magtrack":13.9355,"magvar":13.9,"speed":0.000}
$GPZDA,065839.00,26,11,2006,00,00*67
$GPGGA,065839.00,5332.3086691,N,11329.9350583,W,1,03,,698.10,M,-18.860,M,,*43
$GPRMC,065839.00,A,5332.3086691,N,11329.9350583,W,0.0000,0.000,261106,13.9,E*4F
$GPGSA,A,2,18,22,9,,,,,,,,,,,,*2D
{"class":"TPV","mode":2,"time":"2006-11-26T06:58:39.000Z","leapseconds":14,"ept":0.005,"lat":53.538477818,"lon":-113.498917638,"altHAE":679.2410,"altMSL":698.1006,"alt":698.1006,"track":0.0000,"magtrack":13.9355,"magvar":13.9,"speed":0.000}
$GPGSV,2,1,07,19,26,249,27,18,26,096,30,01,30,221,26,11,25,307,26*7A
$GPGSV,2,2,07,03,07,225,28,22,64,094,40,09,24,045,39*4A
{"class":"SKY","time":"2006-11-26T06:58:39.496Z","nSat":7,"uSat":3,"satellites":[{"PRN":19,"gnssid":0,"svid":19,"az":249.3,"el":25.6,"ss":27.0,"used":false,"health":1},{"PRN":18,"gnssid":0,"svid":18,"az":95.9,"el":25.8,"ss":30.0,"used":true,"health":1},{"PRN":1,"gnssid":0,"svid":1,"az":221.5,"el":29.6,"ss":26.0,"used":false,"health":1},{"PRN":11,"gnssid":0,"svid":11,"az":307.1,"el":24.9,"ss":26.0,"used":false,"health":1},{"PRN":3,"gnssid":0,"svid":3,"az":225.2,"el":7.5,"ss":28.0,"used":false,"health":1}]}
$GPGGA,065839.00,5332.3086691,N,11329.9350583,W,1,03,3.73,698.10,M,-18.860,M,,*5A
$GPRMC,065839.00,A,5332.3086691,N,11329.9350583,W,0.0000,0.000,261106,13.9,E*4F
$GPGSA,A,2,18,22,9,,,,,,,,,,3.9,3.7,1.0*0C
{"class":"TPV","mode":2,"time":"2006-11-26T06:58:39.000Z","leapseconds":14,"ept":0.005,"lat":53.538477818,"lon":-113.498917638,"altHAE":679.2410,"altMSL":698.1006,"alt":698.1006,"track":0.0000,"magtrack":13.9355,"magvar":13.9,"speed":0.000,"eph":70.803,"sep":73.315}
{"class":"SKY","time":"2006-11-26T06:58:39.496Z","hdop":3.73,"pdop":3.86,"tdop":2.56,"vdop":1.00}
$GPZDA,065841.00,26,11,2006,00,00*68
$GPGGA,065841.00,5332.3086440,N,11329.9350482,W,1,03,,698.11,M,-18.860,M,,*43
$GPRMC,065841.00,A,5332.3086440,N,11329.9350482,W,0.0000,0.000,261106,13.9,E*4E
$GPGSA,A,2,18,22,9,,,,,,,,,,,,*2D
{"class":"TPV","mode":2,"time":"2006-11-26T06:58:41.000Z","leapseconds":14,"ept":0.005,"lat":53.538477399,"lon":-113.498917470,"altHAE":679.2470,"altMSL":698.1066,"alt":698.1066,"track":0.0000,"magtrack":13.9355,"magvar":13.9,"speed":0.000}
$GPGGA,065841.00,5332.3086440,N,11329.9350482,W,1,03,3.73,698.11,M,-18.860,M,,*5A
$GPRMC,065841.00,A,5332.3086440,N,11329.9350482,W,0.0000,0.000,261106,13.9,E*4E
$GPGSA,A,2,18,22,9,,,,,,,,,,3.9,3.7,1.0*0C
{"class":"TPV","mode":2,"time":"2006-11-26T06:58:41.000Z","leapseconds":14,"ept":0.005,"lat":53.538477399,"lon":-113.498917470,"altHAE":679.2470,"altMSL":698.1066,"alt":698.1066,"track":0.0000,"magtrack":13.9355,"magvar":13.9,"speed":0.000,"eph":70.820,"sep":73.331}
{"class":"SKY","time":"2006-11-26T06:58:39.496Z","hdop":3.73,"pdop":3.86,"tdop":2.56,"vdop":1.00}
$GPZDA,065842.00,26,11,2006,00,00*6B
$GPGGA,065842.00,5332.3086289,N,11329.9350432,W,1,03,,698.11,M,-18.860,M,,*48
$GPRMC,065842.00,A,5332.3086289,N,11329.9350432,W,0.0000,0.000,261106,13.9,E*45
$GPGSA,A,2,18,22,9,,,,,,,,,,,,*2D
{"class":"TPV","mode":2,"time":"2006-11-26T06:58:42.000Z","leapseconds":14,"ept":0.005,"lat":53.538477148,"lon":-113.498917387,"altHAE":679.2500,"altMSL":698.1096,"alt":698.1096,"track":0.0000,"magtrack":13.9355,"magvar":13.9,"speed":0.000}
$GPZDA,065843.00,26,11,2006,00,00*6A
$GPGGA,065843.00,5332.3086188,N,11329.9350382,W,1,03,,698.11,M,-18.860,M,,*47
$GPRMC,065843.00,A,5332.3086188,N,11329.9350382,W,0.0000,0.000,261106,13.9,E*4A
$GPGSA,A,2,18,22,9,,,,,,,,,,,,*2D
{"class":"TPV","mode":2,"time":"2006-11-26T06:58:43.000Z","leapseconds":14,"ept":0.005,"lat":53.538476980,"lon":-113.498917303,"altHAE":679.2530,"altMSL":698.1126,"alt":698.1126,"track":0.0000,"magtrack":13.9355,"magvar":13.9,"speed":0.000}
$GPZDA,065844.00,26,11,2006,00,00*6D
$GPGGA,065844.00,5332.3086087,N,11329.9350331,W,1,03,,698.12,M,-18.860,M,,*45
$GPRMC,065844.00,A,5332.3086087,N,11329.9350331,W,0.0000,0.000,261106,13.9,E*4B
$GPGSA,A,2,18,22,9,,,,,,,,,,,,*2D
{"class":"TPV","mode":2,"time":"2006-11-26T06:58:44.000Z","leapseconds":14,"ept":0.005,"lat":53.538476812,"lon":-113.498917219,"altHAE":679.2560,"altMSL":698.1156,"alt":698.1156,"track":0.0000,"magtrack":13.9355,"magvar":13.9,"speed":0.000}
$GPZDA,065845.00,26,11,2006,00,00*6C
$GPGGA,065845.00,5332.3085937,N,11329.9350281,W,1,03,,698.12,M,-18.860,M,,*4F
$GPRMC,065845.00,A,5332.3085937,N,11329.9350281,W,0.0000,0.000,261106,13.9,E*41
$GPGSA,A,2,18,22,9,,,,,,,,,,,,*2D
{"class":"TPV","mode":2,"time":"2006-11-26T06:58:45.000Z","leapseconds":14,"ept":0.005,"lat":53.538476561,"lon":-113.498917135,"altHAE":679.2590,"altMSL":698.1186,"alt":698.1186,"track":0.0000,"magtrack":13.9355,"magvar":13.9,"speed":0.000}
$GPGGA,065845.00,5332.3085937,N,11329.9350281,W,1,03,3.73,698.12,M,-18.860,M,,*56
$GPRMC,065845.00,A,5332.3085937,N,11329.9350281,W,0.0000,0.000,261106,13.9,E*41
$GPGSA,A,2,18,22,9,,,,,,,,,,3.9,3.7,1.0*0C
{"class":"TPV","mode":2,"time":"2006-11-26T06:58:45.000Z","leapseconds":14,"ept":0.005,"lat":53.538476561,"lon":-113.498917135,"altHAE":679.2590,"altMSL":698.1186,"alt":698.1186,"track":0.0000,"magtrack":13.9355,"magvar":13.9,"speed":0.000,"eph":70.854,"sep":73.363}
{"class":"SKY","time":"2006-11-26T06:58:39.496Z","hdop":3.73,"pdop":3.86,"tdop":2.57,"vdop":1.00}
$GPZDA,065846.00,26,11,2006,00,00*6F
$GPGGA,065846.00,5332.3085836,N,11329.9350281,W,1,03,,698.12,M,-18.860,M,,*4C
$GPRMC,065846.00,A,5332.3085836,N,11329.9350281,W,0.0000,0.000,261106,13.9,E*42
$GPGSA,A,2,18,22,9,,,,,,,,,,,,*2D
{"class":"TPV","mode":2,"time":"2006-11-26T06:58:46.000Z","leapseconds":14,"ept":0.005,"lat":53.538476393,"lon":-113.498917135,"altHAE":679.2620,"altMSL":698.1216,"alt":698.1216,"track":0.0000,"magtrack":13.9355,"magvar":13.9,"speed":0.000}
$GPGGA,065846.00,5332.3085836,N,11329.9350281,W,1,03,3.73,698.12,M,-18.860,M,,*55
$GPRMC,065846.00,A,5332.3085836,N,11329.9350281,W,0.0000,0.000,261106,13.9,E*42
$GPGSA,A,2,18,22,9,,,,,,,,,,3.9,3.7,1.0*0C
{"class":"TPV","mode":2,"time":"2006-11-26T06:58:46.000Z","leapseconds":14,"ept":0.005,"lat":53.538476393,"lon":-113.498917135,"altHAE":679.2620,"altMSL":698.1216,"alt":698.1216,"track":0.0000,"magtrack":13.9355,"magvar":13.9,"speed":0.000,"eph":70.854,"sep":73.363}
{"class":"SKY","time":"2006-11-26T06:58:39.496Z","hdop":3.73,"pdop":3.86,"tdop":2.57,"vdop":1.00}
$GPZDA,065847.00,26,11,2006,00,00*6E
$GPGGA,065847.00,5332.3085685,N,11329.9350231,W,1,03,,698.12,M,-18.860,M,,*40
$GPRMC,065847.00,A,5332.3085685,N,11329.9350231,W,0.0000,0.000,261106,13.9,E*4E
$GPGSA,A,2,18,22,9,,,,,,,,,,,,*2D
{"class":"TPV","mode":2,"time":"2006-11-26T06:58:47.000Z","leapseconds":14,"ept":0.005,"lat":53.538476142,"lon":-113.498917051,"altHAE":679.2650,"altMSL":698.1246,"alt":698.1246,"track":0.0000,"magtrack":13.9355,"magvar":13.9,"speed":0.000}
$GPGGA,065847.00,5332.3085685,N,11329.9350231,W,1,03,,698.12,M,-18.860,M,,*40
$GPRMC,065847.00,A,5332.3085685,N,11329.9350231,W,0.0000,0.000,261106,13.9,E*4E
$GPGSA,A,2,18,22,9,,,,,,,,,,,,*2D
{"class":"TPV","mode":2,"time":"2006-11-26T06:58:47.000Z","leapseconds":14,"ept":0.005,"lat":53.538476142,"lon":-113.498917051,"altHAE":679.2650,"altMSL":698.1246,"alt":698.1246,"track":0.0000,"magtrack":13.9355,"magvar":13.9,"speed":0.000}
$GPZDA,065848.00,26,11,2006,00,00*61
$GPGGA,065848.00,5332.3085585,N,11329.9350181,W,1,03,,698.13,M,-18.860,M,,*45
$GPRMC,065848.00,A,5332.3085585,N,11329.9350181,W,0.0000,0.000,261106,13.9,E*4A
$GPGSA,A,2,18,22,9,,,,,,,,,,,,*2D
{"class":"TPV","mode":2,"time":"2006-11-26T06:58:48.000Z","leapseconds":14,"ept":0.005,"lat":53.538475974,"lon":-113.498916968,"altHAE":679.2670,"altMSL":698.1266,"alt":698.1266,"track":0.0000,"magtrack":13.9355,"magvar":13.9,"speed":0.000}
$GPZDA,065849.00,26,11,2006,00,00*60
$GPGGA,065849.00,5332.3085434,N,11329.9350130,W,1,03,,698.13,M,-18.860,M,,*45
$GPRMC,065849.00,A,5332.3085434,N,11329.9350130,W,0.0000,0.000,261106,13.9,E*4A
$GPGSA,A,2,18,22,9,,,,,,,,,,,,*2D
{"class":"TPV","mode":2,"time":"2006-11-26T06:58:49.000Z","leapseconds":14,"ept":0.005,"lat":53.538475723,"lon":-113.498916884,"altHAE":679.2700,"altMSL":698.1296,"alt":698.1296,"track":0.0000,"magtrack":13.9355,"magvar":13.9,"speed":0.000}
$GPGGA,065849.43,,S,,W,1,03,,,M,,M,,*4F
$GPRMC,065849.43,A,,S,,W,,,261106,,*0F
$GPGSA,A,2,18,22,9,,,,,,,,,,,,*2D
{"class":"TPV","mode":2,"time":"2006-11-26T06:58:49.430Z","leapseconds":14,"ept":0.005}
$GPGGA,065849.43,,S,,W,1,03,3.73,,M,,M,,*56
$GPRMC,065849.43,A,,S,,W,,,261106,,*0F
$GPGSA,A,2,18,22,9,,,,,,,,,,3.9,3.7,1.0*0C
{"class":"TPV","mode":2,"time":"2006-11-26T06:58:49.430Z","leapseconds":14,"ept":0.005,"eph":70.870,"sep":73.379}
{"class":"SKY","time":"2006-11-26T06:58:39.496Z","hdop":3.73,"pdop":3.86,"tdop":2.57,"vdop":1.00}
$GPGSV,2,1,07,19,26,249,27,18,26,096,28,01,30,221,26,11,25,307,26*73
$GPGSV,2,2,07,03,07,225,28,22,64,094,39,09,24,045,37*4A
{"class":"SKY","time":"2006-11-26T06:58:49.510Z","hdop":3.73,"pdop":3.86,"tdop":2.57,"vdop":1.00,"nSat":7,"uSat":3,"satellites":[{"PRN":19,"gnssid":0,"svid":19,"az":249.2,"el":25.6,"ss":27.0,"used":false,"health":1},{"PRN":18,"gnssid":0,"svid":18,"az":95.9,"el":25.7,"ss":28.0,"used":true,"health":1},{"PRN":1,"gnssid":0,"svid":1,"az":221.5,"el":29.7,"ss":26.0,"used":false,"health":1},{"PRN":11,"gnssid":0,"svid":11,"az":307.0,"el":24.9,"ss":26.0,"used":false,"health":1},{"PRN":3,"gnssid":0,"svid":3,"az":225.1,"el":7.4,"ss":28.0,"used":false,"health":1}]}
$GPZDA,065850.00,26,11,2006,00,00*68
$GPGGA,065850.00,5332.3085333,N,11329.9350080,W,1,03,,698.13,M,-18.860,M,,*47
$GPRMC,065850.00,A,5332.3085333,N,11329.9350080,W,0.0000,0.000,261106,13.9,E*48
$GPGSA,A,2,18,22,9,,,,,,,,,,,,*2D
{"class":"TPV","mode":2,"time":"2006-11-26T06:58:50.000Z","leapseconds":14,"ept":0.005,"lat":53.538475555,"lon":-113.498916800,"altHAE":679.2730,"altMSL":698.1326,"alt":698.1326,"track":0.0000,"magtrack":13.9355,"magvar":13.9,"speed":0.000}
$GPGGA,065850.00,5332.3085333,N,11329.9350080,W,1,03,3.73,698.13,M,-18.860,M,,*5E
$GPRMC,065850.00,A,5332.3085333,N,11329.9350080,W,0.0000,0.000,261106,13.9,E*48
$GPGSA,A,2,18,22,9,,,,,,,,,,3.9,3.7,1.0*0C
{"class":"TPV","mode":2,"time":"2006-11-26T06:58:50.000Z","leapseconds":14,"ept":0.005,"lat":53.538475555,"lon":-113.498916800,"altHAE":679.2730,"altMSL":698.1326,"alt":698.1326,"track":0.0000,"magtrack":13.9355,"magvar":13.9,"speed":0.000,"eph":70.889,"sep":73.397}
{"class":"SKY","time":"2006-11-26T06:58:49.510Z","hdop":3.73,"pdop":3.86,"tdop":2.57,"vdop":1.00}
$GPZDA,065851.00,26,11,2006,00,00*69
$GPGGA,065851.00,5332.3085233,N,11329.9350080,W,1,03,,698.14,M,-18.860,M,,*40
$GPRMC,065851.00,A,5332.3085233,N,11329.9350080,W,0.0000,0.000,261106,13.9,E*48
$GPGSA,A,2,18,22,9,,,,,,,,,,,,*2D
{"class":"TPV","mode":2,"time":"2006-11-26T06:58:51.000Z","leapseconds":14,"ept":0.005,"lat":53.538475388,"lon":-113.498916800,"altHAE":679.2760,"altMSL":698.1356,"alt":698.1356,"track":0.0000,"magtrack":13.9355,"magvar":13.9,"speed":0.000}
$GPGGA,065851.00,5332.3085233,N,11329.9350080,W,1,03,3.73,698.14,M,-18.860,M,,*59
$GPRMC,065851.00,A,5332.3085233,N,11329.9350080,W,0.0000,0.000,261106,13.9,E*48
$GPGSA,A,2,18,22,9,,,,,,,,,,3.9,3.7,1.0*0C
{"class":"TPV","mode":2,"time":"2006-11-26T06:58:51.000Z","leapseconds":14,"ept":0.005,"lat":53.538475388,"lon":-113.498916800,"altHAE":679.2760,"altMSL":698.1356,"alt":698.1356,"track":0.0000,"magtrack":13.9355,"magvar":13.9,"speed":0.000,"eph":70.889,"sep":73.397}
{"class":"SKY","time":"2006-11-26T06:58:49.510Z","hdop":3.73,"pdop":3.86,"tdop":2.57,"vdop":1.00}
$GPZDA,065852.00,26,11,2006,00,00*6A
$GPGGA,065852.00,5332.3085082,N,11329.9350030,W,1,03,,698.14,M,-18.860,M,,*40
$GPRMC,065852.00,A,5332.3085082,N,11329.9350030,W,0.0000,0.000,261106,13.9,E*48
$GPGSA,A,2,18,22,9,,,,,,,,,,,,*2D
{"class":"TPV","mode":2,"time":"2006-11-26T06:58:52.000Z","leapseconds":14,"ept":0.005,"lat":53.538475136,"lon":-113.498916716,"altHAE":679.2780,"altMSL":698.1376,"alt":698.1376,"track":0.0000,"magtrack":13.9355,"magvar":13.9,"speed":0.000}
$GPGGA,065852.00,5332.3085082,N,11329.9350030,W,1,03,3.73,698.14,M,-18.860,M,,*59
$GPRMC,065852.00,A,5332.3085082,N,11329.9350030,W,0.0000,0.000,261106,13.9,E*48
$GPGSA,A,2,18,22,9,,,,,,,,,,3.9,3.7,1.0*0C
{"class":"TPV","mode":2,"time":"2006-11-26T06:58:52.000Z","leapseconds":14,"ept":0.005,"lat":53.538475136,"lon":-113.498916716,"altHAE":679.2780,"altMSL":698.1376,"alt":698.1376,"track":0.0000,"magtrack":13.9355,"magvar":13.9,"speed":0.000,"eph":70.905,"sep":73.413}
{"class":"SKY","time":"2006-11-26T06:58:49.510Z","hdop":3.73,"pdop":3.86,"tdop":2.57,"vdop":1.00}
$GPZDA,065853.00,26,11,2006,00,00*6B
$GPGGA,065853.00,5332.3084981,N,11329.9349979,W,1,03,,698.14,M,-18.860,M,,*46
$GPRMC,065853.00,A,5332.3084981,N,11329.9349979,W,0.0000,0.000,261106,13.9,E*4E
$GPGSA,A,2,18,22,9,,,,,,,,,,,,*2D
{"class":"TPV","mode":2,"time":"2006-11-26T06:58:53.000Z","leapseconds":14,"ept":0.005,"lat":53.538474968,"lon":-113.498916632,"altHAE":679.2810,"altMSL":698.1406,"alt":698.1406,"track":0.0000,"magtrack":13.9355,"magvar":13.9,"speed":0.000}
$GPGGA,065853.00,5332.3084981,N,11329.9349979,W,1,03,3.73,698.14,M,-18.860,M,,*5F
$GPRMC,065853.00,A,5332.3084981,N,11329.9349979,W,0.0000,0.000,261106,13.9,E*4E
$GPGSA,A,2,18,22,9,,,,,,,,,,3.9,3.7,1.0*0C
{"class":"TPV","mode":2,"time":"2006-11-26T06:58:53.000Z","leapseconds":14,"ept":0.005,"lat":53.538474968,"lon":-113.498916632,"altHAE":679.2810,"altMSL":698.1406,"alt":698.1406,"track":0.0000,"magtrack":13.9355,"magvar":13.9,"speed":0.000,"eph":70.905,"sep":73.413}
{"class":"SKY","time":"2006-11-26T06:58:49.510Z","hdop":3.73,"pdop":3.86,"tdop":2.57,"vdop":1.00}
$GPZDA,065854.00,26,11,2006,00,00*6C
$GPGGA,065854.00,5332.3084830,N,11329.9349929,W,1,03,,698.14,M,-18.860,M,,*4F
$GPRMC,065854.00,A,5332.3084830,N,11329.9349929,W,0.0000,0.000,261106,13.9,E*47
$GPGSA,A,2,18,22,9,,,,,,,,,,,,*2D
{"class":"TPV","mode":2,"time":"2006-11-26T06:58:54.000Z","leapseconds":14,"ept":0.005,"lat":53.538474717,"lon":-113.498916548,"altHAE":679.2840,"altMSL":698.1436,"alt":698.1436,"track":0.0000,"magtrack":13.9355,"magvar":13.9,"speed":0.000}
$GPGGA,065854.00,5332.3084830,N,11329.9349929,W,1,02,,698.14,M,-18.860,M,,*4E
$GPRMC,065854.00,A,5332.3084830,N,11329.9349929,W,0.0000,0.000,261106,13.9,E*47
$GPGSA,A,2,18,22,9,,,,,,,,,,,,*2D
{"class":"TPV","mode":2,"time":"2006-11-26T06:58:54.000Z","leapseconds":14,"ept":0.005,"lat":53.538474717,"lon":-113.498916548,"altHAE":679.2840,"altMSL":698.1436,"alt":698.1436,"track":0.0000,"magtrack":13.9355,"magvar":13.9,"speed":0.000}
