$GPGGA,040929.00,,S,,W,1,05,2.34,,M,,M,,*55
$GPRMC,040929.00,A,,S,,W,0.0000,0.000,270899,,*37
$GPGSA,A,3,,,,,,,,,,,,,2.9,2.3,1.7*3E
{"class":"TPV","mode":3,"time":"1999-08-27T04:09:29.000Z","ept":0.005,"epv":39.373,"track":0.0000,"speed":0.000,"climb":0.000,"velN":0.000,"velE":0.000,"velD":0.000,"eph":44.377,"sep":55.020}
{"class":"SKY","hdop":2.34,"pdop":2.90,"tdop":1.63,"vdop":1.71}
$GPRMC,040930.00,V,2037.7074540,N,8704.0534902,W,,,270899,-2.0,W*52
$GPGSA,A,1,,,,,,,,,,,,,,,*1E
{"class":"TPV","mode":0,"time":"1999-08-27T04:09:30.000Z","ept":0.005}
$GPGGA,040930.00,2037.7074540,N,08704.0534902,W,1,05,2.34,27.90,M,-15.010,M,,*65
$GPRMC,040930.00,A,2037.7074540,N,8704.0534902,W,0.0000,0.000,270899,-2.0,W*75
$GPGSA,A,3,,,,,,,,,,,,,2.9,2.3,1.7*3E
{"class":"TPV","mode":3,"time":"1999-08-27T04:09:30.000Z","ept":0.005,"lat":20.628457567,"lon":-87.067558169,"altHAE":12.8922,"altMSL":27.9021,"alt":27.9021,"epv":39.373,"track":0.0000,"magtrack":358.0076,"magvar":-2.0,"speed":0.000,"climb":0.000,"epc":78.75,"velN":0.000,"velE":0.000,"velD":0.000,"geoidSep":-15.010,"eph":44.377,"sep":55.020}
{"class":"SKY","hdop":2.34,"pdop":2.90,"tdop":1.63,"vdop":1.71}
$GPZDA,040931.00,27,08,1999,00,00*6C
$GPGGA,040931.00,2037.7074618,N,08704.0534912,W,1,05,,27.90,M,-15.010,M,,*70
$GPRMC,040931.00,A,2037.7074618,N,8704.0534912,W,0.0283,,270899,-2.0,W*5C
$GPGSA,A,3,,,,,,,,,,,,,,,*1C
{"class":"TPV","mode":3,"time":"1999-08-27T04:09:31.000Z","ept":0.005,"lat":20.628457697,"lon":-87.067558187,"altHAE":12.8941,"altMSL":27.9039,"alt":27.9039,"magvar":-2.0,"speed":0.015,"climb":0.002,"geoidSep":-15.010}
$GPGGA,040931.00,2037.7074618,N,08704.0534912,W,1,05,2.34,27.90,M,-15.010,M,,*6B
$GPRMC,040931.00,A,2037.7074618,N,8704.0534912,W,0.0283,0.000,270899,-2.0,W*72
$GPGSA,A,3,,,,,,,,,,,,,2.9,2.3,1.7*3E
{"class":"TPV","mode":3,"time":"1999-08-27T04:09:31.000Z","ept":0.005,"lat":20.628457697,"lon":-87.067558187,"altHAE":12.8941,"altMSL":27.9039,"alt":27.9039,"epv":39.384,"track":0.0000,"magtrack":358.0076,"magvar":-2.0,"speed":0.015,"climb":0.002,"epc":78.76,"velN":0.000,"velE":0.000,"velD":0.000,"geoidSep":-15.010,"eph":44.392,"sep":55.038}
{"class":"SKY","hdop":2.34,"pdop":2.90,"tdop":1.63,"vdop":1.71}
$GPZDA,040932.00,27,08,1999,00,00*6F
$GPGGA,040932.00,2037.7074704,N,08704.0534918,W,1,05,,27.91,M,-15.010,M,,*74
$GPRMC,040932.00,A,2037.7074704,N,8704.0534918,W,0.0308,,270899,-2.0,W*5B
$GPGSA,A,3,,,,,,,,,,,,,,,*1C
{"class":"TPV","mode":3,"time":"1999-08-27T04:09:32.000Z","ept":0.005,"lat":20.628457840,"lon":-87.067558197,"altHAE":12.8959,"altMSL":27.9058,"alt":27.9058,"magvar":-2.0,"speed":0.016,"climb":0.002,"geoidSep":-15.010}
$GPGGA,040932.00,2037.7074704,N,08704.0534918,W,1,05,2.34,27.91,M,-15.010,M,,*6F
$GPRMC,040932.00,A,2037.7074704,N,8704.0534918,W,0.0308,0.000,270899,-2.0,W*75
$GPGSA,A,3,,,,,,,,,,,,,2.9,2.3,1.7*3E
{"class":"TPV","mode":3,"time":"1999-08-27T04:09:32.000Z","ept":0.005,"lat":20.628457840,"lon":-87.067558197,"altHAE":12.8959,"altMSL":27.9058,"alt":27.9058,"epv":39.384,"track":0.0000,"magtrack":358.0076,"magvar":-2.0,"speed":0.016,"climb":0.002,"epc":78.77,"velN":0.000,"velE":0.000,"velD":0.000,"geoidSep":-15.010,"eph":44.392,"sep":55.038}
{"class":"SKY","hdop":2.34,"pdop":2.90,"tdop":1.63,"vdop":1.71}
$GPZDA,040933.00,27,08,1999,00,00*6E
$GPGGA,040933.00,2037.7074794,N,08704.0534923,W,1,05,,27.91,M,-15.010,M,,*74
$GPRMC,040933.00,A,2037.7074794,N,8704.0534923,W,0.0324,,270899,-2.0,W*55
$GPGSA,A,3,,,,,,,,,,,,,,,*1C
{"class":"TPV","mode":3,"time":"1999-08-27T04:09:33.000Z","ept":0.005,"lat":20.628457990,"lon":-87.067558204,"altHAE":12.8974,"altMSL":27.9073,"alt":27.9073,"magvar":-2.0,"speed":0.017,"climb":0.002,"geoidSep":-15.010}
$GPGGA,040937.53,,S,,W,1,05,,,M,,M,,*47
$GPRMC,040937.53,A,,S,,W,,,221206,,*06
$GPGSA,A,3,,,,,,,,,,,,,,,*1C
{"class":"TPV","mode":3,"time":"2006-12-22T04:09:37.531Z","leapseconds":14,"ept":0.005}
$GPGGA,040937.53,,S,,W,1,05,2.34,,M,,M,,*5C
$GPRMC,040937.53,A,,S,,W,,,221206,,*06
$GPGSA,A,3,,,,,,,,,,,,,2.9,2.3,1.7*3E
{"class":"TPV","mode":3,"time":"2006-12-22T04:09:37.531Z","leapseconds":14,"ept":0.005,"epv":39.393,"eph":44.405,"sep":55.053}
{"class":"SKY","hdop":2.34,"pdop":2.90,"tdop":1.63,"vdop":1.71}
$GPZDA,040938.00,22,12,2006,00,00*67
$GPGGA,040938.00,2037.7074889,N,08704.0534923,W,1,05,,27.91,M,-15.010,M,,*7C
$GPRMC,040938.00,A,2037.7074889,N,8704.0534923,W,,,221206,-2.0,W*4E
$GPGSA,A,3,,,,,,,,,,,,,,,*1C
{"class":"TPV","mode":3,"time":"2006-12-22T04:09:38.000Z","leapseconds":14,"ept":0.005,"lat":20.628458149,"lon":-87.067558205,"altHAE":12.8990,"altMSL":27.9089,"alt":27.9089,"magvar":-2.0,"geoidSep":-15.010}
$GPGGA,040938.00,2037.7074889,N,08704.0534923,W,1,05,2.34,27.91,M,-15.010,M,,*67
$GPRMC,040938.00,A,2037.7074889,N,8704.0534923,W,0.0000,0.000,221206,-2.0,W*7E
$GPGSA,A,3,,,,,,,,,,,,,2.9,2.3,1.7*3E
{"class":"TPV","mode":3,"time":"2006-12-22T04:09:38.000Z","leapseconds":14,"ept":0.005,"lat":20.628458149,"lon":-87.067558205,"altHAE":12.8990,"altMSL":27.9089,"alt":27.9089,"epv":39.393,"track":0.0000,"magtrack":358.0076,"magvar":-2.0,"speed":0.000,"climb":0.000,"epc":168.08,"velN":0.000,"velE":0.000,"velD":0.000,"geoidSep":-15.010,"eph":44.405,"sep":55.053}
{"class":"SKY","hdop":2.34,"pdop":2.90,"tdop":1.63,"vdop":1.71}
$GPZDA,040939.00,22,12,2006,00,00*66
$GPGGA,040939.00,2037.7074984,N,08704.0534924,W,1,05,,27.91,M,-15.010,M,,*76
$GPRMC,040939.00,A,2037.7074984,N,8704.0534924,W,0.0340,,221206,-2.0,W*5D
$GPGSA,A,3,,,,,,,,,,,,,,,*1C
{"class":"TPV","mode":3,"time":"2006-12-22T04:09:39.000Z","leapseconds":14,"ept":0.005,"lat":20.628458307,"lon":-87.067558207,"altHAE":12.9003,"altMSL":27.9101,"alt":27.9101,"magvar":-2.0,"speed":0.017,"climb":0.001,"geoidSep":-15.010}
$GPGGA,040939.00,2037.7074984,N,08704.0534924,W,1,05,2.34,27.91,M,-15.010,M,,*6D
$GPRMC,040939.00,A,2037.7074984,N,8704.0534924,W,0.0340,0.000,221206,-2.0,W*73
$GPGSA,A,3,,,,,,,,,,,,,2.9,2.3,1.7*3E
{"class":"TPV","mode":3,"time":"2006-12-22T04:09:39.000Z","leapseconds":14,"ept":0.005,"lat":20.628458307,"lon":-87.067558207,"altHAE":12.9003,"altMSL":27.9101,"alt":27.9101,"epv":39.402,"track":0.0000,"magtrack":358.0076,"magvar":-2.0,"speed":0.017,"climb":0.001,"epc":78.80,"velN":0.000,"velE":0.000,"velD":0.000,"geoidSep":-15.010,"eph":44.419,"sep":55.068}
{"class":"SKY","hdop":2.34,"pdop":2.90,"tdop":1.63,"vdop":1.71}
$GPZDA,040940.00,22,12,2006,00,00*68
$GPGGA,040940.00,2037.7074995,N,08704.0534924,W,1,05,,27.91,M,-15.010,M,,*78
$GPRMC,040940.00,A,2037.7074995,N,8704.0534924,W,0.0037,,221206,-2.0,W*50
$GPGSA,A,3,,,,,,,,,,,,,,,*1C
{"class":"TPV","mode":3,"time":"2006-12-22T04:09:40.000Z","leapseconds":14,"ept":0.005,"lat":20.628458324,"lon":-87.067558207,"altHAE":12.9004,"altMSL":27.9102,"alt":27.9102,"magvar":-2.0,"speed":0.002,"climb":0.000,"geoidSep":-15.010}
$GPGGA,040940.00,2037.7074995,N,08704.0534924,W,1,05,2.34,27.91,M,-15.010,M,,*63
$GPRMC,040940.00,A,2037.7074995,N,8704.0534924,W,0.0037,0.000,221206,-2.0,W*7E
$GPGSA,A,3,,,,,,,,,,,,,2.9,2.3,1.7*3E
{"class":"TPV","mode":3,"time":"2006-12-22T04:09:40.000Z","leapseconds":14,"ept":0.005,"lat":20.628458324,"lon":-87.067558207,"altHAE":12.9004,"altMSL":27.9102,"alt":27.9102,"epv":39.402,"track":0.0000,"magtrack":358.0076,"magvar":-2.0,"speed":0.002,"climb":0.000,"epc":78.80,"velN":0.000,"velE":0.000,"velD":0.000,"geoidSep":-15.010,"eph":44.419,"sep":55.068}
{"class":"SKY","hdop":2.34,"pdop":2.90,"tdop":1.63,"vdop":1.71}
$GPZDA,040941.00,22,12,2006,00,00*69
$GPGGA,040941.00,2037.7075006,N,08704.0534923,W,1,05,,27.91,M,-15.010,M,,*7C
$GPRMC,040941.00,A,2037.7075006,N,8704.0534923,W,0.0039,,221206,-2.0,W*5A
$GPGSA,A,3,,,,,,,,,,,,,,,*1C
{"class":"TPV","mode":3,"time":"2006-12-22T04:09:41.000Z","leapseconds":14,"ept":0.005,"lat":20.628458343,"lon":-87.067558205,"altHAE":12.9005,"altMSL":27.9104,"alt":27.9104,"magvar":-2.0,"speed":0.002,"climb":0.000,"geoidSep":-15.010}
$GPGGA,040941.00,2037.7075006,N,08704.0534923,W,1,05,2.34,27.91,M,-15.010,M,,*67
$GPRMC,040941.00,A,2037.7075006,N,8704.0534923,W,0.0039,0.000,221206,-2.0,W*74
$GPGSA,A,3,,,,,,,,,,,,,2.9,2.3,1.7*3E
{"class":"TPV","mode":3,"time":"2006-12-22T04:09:41.000Z","leapseconds":14,"ept":0.005,"lat":20.628458343,"lon":-87.067558205,"altHAE":12.9005,"altMSL":27.9104,"alt":27.9104,"epv":39.411,"track":0.0000,"magtrack":358.0076,"magvar":-2.0,"speed":0.002,"climb":0.000,"epc":78.81,"velN":0.000,"velE":0.000,"velD":0.000,"geoidSep":-15.010,"eph":44.432,"sep":55.083}
{"class":"SKY","hdop":2.34,"pdop":2.90,"tdop":1.63,"vdop":1.71}
$GPZDA,040942.00,22,12,2006,00,00*6A
$GPGGA,040942.00,2037.7075017,N,08704.0534922,W,1,05,,27.91,M,-15.010,M,,*7E
$GPRMC,040942.00,A,2037.7075017,N,8704.0534922,W,0.0042,,221206,-2.0,W*54
$GPGSA,A,3,,,,,,,,,,,,,,,*1C
{"class":"TPV","mode":3,"time":"2006-12-22T04:09:42.000Z","leapseconds":14,"ept":0.005,"lat":20.628458362,"lon":-87.067558203,"altHAE":12.9006,"altMSL":27.9105,"alt":27.9105,"magvar":-2.0,"speed":0.002,"climb":0.000,"geoidSep":-15.010}
$GPGGA,040942.59,,S,,W,1,05,,,M,,M,,*4F
$GPRMC,040942.59,A,,S,,W,,,221206,,*0E
$GPGSA,A,3,,,,,,,,,,,,,,,*1C
{"class":"TPV","mode":3,"time":"2006-12-22T04:09:42.594Z","leapseconds":14,"ept":0.005}
$GPGGA,040942.59,,S,,W,1,05,2.34,,M,,M,,*54
$GPRMC,040942.59,A,,S,,W,,,221206,,*0E
$GPGSA,A,3,,,,,,,,,,,,,2.9,2.3,1.7*3E
{"class":"TPV","mode":3,"time":"2006-12-22T04:09:42.594Z","leapseconds":14,"ept":0.005,"epv":39.411,"eph":44.432,"sep":55.083}
{"class":"SKY","hdop":2.34,"pdop":2.90,"tdop":1.63,"vdop":1.71}
$GPZDA,040943.00,22,12,2006,00,00*6B
$GPGGA,040943.00,2037.7075135,N,08704.0534909,W,1,05,,27.91,M,-15.010,M,,*77
$GPRMC,040943.00,A,2037.7075135,N,8704.0534909,W,,,221206,-2.0,W*45
$GPGSA,A,3,,,,,,,,,,,,,,,*1C
{"class":"TPV","mode":3,"time":"2006-12-22T04:09:43.000Z","leapseconds":14,"ept":0.005,"lat":20.628458558,"lon":-87.067558182,"altHAE":12.9019,"altMSL":27.9117,"alt":27.9117,"magvar":-2.0,"geoidSep":-15.010}
$GPGGA,040943.00,2037.7075135,N,08704.0534909,W,1,05,2.34,27.91,M,-15.010,M,,*6C
$GPRMC,040943.00,A,2037.7075135,N,8704.0534909,W,0.0000,0.000,221206,-2.0,W*75
$GPGSA,A,3,,,,,,,,,,,,,2.9,2.3,1.7*3E
{"class":"TPV","mode":3,"time":"2006-12-22T04:09:43.000Z","leapseconds":14,"ept":0.005,"lat":20.628458558,"lon":-87.067558182,"altHAE":12.9019,"altMSL":27.9117,"alt":27.9117,"epv":39.411,"track":0.0000,"magtrack":358.0076,"magvar":-2.0,"speed":0.000,"climb":0.000,"epc":194.02,"velN":0.000,"velE":0.000,"velD":0.000,"geoidSep":-15.010,"eph":44.432,"sep":55.083}
{"class":"SKY","hdop":2.34,"pdop":2.90,"tdop":1.63,"vdop":1.71}
$GPZDA,040944.00,22,12,2006,00,00*6C
$GPGGA,040944.00,2037.7075255,N,08704.0534895,W,1,05,,27.91,M,-15.010,M,,*71
$GPRMC,040944.00,A,2037.7075255,N,8704.0534895,W,0.0431,,221206,-2.0,W*5B
$GPGSA,A,3,,,,,,,,,,,,,,,*1C
{"class":"TPV","mode":3,"time":"2006-12-22T04:09:44.000Z","leapseconds":14,"ept":0.005,"lat":20.628458758,"lon":-87.067558159,"altHAE":12.9030,"altMSL":27.9128,"alt":27.9128,"magvar":-2.0,"speed":0.022,"climb":0.001,"geoidSep":-15.010}
$GPGGA,040944.00,2037.7075255,N,08704.0534895,W,1,05,2.34,27.91,M,-15.010,M,,*6A
$GPRMC,040944.00,A,2037.7075255,N,8704.0534895,W,0.0431,0.000,221206,-2.0,W*75
$GPGSA,A,3,,,,,,,,,,,,,2.9,2.3,1.7*3E
{"class":"TPV","mode":3,"time":"2006-12-22T04:09:44.000Z","leapseconds":14,"ept":0.005,"lat":20.628458758,"lon":-87.067558159,"altHAE":12.9030,"altMSL":27.9128,"alt":27.9128,"epv":39.421,"track":0.0000,"magtrack":358.0076,"magvar":-2.0,"speed":0.022,"climb":0.001,"epc":78.83,"velN":0.000,"velE":0.000,"velD":0.000,"geoidSep":-15.010,"eph":44.447,"sep":55.101}
{"class":"SKY","hdop":2.34,"pdop":2.90,"tdop":1.63,"vdop":1.71}
$GPZDA,040945.00,22,12,2006,00,00*6D
$GPGGA,040945.00,2037.7075374,N,08704.0534882,W,1,05,,27.91,M,-15.010,M,,*74
$GPRMC,040945.00,A,2037.7075374,N,8704.0534882,W,0.0430,,221206,-2.0,W*5F
$GPGSA,A,3,,,,,,,,,,,,,,,*1C
{"class":"TPV","mode":3,"time":"2006-12-22T04:09:45.000Z","leapseconds":14,"ept":0.005,"lat":20.628458957,"lon":-87.067558137,"altHAE":12.9038,"altMSL":27.9137,"alt":27.9137,"magvar":-2.0,"speed":0.022,"climb":0.001,"geoidSep":-15.010}
$GPGGA,040945.00,2037.7075374,N,08704.0534882,W,1,05,2.34,27.91,M,-15.010,M,,*6F
$GPRMC,040945.00,A,2037.7075374,N,8704.0534882,W,0.0430,0.000,221206,-2.0,W*71
$GPGSA,A,3,,,,,,,,,,,,,2.9,2.3,1.7*3E
{"class":"TPV","mode":3,"time":"2006-12-22T04:09:45.000Z","leapseconds":14,"ept":0.005,"lat":20.628458957,"lon":-87.067558137,"altHAE":12.9038,"altMSL":27.9137,"alt":27.9137,"epv":39.421,"track":0.0000,"magtrack":358.0076,"magvar":-2.0,"speed":0.022,"climb":0.001,"epc":78.84,"velN":0.000,"velE":0.000,"velD":0.000,"geoidSep":-15.010,"eph":44.447,"sep":55.101}
{"class":"SKY","hdop":2.34,"pdop":2.90,"tdop":1.63,"vdop":1.71}
$GPZDA,040946.00,22,12,2006,00,00*6E
$GPGGA,040946.00,2037.7075491,N,08704.0534871,W,1,05,,27.91,M,-15.010,M,,*77
$GPRMC,040946.00,A,2037.7075491,N,8704.0534871,W,0.0422,,221206,-2.0,W*5F
$GPGSA,A,3,,,,,,,,,,,,,,,*1C
{"class":"TPV","mode":3,"time":"2006-12-22T04:09:46.000Z","leapseconds":14,"ept":0.005,"lat":20.628459152,"lon":-87.067558118,"altHAE":12.9044,"altMSL":27.9143,"alt":27.9143,"magvar":-2.0,"speed":0.022,"climb":0.001,"geoidSep":-15.010}
$GPGGA,040946.00,2037.7075491,N,08704.0534871,W,1,05,2.34,27.91,M,-15.010,M,,*6C
$GPRMC,040946.00,A,2037.7075491,N,8704.0534871,W,0.0422,0.000,221206,-2.0,W*71
$GPGSA,A,3,,,,,,,,,,,,,2.9,2.3,1.7*3E
{"class":"TPV","mode":3,"time":"2006-12-22T04:09:46.000Z","leapseconds":14,"ept":0.005,"lat":20.628459152,"lon":-87.067558118,"altHAE":12.9044,"altMSL":27.9143,"alt":27.9143,"epv":39.430,"track":0.0000,"magtrack":358.0076,"magvar":-2.0,"speed":0.022,"climb":0.001,"epc":78.85,"velN":0.000,"velE":0.000,"velD":0.000,"geoidSep":-15.010,"eph":44.461,"sep":55.116}
{"class":"SKY","hdop":2.34,"pdop":2.90,"tdop":1.63,"vdop":1.71}
$GPZDA,040947.00,22,12,2006,00,00*6F
$GPGGA,040947.00,2037.7075607,N,08704.0534861,W,1,05,,27.91,M,-15.010,M,,*7A
$GPRMC,040947.00,A,2037.7075607,N,8704.0534861,W,0.0418,,221206,-2.0,W*5B
$GPGSA,A,3,,,,,,,,,,,,,,,*1C
{"class":"TPV","mode":3,"time":"2006-12-22T04:09:47.000Z","leapseconds":14,"ept":0.005,"lat":20.628459346,"lon":-87.067558101,"altHAE":12.9046,"altMSL":27.9145,"alt":27.9145,"magvar":-2.0,"speed":0.021,"climb":0.000,"geoidSep":-15.010}
$GPGGA,040947.44,,S,,W,1,05,,,M,,M,,*46
$GPRMC,040947.44,A,,S,,W,,,221206,,*07
$GPGSA,A,3,,,,,,,,,,,,,,,*1C
{"class":"TPV","mode":3,"time":"2006-12-22T04:09:47.438Z","leapseconds":14,"ept":0.005}
$GPGGA,040947.44,,S,,W,1,05,2.34,,M,,M,,*5D
$GPRMC,040947.44,A,,S,,W,,,221206,,*07
$GPGSA,A,3,,,,,,,,,,,,,2.9,2.3,1.7*3E
{"class":"TPV","mode":3,"time":"2006-12-22T04:09:47.438Z","leapseconds":14,"ept":0.005,"epv":39.430,"eph":44.461,"sep":55.116}
{"class":"SKY","hdop":2.34,"pdop":2.90,"tdop":1.63,"vdop":1.71}
$GPZDA,040948.00,22,12,2006,00,00*60
$GPGGA,040948.00,2037.7075720,N,08704.0534853,W,1,05,,27.91,M,-15.010,M,,*70
$GPRMC,040948.00,A,2037.7075720,N,8704.0534853,W,,,221206,-2.0,W*42
$GPGSA,A,3,,,,,,,,,,,,,,,*1C
{"class":"TPV","mode":3,"time":"2006-12-22T04:09:48.000Z","leapseconds":14,"ept":0.005,"lat":20.628459533,"lon":-87.067558088,"altHAE":12.9046,"altMSL":27.9144,"alt":27.9144,"magvar":-2.0,"geoidSep":-15.010}
$GPGGA,040948.00,2037.7075720,N,08704.0534853,W,1,05,2.34,27.91,M,-15.010,M,,*6B
$GPRMC,040948.00,A,2037.7075720,N,8704.0534853,W,0.0000,0.000,221206,-2.0,W*72
$GPGSA,A,3,,,,,,,,,,,,,2.9,2.3,1.7*3E
{"class":"TPV","mode":3,"time":"2006-12-22T04:09:48.000Z","leapseconds":14,"ept":0.005,"lat":20.628459533,"lon":-87.067558088,"altHAE":12.9046,"altMSL":27.9144,"alt":27.9144,"epv":39.440,"track":0.0000,"magtrack":358.0076,"magvar":-2.0,"speed":0.000,"climb":0.000,"epc":140.21,"velN":0.000,"velE":0.000,"velD":0.000,"geoidSep":-15.010,"eph":44.474,"sep":55.131}
{"class":"SKY","hdop":2.34,"pdop":2.90,"tdop":1.63,"vdop":1.71}
$GPZDA,040949.00,22,12,2006,00,00*61
$GPGGA,040949.00,2037.7075825,N,08704.0534851,W,1,05,,27.91,M,-15.010,M,,*79
$GPRMC,040949.00,A,2037.7075825,N,8704.0534851,W,0.0375,,221206,-2.0,W*54
$GPGSA,A,3,,,,,,,,,,,,,,,*1C
{"class":"TPV","mode":3,"time":"2006-12-22T04:09:49.000Z","leapseconds":14,"ept":0.005,"lat":20.628459708,"lon":-87.067558086,"altHAE":12.9042,"altMSL":27.9141,"alt":27.9141,"magvar":-2.0,"speed":0.019,"climb":0.000,"geoidSep":-15.010}
$GPGGA,040949.00,2037.7075825,N,08704.0534851,W,1,05,2.34,27.91,M,-15.010,M,,*62
$GPRMC,040949.00,A,2037.7075825,N,8704.0534851,W,0.0375,0.000,221206,-2.0,W*7A
$GPGSA,A,3,,,,,,,,,,,,,2.9,2.3,1.7*3E
{"class":"TPV","mode":3,"time":"2006-12-22T04:09:49.000Z","leapseconds":14,"ept":0.005,"lat":20.628459708,"lon":-87.067558086,"altHAE":12.9042,"altMSL":27.9141,"alt":27.9141,"epv":39.440,"track":0.0000,"magtrack":358.0076,"magvar":-2.0,"speed":0.019,"climb":0.000,"epc":78.88,"velN":0.000,"velE":0.000,"velD":0.000,"geoidSep":-15.010,"eph":44.474,"sep":55.131}
{"class":"SKY","hdop":2.34,"pdop":2.90,"tdop":1.63,"vdop":1.71}
$GPZDA,040950.00,22,12,2006,00,00*69
$GPGGA,040950.00,2037.7077127,N,08704.0533921,W,1,05,,27.91,M,-15.010,M,,*79
$GPRMC,040950.00,A,2037.7077127,N,8704.0533921,W,0.5630,,221206,-2.0,W*55
$GPGSA,A,3,,,,,,,,,,,,,,,*1C
{"class":"TPV","mode":3,"time":"2006-12-22T04:09:50.000Z","leapseconds":14,"ept":0.005,"lat":20.628461879,"lon":-87.067556535,"altHAE":12.9039,"altMSL":27.9137,"alt":27.9137,"magvar":-2.0,"speed":0.290,"climb":0.000,"geoidSep":-15.010}
$GPGGA,040950.00,2037.7077127,N,08704.0533921,W,1,04,5.94,27.91,M,-15.010,M,,*6E
$GPRMC,040950.00,A,2037.7077127,N,8704.0533921,W,0.5630,36.764,221206,-2.0,W*4B
$GPGSA,A,2,,,,,,,,,,,,,5.9,5.9,0.0*33
{"class":"TPV","mode":2,"time":"2006-12-22T04:09:50.000Z","leapseconds":14,"ept":0.005,"lat":20.628461879,"lon":-87.067556535,"altHAE":12.9039,"altMSL":27.9137,"alt":27.9137,"track":36.7642,"magtrack":34.7718,"magvar":-2.0,"speed":0.290,"eph":112.803,"sep":112.805}
{"class":"SKY","hdop":5.94,"pdop":5.94,"tdop":2.04,"vdop":0.03}
$GPZDA,040951.00,22,12,2006,00,00*68
$GPGGA,040951.00,2037.7077161,N,08704.0533982,W,1,04,,27.91,M,-15.010,M,,*72
$GPRMC,040951.00,A,2037.7077161,N,8704.0533982,W,0.0237,,221206,-2.0,W*59
$GPGSA,A,3,,,,,,,,,,,,,,,*1C
{"class":"TPV","mode":3,"time":"2006-12-22T04:09:51.000Z","leapseconds":14,"ept":0.005,"lat":20.628461935,"lon":-87.067556636,"altHAE":12.9033,"altMSL":27.9132,"alt":27.9132,"magvar":-2.0,"speed":0.012,"geoidSep":-15.010}
$GPGGA,040951.00,2037.7077161,N,08704.0533982,W,1,04,5.94,27.91,M,-15.010,M,,*64
$GPRMC,040951.00,A,2037.7077161,N,8704.0533982,W,0.0237,146.790,221206,-2.0,W*7A
$GPGSA,A,2,,,,,,,,,,,,,5.9,5.9,0.0*33
{"class":"TPV","mode":2,"time":"2006-12-22T04:09:51.000Z","leapseconds":14,"ept":0.005,"lat":20.628461935,"lon":-87.067556636,"altHAE":12.9033,"altMSL":27.9132,"alt":27.9132,"track":146.7902,"magtrack":144.7978,"magvar":-2.0,"speed":0.012,"eph":112.803,"sep":112.805}
{"class":"SKY","hdop":5.94,"pdop":5.94,"tdop":2.04,"vdop":0.03}
$GPZDA,040952.00,22,12,2006,00,00*6B
$GPGGA,040952.00,2037.7075905,N,08704.0535060,W,1,04,,27.91,M,-15.010,M,,*7A
$GPRMC,040952.00,A,2037.7075905,N,8704.0535060,W,0.5792,,221206,-2.0,W*5E
$GPGSA,A,2,,,,,,,,,,,,,,,*1D
{"class":"TPV","mode":2,"time":"2006-12-22T04:09:52.000Z","leapseconds":14,"ept":0.005,"lat":20.628459841,"lon":-87.067558434,"altHAE":12.9022,"altMSL":27.9121,"alt":27.9121,"magvar":-2.0,"speed":0.298}
$GPGGA,040952.44,,S,,W,1,04,,,M,,M,,*43
$GPRMC,040952.44,A,,S,,W,,,221206,,*03
$GPGSA,A,2,,,,,,,,,,,,,,,*1D
{"class":"TPV","mode":2,"time":"2006-12-22T04:09:52.438Z","leapseconds":14,"ept":0.005}
$GPGGA,040952.44,,S,,W,1,04,5.95,,M,,M,,*54
$GPRMC,040952.44,A,,S,,W,,,221206,,*03
$GPGSA,A,2,,,,,,,,,,,,,5.9,5.9,0.0*33
{"class":"TPV","mode":2,"time":"2006-12-22T04:09:52.438Z","leapseconds":14,"ept":0.005,"eph":113.000,"sep":113.001}
{"class":"SKY","hdop":5.95,"pdop":5.95,"tdop":2.05,"vdop":0.03}
$GPZDA,040953.00,22,12,2006,00,00*6A
$GPGGA,040953.00,2037.7058838,N,08704.0550461,W,1,04,,27.90,M,-15.010,M,,*7C
$GPRMC,040953.00,A,2037.7058838,N,8704.0550461,W,,,221206,-2.0,W*4E
$GPGSA,A,2,,,,,,,,,,,,,,,*1D
{"class":"TPV","mode":2,"time":"2006-12-22T04:09:53.000Z","leapseconds":14,"ept":0.005,"lat":20.628431397,"lon":-87.067584101,"altHAE":12.8878,"altMSL":27.8975,"alt":27.8975,"magvar":-2.0}
$GPGGA,040953.00,2037.7058838,N,08704.0550461,W,1,04,5.95,27.90,M,-15.010,M,,*6B
$GPRMC,040953.00,A,2037.7058838,N,8704.0550461,W,0.0000,0.000,221206,-2.0,W*7E
$GPGSA,A,2,,,,,,,,,,,,,5.9,5.9,0.0*33
{"class":"TPV","mode":2,"time":"2006-12-22T04:09:53.000Z","leapseconds":14,"ept":0.005,"lat":20.628431397,"lon":-87.067584101,"altHAE":12.8878,"altMSL":27.8975,"alt":27.8975,"track":0.0000,"magtrack":358.0076,"magvar":-2.0,"speed":0.000,"eph":113.000,"sep":113.001}
{"class":"SKY","hdop":5.95,"pdop":5.95,"tdop":2.05,"vdop":0.03}
$GPZDA,040954.00,22,12,2006,00,00*6D
$GPGGA,040954.00,2037.7053281,N,08704.0555515,W,1,04,,27.89,M,-15.010,M,,*77
$GPRMC,040954.00,A,2037.7053281,N,8704.0555515,W,2.6241,,221206,-2.0,W*50
$GPGSA,A,2,,,,,,,,,,,,,,,*1D
{"class":"TPV","mode":2,"time":"2006-12-22T04:09:54.000Z","leapseconds":14,"ept":0.005,"lat":20.628422135,"lon":-87.067592525,"altHAE":12.8830,"altMSL":27.8928,"alt":27.8928,"magvar":-2.0,"speed":1.350}
$GPGGA,040954.00,2037.7053281,N,08704.0555515,W,1,04,5.95,27.89,M,-15.010,M,,*60
$GPRMC,040954.00,A,2037.7053281,N,8704.0555515,W,2.6241,0.000,221206,-2.0,W*7E
$GPGSA,A,2,,,,,,,,,,,,,6.0,6.0,0.0*33
{"class":"TPV","mode":2,"time":"2006-12-22T04:09:54.000Z","leapseconds":14,"ept":0.005,"lat":20.628422135,"lon":-87.067592525,"altHAE":12.8830,"altMSL":27.8928,"alt":27.8928,"track":0.0000,"magtrack":358.0076,"magvar":-2.0,"speed":1.350,"eph":113.097,"sep":113.099}
{"class":"SKY","hdop":5.95,"pdop":5.95,"tdop":2.05,"vdop":0.03}
$GPZDA,040955.00,22,12,2006,00,00*6C
$GPGGA,040955.00,2037.7050507,N,08704.0558035,W,1,04,,27.89,M,-15.010,M,,*76
$GPRMC,040955.00,A,2037.7050507,N,8704.0558035,W,1.3091,,221206,-2.0,W*58
$GPGSA,A,2,,,,,,,,,,,,,,,*1D
{"class":"TPV","mode":2,"time":"2006-12-22T04:09:55.000Z","leapseconds":14,"ept":0.005,"lat":20.628417512,"lon":-87.067596726,"altHAE":12.8807,"altMSL":27.8904,"alt":27.8904,"magvar":-2.0,"speed":0.673}
$GPGGA,040955.00,2037.7050507,N,08704.0558035,W,1,04,5.96,27.89,M,-15.010,M,,*62
$GPRMC,040955.00,A,2037.7050507,N,8704.0558035,W,1.3091,0.000,221206,-2.0,W*76
$GPGSA,A,2,,,,,,,,,,,,,6.0,6.0,0.0*33
{"class":"TPV","mode":2,"time":"2006-12-22T04:09:55.000Z","leapseconds":14,"ept":0.005,"lat":20.628417512,"lon":-87.067596726,"altHAE":12.8807,"altMSL":27.8904,"alt":27.8904,"track":0.0000,"magtrack":358.0076,"magvar":-2.0,"speed":0.673,"eph":113.257,"sep":113.259}
{"class":"SKY","hdop":5.96,"pdop":5.96,"tdop":2.05,"vdop":0.03}
$GPZDA,040956.00,22,12,2006,00,00*6F
$GPGGA,040956.00,2037.7048918,N,08704.0559491,W,1,04,,27.89,M,-15.010,M,,*75
$GPRMC,040956.00,A,2037.7048918,N,8704.0559491,W,0.7525,,221206,-2.0,W*54
$GPGSA,A,2,,,,,,,,,,,,,,,*1D
{"class":"TPV","mode":2,"time":"2006-12-22T04:09:56.000Z","leapseconds":14,"ept":0.005,"lat":20.628414864,"lon":-87.067599151,"altHAE":12.8792,"altMSL":27.8890,"alt":27.8890,"magvar":-2.0,"speed":0.387}
$GPGGA,040956.00,2037.7048918,N,08704.0559491,W,1,04,5.96,27.89,M,-15.010,M,,*61
$GPRMC,040956.00,A,2037.7048918,N,8704.0559491,W,0.7525,0.000,221206,-2.0,W*7A
$GPGSA,A,2,,,,,,,,,,,,,6.0,6.0,0.0*33
{"class":"TPV","mode":2,"time":"2006-12-22T04:09:56.000Z","leapseconds":14,"ept":0.005,"lat":20.628414864,"lon":-87.067599151,"altHAE":12.8792,"altMSL":27.8890,"alt":27.8890,"track":0.0000,"magtrack":358.0076,"magvar":-2.0,"speed":0.387,"eph":113.257,"sep":113.259}
{"class":"SKY","hdop":5.96,"pdop":5.96,"tdop":2.05,"vdop":0.03}
$GPZDA,040957.00,22,12,2006,00,00*6E
$GPGGA,040957.00,2037.7047947,N,08704.0560397,W,1,04,,27.89,M,-15.010,M,,*7A
$GPRMC,040957.00,A,2037.7047947,N,8704.0560397,W,0.4636,,221206,-2.0,W*59
$GPGSA,A,2,,,,,,,,,,,,,,,*1D
{"class":"TPV","mode":2,"time":"2006-12-22T04:09:57.000Z","leapseconds":14,"ept":0.005,"lat":20.628413245,"lon":-87.067600661,"altHAE":12.8783,"altMSL":27.8880,"alt":27.8880,"magvar":-2.0,"speed":0.239}
$GPGGA,040957.53,,S,,W,1,04,,,M,,M,,*40
$GPRMC,040957.53,A,,S,,W,,,221206,,*00
$GPGSA,A,2,,,,,,,,,,,,,,,*1D
{"class":"TPV","mode":2,"time":"2006-12-22T04:09:57.531Z","leapseconds":14,"ept":0.005}
$GPGGA,040957.53,,S,,W,1,04,5.97,,M,,M,,*55
$GPRMC,040957.53,A,,S,,W,,,221206,,*00
$GPGSA,A,2,,,,,,,,,,,,,6.0,6.0,0.0*33
{"class":"TPV","mode":2,"time":"2006-12-22T04:09:57.531Z","leapseconds":14,"ept":0.005,"eph":113.449,"sep":113.451}
{"class":"SKY","hdop":5.97,"pdop":5.97,"tdop":2.05,"vdop":0.03}
$GPZDA,040958.00,22,12,2006,00,00*61
$GPGGA,040958.00,2037.7047294,N,08704.0561016,W,1,04,,27.89,M,-15.010,M,,*7B
$GPRMC,040958.00,A,2037.7047294,N,8704.0561016,W,,,221206,-2.0,W*41
$GPGSA,A,2,,,,,,,,,,,,,,,*1D
{"class":"TPV","mode":2,"time":"2006-12-22T04:09:58.000Z","leapseconds":14,"ept":0.005,"lat":20.628412157,"lon":-87.067601693,"altHAE":12.8776,"altMSL":27.8874,"alt":27.8874,"magvar":-2.0}
$GPGGA,040958.00,2037.7047294,N,08704.0561016,W,1,04,5.97,27.89,M,-15.010,M,,*6E
$GPRMC,040958.00,A,2037.7047294,N,8704.0561016,W,0.0000,0.000,221206,-2.0,W*71
$GPGSA,A,2,,,,,,,,,,,,,6.0,6.0,0.0*33
{"class":"TPV","mode":2,"time":"2006-12-22T04:09:58.000Z","leapseconds":14,"ept":0.005,"lat":20.628412157,"lon":-87.067601693,"altHAE":12.8776,"altMSL":27.8874,"alt":27.8874,"track":0.0000,"magtrack":358.0076,"magvar":-2.0,"speed":0.000,"eph":113.449,"sep":113.451}
{"class":"SKY","hdop":5.97,"pdop":5.97,"tdop":2.05,"vdop":0.03}
$GPZDA,040959.00,22,12,2006,00,00*60
$GPGGA,040959.00,2037.7046865,N,08704.0561441,W,1,04,,27.89,M,-15.010,M,,*79
$GPRMC,040959.00,A,2037.7046865,N,8704.0561441,W,0.2105,,221206,-2.0,W*5B
$GPGSA,A,2,,,,,,,,,,,,,,,*1D
{"class":"TPV","mode":2,"time":"2006-12-22T04:09:59.000Z","leapseconds":14,"ept":0.005,"lat":20.628411442,"lon":-87.067602401,"altHAE":12.8772,"altMSL":27.8869,"alt":27.8869,"magvar":-2.0,"speed":0.108}
$GPGGA,040959.00,2037.7046865,N,08704.0561441,W,1,04,5.98,27.89,M,-15.010,M,,*63
$GPRMC,040959.00,A,2037.7046865,N,8704.0561441,W,0.2105,0.000,221206,-2.0,W*75
$GPGSA,A,2,,,,,,,,,,,,,6.0,6.0,0.0*33
{"class":"TPV","mode":2,"time":"2006-12-22T04:09:59.000Z","leapseconds":14,"ept":0.005,"lat":20.628411442,"lon":-87.067602401,"altHAE":12.8772,"altMSL":27.8869,"alt":27.8869,"track":0.0000,"magtrack":358.0076,"magvar":-2.0,"speed":0.108,"eph":113.680,"sep":113.681}
{"class":"SKY","hdop":5.98,"pdop":5.98,"tdop":2.06,"vdop":0.03}
$GPZDA,041000.00,22,12,2006,00,00*64
$GPGGA,041000.00,2037.7046491,N,08704.0561812,W,1,04,,27.89,M,-15.010,M,,*70
$GPRMC,041000.00,A,2037.7046491,N,8704.0561812,W,0.1835,,221206,-2.0,W*5B
$GPGSA,A,2,,,,,,,,,,,,,,,*1D
{"class":"TPV","mode":2,"time":"2006-12-22T04:10:00.000Z","leapseconds":14,"ept":0.005,"lat":20.628410818,"lon":-87.067603019,"altHAE":12.8767,"altMSL":27.8864,"alt":27.8864,"magvar":-2.0,"speed":0.094}
$GPGGA,041000.00,2037.7046491,N,08704.0561812,W,1,04,5.98,27.89,M,-15.010,M,,*6A
$GPRMC,041000.00,A,2037.7046491,N,8704.0561812,W,0.1835,0.000,221206,-2.0,W*75
$GPGSA,A,2,,,,,,,,,,,,,6.0,6.0,0.0*33
{"class":"TPV","mode":2,"time":"2006-12-22T04:10:00.000Z","leapseconds":14,"ept":0.005,"lat":20.628410818,"lon":-87.067603019,"altHAE":12.8767,"altMSL":27.8864,"alt":27.8864,"track":0.0000,"magtrack":358.0076,"magvar":-2.0,"speed":0.094,"eph":113.680,"sep":113.681}
{"class":"SKY","hdop":5.98,"pdop":5.98,"tdop":2.06,"vdop":0.03}
$GPZDA,041001.00,22,12,2006,00,00*65
$GPGGA,041001.00,2037.7046209,N,08704.0562098,W,1,04,,27.89,M,-15.010,M,,*7F
$GPRMC,041001.00,A,2037.7046209,N,8704.0562098,W,0.1399,,221206,-2.0,W*59
$GPGSA,A,2,,,,,,,,,,,,,,,*1D
{"class":"TPV","mode":2,"time":"2006-12-22T04:10:01.000Z","leapseconds":14,"ept":0.005,"lat":20.628410348,"lon":-87.067603497,"altHAE":12.8764,"altMSL":27.8861,"alt":27.8861,"magvar":-2.0,"speed":0.072}
$GPGGA,041001.00,2037.7046209,N,08704.0562098,W,1,04,5.99,27.89,M,-15.010,M,,*64
$GPRMC,041001.00,A,2037.7046209,N,8704.0562098,W,0.1399,0.000,221206,-2.0,W*77
$GPGSA,A,2,,,,,,,,,,,,,6.0,6.0,0.0*33
{"class":"TPV","mode":2,"time":"2006-12-22T04:10:01.000Z","leapseconds":14,"ept":0.005,"lat":20.628410348,"lon":-87.067603497,"altHAE":12.8764,"altMSL":27.8861,"alt":27.8861,"track":0.0000,"magtrack":358.0076,"magvar":-2.0,"speed":0.072,"eph":113.887,"sep":113.889}
{"class":"SKY","hdop":5.99,"pdop":5.99,"tdop":2.06,"vdop":0.03}
$GPZDA,041002.00,22,12,2006,00,00*66
$GPGGA,041002.00,2037.7045951,N,08704.0562357,W,1,04,,27.89,M,-15.010,M,,*79
$GPRMC,041002.00,A,2037.7045951,N,8704.0562357,W,0.1274,,221206,-2.0,W*5D
$GPGSA,A,2,,,,,,,,,,,,,,,*1D
{"class":"TPV","mode":2,"time":"2006-12-22T04:10:02.000Z","leapseconds":14,"ept":0.005,"lat":20.628409918,"lon":-87.067603928,"altHAE":12.8761,"altMSL":27.8858,"alt":27.8858,"magvar":-2.0,"speed":0.066}
$GPGGA,041002.59,,S,,W,1,04,,,M,,M,,*42
$GPRMC,041002.59,A,,S,,W,,,221206,,*02
$GPGSA,A,2,,,,,,,,,,,,,,,*1D
{"class":"TPV","mode":2,"time":"2006-12-22T04:10:02.594Z","leapseconds":14,"ept":0.005}
$GPGGA,041002.59,,S,,W,1,04,5.99,,M,,M,,*59
$GPRMC,041002.59,A,,S,,W,,,221206,,*02
$GPGSA,A,2,,,,,,,,,,,,,6.0,6.0,0.0*33
{"class":"TPV","mode":2,"time":"2006-12-22T04:10:02.594Z","leapseconds":14,"ept":0.005,"eph":113.887,"sep":113.889}
{"class":"SKY","hdop":5.99,"pdop":5.99,"tdop":2.06,"vdop":0.03}
$GPZDA,041003.00,22,12,2006,00,00*67
$GPGGA,041003.00,2037.7045780,N,08704.0562543,W,1,04,,27.89,M,-15.010,M,,*79
$GPRMC,041003.00,A,2037.7045780,N,8704.0562543,W,,,221206,-2.0,W*43
$GPGSA,A,2,,,,,,,,,,,,,,,*1D
{"class":"TPV","mode":2,"time":"2006-12-22T04:10:03.000Z","leapseconds":14,"ept":0.005,"lat":20.628409633,"lon":-87.067604238,"altHAE":12.8759,"altMSL":27.8856,"alt":27.8856,"magvar":-2.0}
$GPGGA,041003.00,2037.7045780,N,08704.0562543,W,1,04,6.00,27.89,M,-15.010,M,,*61
$GPRMC,041003.00,A,2037.7045780,N,8704.0562543,W,0.0000,0.000,221206,-2.0,W*73
$GPGSA,A,2,,,,,,,,,,,,,6.0,6.0,0.0*33
{"class":"TPV","mode":2,"time":"2006-12-22T04:10:03.000Z","leapseconds":14,"ept":0.005,"lat":20.628409633,"lon":-87.067604238,"altHAE":12.8759,"altMSL":27.8856,"alt":27.8856,"track":0.0000,"magtrack":358.0076,"magvar":-2.0,"speed":0.000,"eph":113.978,"sep":113.980}
{"class":"SKY","hdop":6.00,"pdop":6.00,"tdop":2.06,"vdop":0.03}
$GPZDA,041004.00,22,12,2006,00,00*60
$GPGGA,041004.00,2037.7045654,N,08704.0562690,W,1,04,,27.89,M,-15.010,M,,*7B
$GPRMC,041004.00,A,2037.7045654,N,8704.0562690,W,0.0670,,221206,-2.0,W*5E
$GPGSA,A,2,,,,,,,,,,,,,,,*1D
{"class":"TPV","mode":2,"time":"2006-12-22T04:10:04.000Z","leapseconds":14,"ept":0.005,"lat":20.628409424,"lon":-87.067604483,"altHAE":12.8758,"altMSL":27.8855,"alt":27.8855,"magvar":-2.0,"speed":0.034}
$GPGGA,041004.00,2037.7045654,N,08704.0562690,W,1,04,6.01,27.89,M,-15.010,M,,*62
$GPRMC,041004.00,A,2037.7045654,N,8704.0562690,W,0.0670,0.000,221206,-2.0,W*70
$GPGSA,A,2,,,,,,,,,,,,,6.0,6.0,0.0*33
{"class":"TPV","mode":2,"time":"2006-12-22T04:10:04.000Z","leapseconds":14,"ept":0.005,"lat":20.628409424,"lon":-87.067604483,"altHAE":12.8758,"altMSL":27.8855,"alt":27.8855,"track":0.0000,"magtrack":358.0076,"magvar":-2.0,"speed":0.034,"eph":114.095,"sep":114.097}
{"class":"SKY","hdop":6.01,"pdop":6.01,"tdop":2.07,"vdop":0.03}
$GPZDA,041005.00,22,12,2006,00,00*61
$GPGGA,041005.00,2037.7045582,N,08704.0562789,W,1,04,,27.89,M,-15.010,M,,*7B
$GPRMC,041005.00,A,2037.7045582,N,8704.0562789,W,0.0425,,221206,-2.0,W*5C
$GPGSA,A,2,,,,,,,,,,,,,,,*1D
{"class":"TPV","mode":2,"time":"2006-12-22T04:10:05.000Z","leapseconds":14,"ept":0.005,"lat":20.628409303,"lon":-87.067604649,"altHAE":12.8756,"altMSL":27.8853,"alt":27.8853,"magvar":-2.0,"speed":0.022}
$GPGGA,041005.00,2037.7045582,N,08704.0562789,W,1,04,6.01,27.89,M,-15.010,M,,*62
$GPRMC,041005.00,A,2037.7045582,N,8704.0562789,W,0.0425,0.000,221206,-2.0,W*72
$GPGSA,A,2,,,,,,,,,,,,,6.0,6.0,0.0*33
{"class":"TPV","mode":2,"time":"2006-12-22T04:10:05.000Z","leapseconds":14,"ept":0.005,"lat":20.628409303,"lon":-87.067604649,"altHAE":12.8756,"altMSL":27.8853,"alt":27.8853,"track":0.0000,"magtrack":358.0076,"magvar":-2.0,"speed":0.022,"eph":114.095,"sep":114.097}
{"class":"SKY","hdop":6.01,"pdop":6.01,"tdop":2.07,"vdop":0.03}
$GPZDA,041006.00,22,12,2006,00,00*62
$GPGGA,041006.00,2037.7045744,N,08704.0562710,W,1,04,,27.89,M,-15.010,M,,*70
$GPRMC,041006.00,A,2037.7045744,N,8704.0562710,W,0.0642,,221206,-2.0,W*54
$GPGSA,A,2,,,,,,,,,,,,,,,*1D
{"class":"TPV","mode":2,"time":"2006-12-22T04:10:06.000Z","leapseconds":14,"ept":0.005,"lat":20.628409574,"lon":-87.067604517,"altHAE":12.8756,"altMSL":27.8853,"alt":27.8853,"magvar":-2.0,"speed":0.033}
$GPGGA,041006.00,2037.7045744,N,08704.0562710,W,1,04,6.02,27.89,M,-15.010,M,,*6A
$GPRMC,041006.00,A,2037.7045744,N,8704.0562710,W,0.0642,0.000,221206,-2.0,W*7A
$GPGSA,A,2,,,,,,,,,,,,,6.0,6.0,0.0*33
{"class":"TPV","mode":2,"time":"2006-12-22T04:10:06.000Z","leapseconds":14,"ept":0.005,"lat":20.628409574,"lon":-87.067604517,"altHAE":12.8756,"altMSL":27.8853,"alt":27.8853,"track":0.0000,"magtrack":358.0076,"magvar":-2.0,"speed":0.033,"eph":114.331,"sep":114.333}
{"class":"SKY","hdop":6.02,"pdop":6.02,"tdop":2.07,"vdop":0.03}
$GPZDA,041007.00,22,12,2006,00,00*63
$GPGGA,041007.00,2037.7046080,N,08704.0562495,W,1,04,,27.89,M,-15.010,M,,*73
$GPRMC,041007.00,A,2037.7046080,N,8704.0562495,W,0.1407,,221206,-2.0,W*55
$GPGSA,A,2,,,,,,,,,,,,,,,*1D
{"class":"TPV","mode":2,"time":"2006-12-22T04:10:07.000Z","leapseconds":14,"ept":0.005,"lat":20.628410134,"lon":-87.067604158,"altHAE":12.8755,"altMSL":27.8852,"alt":27.8852,"magvar":-2.0,"speed":0.072}
$GPGGA,041007.44,,S,,W,1,04,,,M,,M,,*4B
$GPRMC,041007.44,A,,S,,W,,,221206,,*0B
$GPGSA,A,2,,,,,,,,,,,,,,,*1D
{"class":"TPV","mode":2,"time":"2006-12-22T04:10:07.438Z","leapseconds":14,"ept":0.005}
$GPGGA,041007.44,,S,,W,1,04,6.02,,M,,M,,*51
$GPRMC,041007.44,A,,S,,W,,,221206,,*0B
$GPGSA,A,2,,,,,,,,,,,,,6.0,6.0,0.0*33
{"class":"TPV","mode":2,"time":"2006-12-22T04:10:07.438Z","leapseconds":14,"ept":0.005,"eph":114.331,"sep":114.333}
{"class":"SKY","hdop":6.02,"pdop":6.02,"tdop":2.07,"vdop":0.03}
$GPZDA,041008.00,22,12,2006,00,00*6C
$GPGGA,041008.00,2037.7053754,N,08704.0557342,W,1,04,,27.88,M,-15.010,M,,*7C
$GPRMC,041008.00,A,2037.7053754,N,8704.0557342,W,,,221206,-2.0,W*47
$GPGSA,A,2,,,,,,,,,,,,,,,*1D
{"class":"TPV","mode":2,"time":"2006-12-22T04:10:08.000Z","leapseconds":14,"ept":0.005,"lat":20.628422923,"lon":-87.067595569,"altHAE":12.8746,"altMSL":27.8843,"alt":27.8843,"magvar":-2.0}
$GPGGA,041008.00,2037.7053754,N,08704.0557342,W,1,04,6.03,27.88,M,-15.010,M,,*67
$GPRMC,041008.00,A,2037.7053754,N,8704.0557342,W,0.9335,36.580,221206,-2.0,W*43
$GPGSA,A,2,,,,,,,,,,,,,6.0,6.0,0.0*33
{"class":"TPV","mode":2,"time":"2006-12-22T04:10:08.000Z","leapseconds":14,"ept":0.005,"lat":20.628422923,"lon":-87.067595569,"altHAE":12.8746,"altMSL":27.8843,"alt":27.8843,"track":36.5797,"magtrack":34.5873,"magvar":-2.0,"speed":0.480,"eph":114.548,"sep":114.550}
{"class":"SKY","hdop":6.03,"pdop":6.03,"tdop":2.07,"vdop":0.03}
$GPZDA,041009.00,22,12,2006,00,00*6D
$GPGGA,041009.00,2037.7054638,N,08704.0556640,W,1,04,,27.88,M,-15.010,M,,*77
$GPRMC,041009.00,A,2037.7054638,N,8704.0556640,W,0.3961,,221206,-2.0,W*5F
$GPGSA,A,2,,,,,,,,,,,,,,,*1D
{"class":"TPV","mode":2,"time":"2006-12-22T04:10:09.000Z","leapseconds":14,"ept":0.005,"lat":20.628424397,"lon":-87.067594400,"altHAE":12.8749,"altMSL":27.8846,"alt":27.8846,"magvar":-2.0,"speed":0.204}
$GPGGA,041009.00,2037.7054638,N,08704.0556640,W,1,04,6.03,27.88,M,-15.010,M,,*6C
$GPRMC,041009.00,A,2037.7054638,N,8704.0556640,W,0.3961,213.164,221206,-2.0,W*72
$GPGSA,A,2,,,,,,,,,,,,,6.0,6.0,0.0*33
{"class":"TPV","mode":2,"time":"2006-12-22T04:10:09.000Z","leapseconds":14,"ept":0.005,"lat":20.628424397,"lon":-87.067594400,"altHAE":12.8749,"altMSL":27.8846,"alt":27.8846,"track":213.1641,"magtrack":211.1717,"magvar":-2.0,"speed":0.204,"eph":114.548,"sep":114.550}
{"class":"SKY","hdop":6.03,"pdop":6.03,"tdop":2.07,"vdop":0.03}
$GPZDA,041010.00,22,12,2006,00,00*65
$GPGGA,041010.00,2037.7055167,N,08704.0556212,W,1,04,,27.88,M,-15.010,M,,*70
$GPRMC,041010.00,A,2037.7055167,N,8704.0556212,W,0.2386,,221206,-2.0,W*5A
$GPGSA,A,2,,,,,,,,,,,,,,,*1D
{"class":"TPV","mode":2,"time":"2006-12-22T04:10:10.000Z","leapseconds":14,"ept":0.005,"lat":20.628425279,"lon":-87.067593686,"altHAE":12.8750,"altMSL":27.8848,"alt":27.8848,"magvar":-2.0,"speed":0.123}
$GPGGA,041010.00,2037.7055167,N,08704.0556212,W,1,04,6.04,27.88,M,-15.010,M,,*6C
$GPRMC,041010.00,A,2037.7055167,N,8704.0556212,W,0.2386,37.410,221206,-2.0,W*45
$GPGSA,A,2,,,,,,,,,,,,,6.0,6.0,0.0*33
{"class":"TPV","mode":2,"time":"2006-12-22T04:10:10.000Z","leapseconds":14,"ept":0.005,"lat":20.628425279,"lon":-87.067593686,"altHAE":12.8750,"altMSL":27.8848,"alt":27.8848,"track":37.4096,"magtrack":35.4172,"magvar":-2.0,"speed":0.123,"eph":114.769,"sep":114.771}
{"class":"SKY","hdop":6.04,"pdop":6.04,"tdop":2.08,"vdop":0.03}
$GPZDA,041011.00,22,12,2006,00,00*64
$GPGGA,041011.00,2037.7055815,N,08704.0555864,W,1,04,,27.88,M,-15.010,M,,*75
$GPRMC,041011.00,A,2037.7055815,N,8704.0555864,W,0.2603,,221206,-2.0,W*57
$GPGSA,A,2,,,,,,,,,,,,,,,*1D
{"class":"TPV","mode":2,"time":"2006-12-22T04:10:11.000Z","leapseconds":14,"ept":0.005,"lat":20.628426358,"lon":-87.067593107,"altHAE":12.8744,"altMSL":27.8841,"alt":27.8841,"magvar":-2.0,"speed":0.134}
$GPGGA,041011.00,2037.7055815,N,08704.0555864,W,1,04,6.04,27.88,M,-15.010,M,,*69
$GPRMC,041011.00,A,2037.7055815,N,8704.0555864,W,0.2603,0.000,221206,-2.0,W*79
$GPGSA,A,2,,,,,,,,,,,,,6.0,6.0,0.0*33
{"class":"TPV","mode":2,"time":"2006-12-22T04:10:11.000Z","leapseconds":14,"ept":0.005,"lat":20.628426358,"lon":-87.067593107,"altHAE":12.8744,"altMSL":27.8841,"alt":27.8841,"track":0.0000,"magtrack":358.0076,"magvar":-2.0,"speed":0.134,"eph":114.769,"sep":114.771}
{"class":"SKY","hdop":6.04,"pdop":6.04,"tdop":2.08,"vdop":0.03}
$GPZDA,041012.00,22,12,2006,00,00*67
$GPGGA,041012.00,2037.7056691,N,08704.0555274,W,1,04,,27.88,M,-15.010,M,,*7C
$GPRMC,041012.00,A,2037.7056691,N,8704.0555274,W,0.3721,,221206,-2.0,W*5E
$GPGSA,A,2,,,,,,,,,,,,,,,*1D
{"class":"TPV","mode":2,"time":"2006-12-22T04:10:12.000Z","leapseconds":14,"ept":0.005,"lat":20.628427819,"lon":-87.067592123,"altHAE":12.8744,"altMSL":27.8841,"alt":27.8841,"magvar":-2.0,"speed":0.191}
$GPGGA,041012.44,,S,,W,1,04,,,M,,M,,*4F
$GPRMC,041012.44,A,,S,,W,,,221206,,*0F
$GPGSA,A,2,,,,,,,,,,,,,,,*1D
{"class":"TPV","mode":2,"time":"2006-12-22T04:10:12.438Z","leapseconds":14,"ept":0.005}
$GPGGA,041012.44,,S,,W,1,04,6.05,,M,,M,,*52
$GPRMC,041012.44,A,,S,,W,,,221206,,*0F
$GPGSA,A,2,,,,,,,,,,,,,6.1,6.1,0.0*33
{"class":"TPV","mode":2,"time":"2006-12-22T04:10:12.438Z","leapseconds":14,"ept":0.005,"eph":115.002,"sep":115.004}
{"class":"SKY","hdop":6.05,"pdop":6.05,"tdop":2.08,"vdop":0.03}
$GPZDA,041013.00,22,12,2006,00,00*66
$GPGGA,041013.00,2037.7057625,N,08704.0554609,W,1,04,,27.88,M,-15.010,M,,*7C
$GPRMC,041013.00,A,2037.7057625,N,8704.0554609,W,,,221206,-2.0,W*47
$GPGSA,A,2,,,,,,,,,,,,,,,*1D
{"class":"TPV","mode":2,"time":"2006-12-22T04:10:13.000Z","leapseconds":14,"ept":0.005,"lat":20.628429374,"lon":-87.067591015,"altHAE":12.8743,"altMSL":27.8841,"alt":27.8841,"magvar":-2.0}
$GPGGA,041013.00,2037.7057625,N,08704.0554609,W,1,04,6.05,27.88,M,-15.010,M,,*61
$GPRMC,041013.00,A,2037.7057625,N,8704.0554609,W,0.0000,0.000,221206,-2.0,W*77
$GPGSA,A,2,,,,,,,,,,,,,6.1,6.1,0.0*33
{"class":"TPV","mode":2,"time":"2006-12-22T04:10:13.000Z","leapseconds":14,"ept":0.005,"lat":20.628429374,"lon":-87.067591015,"altHAE":12.8743,"altMSL":27.8841,"alt":27.8841,"track":0.0000,"magtrack":358.0076,"magvar":-2.0,"speed":0.000,"eph":115.002,"sep":115.004}
{"class":"SKY","hdop":6.05,"pdop":6.05,"tdop":2.08,"vdop":0.03}
