$GPGGA,,,S,,W,1,05,2.55,,M,,M,,*7A
$GPRMC,,A,,S,,W,,,,,*22
$GPGSA,A,3,,,,,,,,,,,,,3.7,2.6,2.7*37
{"class":"TPV","mode":3,"epv":62.675,"eph":48.490,"sep":70.936}
{"class":"SKY","hdop":2.55,"pdop":3.73,"tdop":2.15,"vdop":2.72}
$GPGGA,,,S,,W,1,05,2.55,,M,,M,,*7A
$GPRMC,,A,,S,,W,,,,,*22
$GPGSA,A,2,,,,,,,,,,,,,3.7,2.6,2.7*36
{"class":"TPV","mode":2,"epv":62.675,"eph":48.490,"sep":70.936}
$GPGGA,012419.63,,S,,W,1,05,2.55,,M,,M,,*5E
$GPRMC,012419.63,A,,S,,W,,,261106,,*04
$GPGSA,A,3,,,,,,,,,,,,,3.7,2.6,2.7*37
{"class":"TPV","mode":3,"time":"2006-11-26T01:24:19.630Z","leapseconds":14,"ept":0.005,"epv":62.643,"eph":48.481,"sep":70.911}
{"class":"SKY","hdop":2.55,"pdop":3.73,"tdop":2.15,"vdop":2.72}
$GPGSV,1,1,01,06,77,232,26*49
{"class":"SKY","time":"2006-11-26T01:24:19.639Z","hdop":2.55,"pdop":3.73,"tdop":2.15,"vdop":2.72,"nSat":1,"uSat":0,"satellites":[]}
$GPGSV,1,1,02,06,77,232,26,29,14,126,29*7A
{"class":"SKY","time":"2006-11-26T01:24:19.639Z","hdop":2.55,"pdop":3.73,"tdop":2.15,"vdop":2.72,"nSat":2,"uSat":1,"satellites":[]}
$GPGSV,1,1,03,06,77,232,26,29,14,126,29,02,16,079,38*4B
{"class":"SKY","time":"2006-11-26T01:24:19.639Z","hdop":2.55,"pdop":3.73,"tdop":2.15,"vdop":2.72,"nSat":3,"uSat":2,"satellites":[]}
$GPGSV,1,1,04,06,77,232,26,29,14,126,29,02,16,079,38,21,35,257,26*7D
{"class":"SKY","time":"2006-11-26T01:24:19.639Z","hdop":2.55,"pdop":3.73,"tdop":2.15,"vdop":2.72,"nSat":4,"uSat":2,"satellites":[]}
$GPGSV,2,1,05,06,77,232,26,29,14,126,29,02,16,079,38,21,35,257,26*7F
$GPGSV,2,2,05,30,22,204,30*4A
{"class":"SKY","time":"2006-11-26T01:24:19.639Z","hdop":2.55,"pdop":3.73,"tdop":2.15,"vdop":2.72,"nSat":5,"uSat":3,"satellites":[{"PRN":6,"gnssid":0,"svid":6,"az":232.4,"el":77.3,"ss":26.0,"used":false,"health":1}]}
$GPGSV,2,1,06,06,77,232,26,29,14,126,29,02,16,079,38,21,35,257,26*7C
$GPGSV,2,2,06,30,22,204,30,10,54,073,41*78
{"class":"SKY","time":"2006-11-26T01:24:19.639Z","gdop":5.23,"hdop":2.55,"pdop":3.73,"tdop":2.15,"xdop":1.82,"ydop":2.30,"vdop":2.72,"nSat":6,"uSat":4,"satellites":[{"PRN":6,"gnssid":0,"svid":6,"az":232.4,"el":77.3,"ss":26.0,"used":false,"health":1},{"PRN":29,"gnssid":0,"svid":29,"az":126.4,"el":14.4,"ss":29.0,"used":true,"health":1}]}
$GPGSV,2,1,07,06,77,232,26,29,14,126,29,02,16,079,38,21,35,257,26*7D
$GPGSV,2,2,07,30,22,204,30,10,54,073,41,07,40,297,29*4D
{"class":"SKY","time":"2006-11-26T01:24:19.639Z","gdop":5.23,"hdop":2.55,"pdop":3.73,"tdop":2.15,"xdop":1.82,"ydop":2.30,"vdop":2.72,"nSat":7,"uSat":4,"satellites":[{"PRN":6,"gnssid":0,"svid":6,"az":232.4,"el":77.3,"ss":26.0,"used":false,"health":1},{"PRN":29,"gnssid":0,"svid":29,"az":126.4,"el":14.4,"ss":29.0,"used":true,"health":1},{"PRN":2,"gnssid":0,"svid":2,"az":79.4,"el":16.3,"ss":38.0,"used":true,"health":1}]}
$GPGGA,012419.63,,S,,W,1,05,2.55,,M,,M,,*5E
$GPRMC,012419.63,A,,S,,W,,,261106,,*04
$GPGSA,A,3,29,2,30,10,,,,,,,,,3.7,2.6,2.7*0C
$GPGBS,012419.63,27.344,34.565,62.643,,,,*79
{"class":"TPV","mode":3,"time":"2006-11-26T01:24:19.630Z","leapseconds":14,"ept":0.005,"epx":27.344,"epy":34.565,"epv":62.643,"eph":48.481,"sep":70.911}
{"class":"SKY","time":"2006-11-26T01:24:19.639Z","gdop":5.23,"hdop":2.55,"pdop":3.73,"tdop":2.15,"xdop":1.82,"ydop":2.30,"vdop":2.72}
$GPGGA,012419.63,,S,,W,1,05,2.55,,M,,M,,*5E
$GPRMC,012419.63,A,,S,,W,,,261106,,*04
$GPGSA,A,3,29,2,30,10,,,,,,,,,3.7,2.6,2.7*0C
$GPGBS,012419.63,27.344,34.565,62.643,,,,*79
{"class":"TPV","mode":3,"time":"2006-11-26T01:24:19.630Z","leapseconds":14,"ept":0.005,"epx":27.344,"epy":34.565,"epv":62.643,"eph":48.481,"sep":70.911}
{"class":"SKY","time":"2006-11-26T01:24:19.639Z","gdop":5.23,"hdop":2.55,"pdop":3.73,"tdop":2.15,"xdop":1.82,"ydop":2.30,"vdop":2.72}
$GPGGA,012424.46,,S,,W,1,05,,,M,,M,,*4B
$GPRMC,012424.46,A,,S,,W,,,261106,,*0D
$GPGSA,A,3,29,2,30,10,,,,,,,,,,,*27
{"class":"TPV","mode":3,"time":"2006-11-26T01:24:24.463Z","leapseconds":14,"ept":0.005}
$GPGGA,012424.46,,S,,W,1,05,2.55,,M,,M,,*57
$GPRMC,012424.46,A,,S,,W,,,261106,,*0D
$GPGSA,A,3,29,2,30,10,,,,,,,,,3.7,2.6,2.7*0C
{"class":"TPV","mode":3,"time":"2006-11-26T01:24:24.463Z","leapseconds":14,"ept":0.005,"epv":62.631,"epc":25.92,"eph":48.463,"sep":70.891}
{"class":"SKY","time":"2006-11-26T01:24:19.639Z","hdop":2.55,"pdop":3.73,"tdop":2.15,"vdop":2.72}
$GPGGA,012424.46,,S,,W,1,05,2.55,,M,,M,,*57
$GPRMC,012424.46,A,,S,,W,,,261106,,*0D
$GPGSA,A,3,29,2,30,10,,,,,,,,,3.7,2.6,2.7*0C
{"class":"TPV","mode":3,"time":"2006-11-26T01:24:24.463Z","leapseconds":14,"ept":0.005,"epv":62.631,"epc":25.92,"eph":48.463,"sep":70.891}
{"class":"SKY","time":"2006-11-26T01:24:19.639Z","hdop":2.55,"pdop":3.73,"tdop":2.15,"vdop":2.72}
$GPGSV,2,1,08,26,06,138,00,24,14,077,34,06,77,232,26,29,14,126,29*7F
$GPGSV,2,2,08,02,16,079,38,21,35,257,26,30,22,204,32,10,54,073,41*75
{"class":"SKY","time":"2006-11-26T01:24:25.621Z","gdop":4.31,"hdop":2.55,"pdop":3.73,"tdop":2.15,"xdop":1.72,"ydop":1.89,"vdop":2.72,"nSat":8,"uSat":5,"satellites":[{"PRN":26,"gnssid":0,"svid":26,"az":138.0,"el":5.8,"ss":0.0,"used":false},{"PRN":24,"gnssid":0,"svid":24,"az":76.7,"el":13.9,"ss":34.0,"used":true,"health":1},{"PRN":6,"gnssid":0,"svid":6,"az":232.2,"el":77.3,"ss":26.0,"used":false,"health":1},{"PRN":29,"gnssid":0,"svid":29,"az":126.4,"el":14.4,"ss":29.0,"used":true,"health":1},{"PRN":2,"gnssid":0,"svid":2,"az":79.4,"el":16.3,"ss":38.0,"used":true,"health":1},{"PRN":21,"gnssid":0,"svid":21,"az":257.3,"el":34.8,"ss":26.0,"used":false,"health":1}]}
$GPGSV,3,1,09,26,06,138,00,24,14,077,34,06,77,232,26,29,14,126,29*7F
$GPGSV,3,2,09,02,16,079,38,21,35,257,26,30,22,204,32,10,54,073,41*75
$GPGSV,3,3,09,07,40,297,29*44
{"class":"SKY","time":"2006-11-26T01:24:25.621Z","gdop":4.31,"hdop":2.55,"pdop":3.73,"tdop":2.15,"xdop":1.72,"ydop":1.89,"vdop":2.72,"nSat":9,"uSat":5,"satellites":[{"PRN":26,"gnssid":0,"svid":26,"az":138.0,"el":5.8,"ss":0.0,"used":false},{"PRN":24,"gnssid":0,"svid":24,"az":76.7,"el":13.9,"ss":34.0,"used":true,"health":1},{"PRN":6,"gnssid":0,"svid":6,"az":232.2,"el":77.3,"ss":26.0,"used":false,"health":1},{"PRN":29,"gnssid":0,"svid":29,"az":126.4,"el":14.4,"ss":29.0,"used":true,"health":1},{"PRN":2,"gnssid":0,"svid":2,"az":79.4,"el":16.3,"ss":38.0,"used":true,"health":1},{"PRN":21,"gnssid":0,"svid":21,"az":257.3,"el":34.8,"ss":26.0,"used":false,"health":1}]}
$GPGGA,012424.46,,S,,W,1,05,2.55,,M,,M,,*57
$GPRMC,012424.46,A,,S,,W,,,261106,,*0D
$GPGSA,A,3,24,29,2,30,10,,,,,,,,3.7,2.6,2.7*0A
$GPGBS,012424.46,25.740,28.323,62.631,,,,*7E
{"class":"TPV","mode":3,"time":"2006-11-26T01:24:24.463Z","leapseconds":14,"ept":0.005,"epx":25.740,"epy":28.323,"epv":62.631,"eps":13.01,"epc":25.92,"eph":48.463,"sep":70.891}
{"class":"SKY","time":"2006-11-26T01:24:25.621Z","gdop":4.31,"hdop":2.55,"pdop":3.73,"tdop":2.15,"xdop":1.72,"ydop":1.89,"vdop":2.72}
$GPGGA,012424.46,,S,,W,1,05,2.55,,M,,M,,*57
$GPRMC,012424.46,A,,S,,W,,,261106,,*0D
$GPGSA,A,3,24,29,2,30,10,,,,,,,,3.7,2.5,2.7*09
$GPGBS,012424.46,25.740,28.323,62.631,,,,*7E
{"class":"TPV","mode":3,"time":"2006-11-26T01:24:24.463Z","leapseconds":14,"ept":0.005,"epx":25.740,"epy":28.323,"epv":62.631,"eps":13.01,"epc":25.92,"eph":48.463,"sep":70.891}
{"class":"SKY","time":"2006-11-26T01:24:25.621Z","gdop":4.31,"hdop":2.55,"pdop":3.73,"tdop":2.14,"xdop":1.72,"ydop":1.89,"vdop":2.72}
$GPGGA,012424.46,,S,,W,1,05,2.55,,M,,M,,*57
$GPRMC,012424.46,A,,S,,W,,,261106,,*0D
$GPGSA,A,3,24,29,2,30,10,,,,,,,,3.7,2.5,2.7*09
$GPGBS,012424.46,25.740,28.323,62.631,,,,*7E
{"class":"TPV","mode":3,"time":"2006-11-26T01:24:24.463Z","leapseconds":14,"ept":0.005,"epx":25.740,"epy":28.323,"epv":62.631,"eps":13.01,"epc":25.92,"eph":48.463,"sep":70.891}
{"class":"SKY","time":"2006-11-26T01:24:25.621Z","gdop":4.31,"hdop":2.55,"pdop":3.73,"tdop":2.14,"xdop":1.72,"ydop":1.89,"vdop":2.72}
$GPGSV,3,1,09,26,06,138,00,24,14,077,32,06,77,232,26,29,14,126,28*78
$GPGSV,3,2,09,02,16,079,38,21,35,257,26,30,22,204,32,10,54,072,42*77
$GPGSV,3,3,09,07,40,297,29*44
{"class":"SKY","time":"2006-11-26T01:24:33.572Z","gdop":4.31,"hdop":2.55,"pdop":3.73,"tdop":2.14,"xdop":1.72,"ydop":1.89,"vdop":2.72,"nSat":9,"uSat":5,"satellites":[{"PRN":26,"gnssid":0,"svid":26,"az":138.0,"el":5.8,"ss":0.0,"used":false},{"PRN":24,"gnssid":0,"svid":24,"az":76.7,"el":13.9,"ss":32.0,"used":true,"health":1},{"PRN":6,"gnssid":0,"svid":6,"az":231.9,"el":77.3,"ss":26.0,"used":false,"health":1},{"PRN":29,"gnssid":0,"svid":29,"az":126.4,"el":14.5,"ss":28.0,"used":true,"health":1},{"PRN":2,"gnssid":0,"svid":2,"az":79.4,"el":16.2,"ss":38.0,"used":true,"health":1},{"PRN":21,"gnssid":0,"svid":21,"az":257.3,"el":34.9,"ss":26.0,"used":false,"health":1}]}
$GPGGA,012434.49,,S,,W,1,05,,,M,,M,,*45
$GPRMC,012434.49,A,,S,,W,,,261106,,*03
$GPGSA,A,3,24,29,2,30,10,,,,,,,,,,*21
{"class":"TPV","mode":3,"time":"2006-11-26T01:24:34.491Z","leapseconds":14,"ept":0.005}
$GPGGA,012434.49,,S,,W,1,05,2.55,,M,,M,,*59
$GPRMC,012434.49,A,,S,,W,,,261106,,*03
$GPGSA,A,3,24,29,2,30,10,,,,,,,,3.7,2.5,2.7*09
{"class":"TPV","mode":3,"time":"2006-11-26T01:24:34.491Z","leapseconds":14,"ept":0.005,"epv":62.575,"epc":12.49,"eph":48.428,"sep":70.833}
{"class":"SKY","time":"2006-11-26T01:24:33.572Z","hdop":2.55,"pdop":3.73,"tdop":2.14,"vdop":2.72}
$GPGGA,012434.49,,S,,W,1,05,2.55,,M,,M,,*59
$GPRMC,012434.49,A,,S,,W,,,261106,,*03
$GPGSA,A,3,24,29,2,30,10,,,,,,,,3.7,2.5,2.7*09
{"class":"TPV","mode":3,"time":"2006-11-26T01:24:34.491Z","leapseconds":14,"ept":0.005,"epv":62.575,"epc":12.49,"eph":48.428,"sep":70.833}
{"class":"SKY","time":"2006-11-26T01:24:33.572Z","hdop":2.55,"pdop":3.73,"tdop":2.14,"vdop":2.72}
$GPGGA,012434.49,,S,,W,1,05,2.55,,M,,M,,*59
$GPRMC,012434.49,A,,S,,W,,,261106,,*03
$GPGSA,A,3,24,29,2,30,10,,,,,,,,3.7,2.5,2.7*09
{"class":"TPV","mode":3,"time":"2006-11-26T01:24:34.491Z","leapseconds":14,"ept":0.005,"epv":62.575,"epc":12.49,"eph":48.428,"sep":70.833}
{"class":"SKY","time":"2006-11-26T01:24:33.572Z","hdop":2.55,"pdop":3.73,"tdop":2.14,"vdop":2.72}
$GPGSV,3,1,09,26,06,138,00,24,14,077,33,06,77,232,26,29,15,126,27*77
$GPGSV,3,2,09,02,16,079,37,21,35,257,26,30,22,204,30,10,54,072,42*7A
$GPGSV,3,3,09,07,40,297,29*44
{"class":"SKY","time":"2006-11-26T01:24:38.589Z","gdop":4.30,"hdop":2.55,"pdop":3.73,"tdop":2.14,"xdop":1.71,"ydop":1.89,"vdop":2.72,"nSat":9,"uSat":5,"satellites":[{"PRN":26,"gnssid":0,"svid":26,"az":138.0,"el":5.8,"ss":0.0,"used":false},{"PRN":24,"gnssid":0,"svid":24,"az":76.7,"el":13.8,"ss":33.0,"used":true,"health":1},{"PRN":6,"gnssid":0,"svid":6,"az":231.8,"el":77.3,"ss":26.0,"used":false,"health":1},{"PRN":29,"gnssid":0,"svid":29,"az":126.4,"el":14.5,"ss":27.0,"used":true,"health":1},{"PRN":2,"gnssid":0,"svid":2,"az":79.4,"el":16.2,"ss":37.0,"used":true,"health":1},{"PRN":21,"gnssid":0,"svid":21,"az":257.3,"el":34.9,"ss":26.0,"used":false,"health":1}]}
$GPGGA,012434.49,,S,,W,1,05,2.55,,M,,M,,*59
$GPRMC,012434.49,A,,S,,W,,,261106,,*03
$GPGSA,A,3,24,29,2,30,10,,,,,,,,3.7,2.5,2.7*09
$GPGBS,012434.49,25.702,28.286,62.575,,,,*7B
{"class":"TPV","mode":3,"time":"2006-11-26T01:24:34.491Z","leapseconds":14,"ept":0.005,"epx":25.702,"epy":28.286,"epv":62.575,"eps":5.65,"epc":12.49,"eph":48.428,"sep":70.833}
{"class":"SKY","time":"2006-11-26T01:24:38.589Z","gdop":4.30,"hdop":2.55,"pdop":3.73,"tdop":2.14,"xdop":1.71,"ydop":1.89,"vdop":2.72}
$GPGGA,012444.46,,S,,W,1,05,2.55,,M,,M,,*51
$GPRMC,012444.46,A,,S,,W,,,261106,,*0B
$GPGSA,A,3,24,29,2,30,10,,,,,,,,3.7,2.5,2.7*09
{"class":"TPV","mode":3,"time":"2006-11-26T01:24:44.461Z","leapseconds":14,"ept":0.005,"epv":62.507,"epc":12.55,"eph":48.385,"sep":70.763}
{"class":"SKY","time":"2006-11-26T01:24:38.589Z","hdop":2.55,"pdop":3.72,"tdop":2.14,"vdop":2.72}
$GPGGA,012444.46,,S,,W,1,05,2.55,,M,,M,,*51
$GPRMC,012444.46,A,,S,,W,,,261106,,*0B
$GPGSA,A,3,24,29,2,30,10,,,,,,,,3.7,2.5,2.7*09
{"class":"TPV","mode":3,"time":"2006-11-26T01:24:44.461Z","leapseconds":14,"ept":0.005,"epv":62.507,"epc":12.55,"eph":48.385,"sep":70.763}
{"class":"SKY","time":"2006-11-26T01:24:38.589Z","hdop":2.55,"pdop":3.72,"tdop":2.14,"vdop":2.72}
$GPGSV,3,1,09,26,06,138,00,24,14,077,33,06,77,232,26,29,15,126,28*78
$GPGSV,3,2,09,02,16,079,37,21,35,257,26,30,22,204,32,10,54,072,42*78
$GPGSV,3,3,09,07,40,297,29*44
{"class":"SKY","time":"2006-11-26T01:24:44.560Z","gdop":4.30,"hdop":2.55,"pdop":3.72,"tdop":2.14,"xdop":1.71,"ydop":1.88,"vdop":2.72,"nSat":9,"uSat":5,"satellites":[{"PRN":26,"gnssid":0,"svid":26,"az":138.0,"el":5.8,"ss":0.0,"used":false},{"PRN":24,"gnssid":0,"svid":24,"az":76.7,"el":13.8,"ss":33.0,"used":true,"health":1},{"PRN":6,"gnssid":0,"svid":6,"az":231.6,"el":77.3,"ss":26.0,"used":false,"health":1},{"PRN":29,"gnssid":0,"svid":29,"az":126.3,"el":14.6,"ss":28.0,"used":true,"health":1},{"PRN":2,"gnssid":0,"svid":2,"az":79.4,"el":16.1,"ss":37.0,"used":true,"health":1},{"PRN":21,"gnssid":0,"svid":21,"az":257.3,"el":35.0,"ss":26.0,"used":false,"health":1}]}
$GPZDA,012446.00,26,11,2006,00,00*63
$GPGGA,012446.00,5332.2648854,N,11329.5954755,W,1,04,,957.60,M,-18.865,M,,*47
$GPRMC,012446.00,A,5332.2648854,N,11329.5954755,W,0.0000,0.000,261106,13.9,E*42
$GPGSA,A,2,24,29,2,30,10,,,,,,,,,,*20
{"class":"TPV","mode":2,"time":"2006-11-26T01:24:46.000Z","leapseconds":14,"ept":0.005,"lat":53.537748090,"lon":-113.493257926,"altHAE":938.7350,"altMSL":957.6000,"alt":957.6000,"track":0.0000,"magtrack":13.9327,"magvar":13.9,"speed":0.000}
$GPZDA,012447.00,26,11,2006,00,00*62
$GPGGA,012447.00,5332.2651570,N,11329.5948771,W,1,04,,958.50,M,-18.865,M,,*42
$GPRMC,012447.00,A,5332.2651570,N,11329.5948771,W,0.0000,0.000,261106,13.9,E*4B
$GPGSA,A,2,24,29,2,30,10,,,,,,,,,,*20
{"class":"TPV","mode":2,"time":"2006-11-26T01:24:47.000Z","leapseconds":14,"ept":0.005,"lat":53.537752616,"lon":-113.493247951,"altHAE":939.6320,"altMSL":958.4970,"alt":958.4970,"track":0.0000,"magtrack":13.9327,"magvar":13.9,"speed":0.000}
$GPGGA,012447.00,5332.2651570,N,11329.5948771,W,1,04,5.26,958.50,M,-18.865,M,,*5D
$GPRMC,012447.00,A,5332.2651570,N,11329.5948771,W,0.0000,0.000,261106,13.9,E*4B
$GPGSA,A,2,24,29,2,30,10,,,,,,,,5.3,5.3,0.0*0E
{"class":"TPV","mode":2,"time":"2006-11-26T01:24:47.000Z","leapseconds":14,"ept":0.005,"lat":53.537752616,"lon":-113.493247951,"altHAE":939.6320,"altMSL":958.4970,"alt":958.4970,"track":0.0000,"magtrack":13.9327,"magvar":13.9,"speed":0.000,"eph":99.987,"sep":99.989}
{"class":"SKY","time":"2006-11-26T01:24:44.560Z","hdop":5.26,"pdop":5.26,"tdop":2.07,"vdop":0.04}
$GPZDA,012448.00,26,11,2006,00,00*6D
$GPGGA,012448.00,5332.2654285,N,11329.5942836,W,1,04,,959.39,M,-18.865,M,,*4D
$GPRMC,012448.00,A,5332.2654285,N,11329.5942836,W,0.0000,0.000,261106,13.9,E*4A
$GPGSA,A,2,24,29,2,30,10,,,,,,,,,,*20
{"class":"TPV","mode":2,"time":"2006-11-26T01:24:48.000Z","leapseconds":14,"ept":0.005,"lat":53.537757142,"lon":-113.493238060,"altHAE":940.5290,"altMSL":959.3940,"alt":959.3940,"track":0.0000,"magtrack":13.9327,"magvar":13.9,"speed":0.000}
$GPGGA,012448.00,5332.2654285,N,11329.5942836,W,1,04,5.26,959.39,M,-18.865,M,,*52
$GPRMC,012448.00,A,5332.2654285,N,11329.5942836,W,0.0000,0.000,261106,13.9,E*4A
$GPGSA,A,2,24,29,2,30,10,,,,,,,,5.3,5.3,0.0*0E
{"class":"TPV","mode":2,"time":"2006-11-26T01:24:48.000Z","leapseconds":14,"ept":0.005,"lat":53.537757142,"lon":-113.493238060,"altHAE":940.5290,"altMSL":959.3940,"alt":959.3940,"track":0.0000,"magtrack":13.9327,"magvar":13.9,"speed":0.000,"eph":99.907,"sep":99.909}
{"class":"SKY","time":"2006-11-26T01:24:44.560Z","hdop":5.26,"pdop":5.26,"tdop":2.07,"vdop":0.04}
$GPZDA,012449.00,26,11,2006,00,00*6C
$GPGGA,012449.00,5332.2656800,N,11329.5937304,W,1,04,,960.23,M,-18.865,M,,*40
$GPRMC,012449.00,A,5332.2656800,N,11329.5937304,W,0.0000,0.000,261106,13.9,E*46
$GPGSA,A,2,24,29,2,30,10,,,,,,,,,,*20
{"class":"TPV","mode":2,"time":"2006-11-26T01:24:49.000Z","leapseconds":14,"ept":0.005,"lat":53.537761333,"lon":-113.493228840,"altHAE":941.3700,"altMSL":960.2350,"alt":960.2350,"track":0.0000,"magtrack":13.9326,"magvar":13.9,"speed":0.000}
$GPGGA,012449.00,5332.2656800,N,11329.5937304,W,1,04,5.26,960.23,M,-18.865,M,,*5F
$GPRMC,012449.00,A,5332.2656800,N,11329.5937304,W,0.0000,0.000,261106,13.9,E*46
$GPGSA,A,2,24,29,2,30,10,,,,,,,,5.3,5.3,0.0*0E
{"class":"TPV","mode":2,"time":"2006-11-26T01:24:49.000Z","leapseconds":14,"ept":0.005,"lat":53.537761333,"lon":-113.493228840,"altHAE":941.3700,"altMSL":960.2350,"alt":960.2350,"track":0.0000,"magtrack":13.9326,"magvar":13.9,"speed":0.000,"eph":99.907,"sep":99.909}
{"class":"SKY","time":"2006-11-26T01:24:44.560Z","hdop":5.26,"pdop":5.26,"tdop":2.07,"vdop":0.04}
$GPGSV,3,1,09,26,06,138,00,24,14,077,30,06,77,231,26,29,15,126,27*77
$GPGSV,3,2,09,02,16,079,37,21,35,257,26,30,22,204,33,10,54,072,42*79
$GPGSV,3,3,09,07,40,297,29*44
{"class":"SKY","time":"2006-11-26T01:24:49.531Z","gdop":33.46,"hdop":5.26,"pdop":5.26,"tdop":2.07,"xdop":17.61,"ydop":20.95,"vdop":0.04,"nSat":9,"uSat":4,"satellites":[{"PRN":26,"gnssid":0,"svid":26,"az":138.0,"el":5.8,"ss":0.0,"used":false},{"PRN":24,"gnssid":0,"svid":24,"az":76.7,"el":13.8,"ss":30.0,"used":true,"health":1},{"PRN":6,"gnssid":0,"svid":6,"az":231.4,"el":77.3,"ss":26.0,"used":false,"health":1},{"PRN":29,"gnssid":0,"svid":29,"az":126.3,"el":14.6,"ss":27.0,"used":false,"health":1},{"PRN":2,"gnssid":0,"svid":2,"az":79.5,"el":16.1,"ss":37.0,"used":true,"health":1},{"PRN":21,"gnssid":0,"svid":21,"az":257.4,"el":35.0,"ss":26.0,"used":false,"health":1}]}
$GPZDA,012450.00,26,11,2006,00,00*64
$GPGGA,012450.00,5332.2659214,N,11329.5932124,W,1,04,,961.02,M,-18.865,M,,*4F
$GPRMC,012450.00,A,5332.2659214,N,11329.5932124,W,0.0000,0.000,261106,13.9,E*4B
$GPGSA,A,2,24,2,30,10,,,,,,,,,,,*2B
{"class":"TPV","mode":2,"time":"2006-11-26T01:24:50.000Z","leapseconds":14,"ept":0.005,"lat":53.537765356,"lon":-113.493220207,"altHAE":942.1590,"altMSL":961.0240,"alt":961.0240,"track":0.0000,"magtrack":13.9326,"magvar":13.9,"speed":0.000}
$GPGGA,012450.00,5332.2659214,N,11329.5932124,W,1,04,5.25,961.02,M,-18.865,M,,*53
$GPRMC,012450.00,A,5332.2659214,N,11329.5932124,W,0.0000,0.000,261106,13.9,E*4B
$GPGSA,A,2,24,2,30,10,,,,,,,,,5.3,5.3,0.0*05
{"class":"TPV","mode":2,"time":"2006-11-26T01:24:50.000Z","leapseconds":14,"ept":0.005,"lat":53.537765356,"lon":-113.493220207,"altHAE":942.1590,"altMSL":961.0240,"alt":961.0240,"track":0.0000,"magtrack":13.9326,"magvar":13.9,"speed":0.000,"eph":99.753,"sep":99.755}
{"class":"SKY","time":"2006-11-26T01:24:49.531Z","hdop":5.25,"pdop":5.25,"tdop":2.07,"vdop":0.04}
$GPZDA,012451.00,26,11,2006,00,00*65
$GPGGA,012451.00,5332.2661527,N,11329.5927347,W,1,04,,961.76,M,-18.865,M,,*42
$GPRMC,012451.00,A,5332.2661527,N,11329.5927347,W,0.0000,0.000,261106,13.9,E*45
$GPGSA,A,2,24,2,30,10,,,,,,,,,,,*2B
{"class":"TPV","mode":2,"time":"2006-11-26T01:24:51.000Z","leapseconds":14,"ept":0.005,"lat":53.537769212,"lon":-113.493212244,"altHAE":942.8980,"altMSL":961.7630,"alt":961.7630,"track":0.0000,"magtrack":13.9326,"magvar":13.9,"speed":0.000}
$GPGGA,012451.00,5332.2661527,N,11329.5927347,W,1,04,5.25,961.76,M,-18.865,M,,*5E
$GPRMC,012451.00,A,5332.2661527,N,11329.5927347,W,0.0000,0.000,261106,13.9,E*45
$GPGSA,A,2,24,2,30,10,,,,,,,,,5.3,5.3,0.0*05
{"class":"TPV","mode":2,"time":"2006-11-26T01:24:51.000Z","leapseconds":14,"ept":0.005,"lat":53.537769212,"lon":-113.493212244,"altHAE":942.8980,"altMSL":961.7630,"alt":961.7630,"track":0.0000,"magtrack":13.9326,"magvar":13.9,"speed":0.000,"eph":99.753,"sep":99.755}
{"class":"SKY","time":"2006-11-26T01:24:49.531Z","hdop":5.25,"pdop":5.25,"tdop":2.07,"vdop":0.04}
$GPZDA,012452.00,26,11,2006,00,00*66
$GPGGA,012452.00,5332.2663640,N,11329.5923172,W,1,04,,962.42,M,-18.865,M,,*45
$GPRMC,012452.00,A,5332.2663640,N,11329.5923172,W,0.0000,0.000,261106,13.9,E*46
$GPGSA,A,2,24,2,30,10,,,,,,,,,,,*2B
{"class":"TPV","mode":2,"time":"2006-11-26T01:24:52.000Z","leapseconds":14,"ept":0.005,"lat":53.537772733,"lon":-113.493205287,"altHAE":943.5510,"altMSL":962.4160,"alt":962.4160,"track":0.0000,"magtrack":13.9326,"magvar":13.9,"speed":0.000}
$GPZDA,012453.00,26,11,2006,00,00*67
$GPGGA,012453.00,5332.2665802,N,11329.5918998,W,1,04,,963.07,M,-18.865,M,,*4E
$GPRMC,012453.00,A,5332.2665802,N,11329.5918998,W,0.0000,0.000,261106,13.9,E*4D
$GPGSA,A,2,24,2,30,10,,,,,,,,,,,*2B
{"class":"TPV","mode":2,"time":"2006-11-26T01:24:53.000Z","leapseconds":14,"ept":0.005,"lat":53.537776337,"lon":-113.493198330,"altHAE":944.2030,"altMSL":963.0681,"alt":963.0681,"track":0.0000,"magtrack":13.9326,"magvar":13.9,"speed":0.000}
$GPZDA,012454.00,26,11,2006,00,00*60
$GPGGA,012454.00,5332.2667713,N,11329.5915377,W,1,04,,963.64,M,-18.865,M,,*47
$GPRMC,012454.00,A,5332.2667713,N,11329.5915377,W,0.0000,0.000,261106,13.9,E*41
$GPGSA,A,2,24,2,30,10,,,,,,,,,,,*2B
{"class":"TPV","mode":2,"time":"2006-11-26T01:24:54.000Z","leapseconds":14,"ept":0.005,"lat":53.537779522,"lon":-113.493192295,"altHAE":944.7790,"altMSL":963.6441,"alt":963.6441,"track":0.0000,"magtrack":13.9326,"magvar":13.9,"speed":0.000}
$GPGGA,012454.00,5332.2667713,N,11329.5915377,W,1,04,5.24,963.64,M,-18.865,M,,*5A
$GPRMC,012454.00,A,5332.2667713,N,11329.5915377,W,0.0000,0.000,261106,13.9,E*41
$GPGSA,A,2,24,2,30,10,,,,,,,,,5.2,5.2,0.0*05
{"class":"TPV","mode":2,"time":"2006-11-26T01:24:54.000Z","leapseconds":14,"ept":0.005,"lat":53.537779522,"lon":-113.493192295,"altHAE":944.7790,"altMSL":963.6441,"alt":963.6441,"track":0.0000,"magtrack":13.9326,"magvar":13.9,"speed":0.000,"eph":99.533,"sep":99.536}
{"class":"SKY","time":"2006-11-26T01:24:49.531Z","hdop":5.24,"pdop":5.24,"tdop":2.06,"vdop":0.04}
$GPGSV,2,1,08,26,06,138,00,24,14,077,30,06,77,231,26,29,15,126,26*76
$GPGSV,2,2,08,02,16,079,37,21,35,257,26,30,22,204,33,10,54,072,42*79
{"class":"SKY","time":"2006-11-26T01:24:54.585Z","gdop":33.51,"hdop":5.24,"pdop":5.24,"tdop":2.06,"xdop":17.63,"ydop":20.97,"vdop":0.04,"nSat":8,"uSat":4,"satellites":[{"PRN":26,"gnssid":0,"svid":26,"az":137.9,"el":6.0,"ss":0.0,"used":false},{"PRN":24,"gnssid":0,"svid":24,"az":76.8,"el":13.7,"ss":30.0,"used":true,"health":1},{"PRN":6,"gnssid":0,"svid":6,"az":231.2,"el":77.3,"ss":26.0,"used":false,"health":1},{"PRN":29,"gnssid":0,"svid":29,"az":126.3,"el":14.6,"ss":26.0,"used":false,"health":1},{"PRN":2,"gnssid":0,"svid":2,"az":79.5,"el":16.1,"ss":37.0,"used":true,"health":1},{"PRN":21,"gnssid":0,"svid":21,"az":257.4,"el":35.0,"ss":26.0,"used":false,"health":1}]}
$GPGSV,3,1,09,26,06,138,00,24,14,077,30,06,77,231,26,29,15,126,26*76
$GPGSV,3,2,09,02,16,079,37,21,35,257,26,30,22,204,33,10,54,072,42*79
$GPGSV,3,3,09,07,40,297,29*44
{"class":"SKY","time":"2006-11-26T01:24:54.585Z","gdop":33.51,"hdop":5.24,"pdop":5.24,"tdop":2.06,"xdop":17.63,"ydop":20.97,"vdop":0.04,"nSat":9,"uSat":4,"satellites":[{"PRN":26,"gnssid":0,"svid":26,"az":137.9,"el":6.0,"ss":0.0,"used":false},{"PRN":24,"gnssid":0,"svid":24,"az":76.8,"el":13.7,"ss":30.0,"used":true,"health":1},{"PRN":6,"gnssid":0,"svid":6,"az":231.2,"el":77.3,"ss":26.0,"used":false,"health":1},{"PRN":29,"gnssid":0,"svid":29,"az":126.3,"el":14.6,"ss":26.0,"used":false,"health":1},{"PRN":2,"gnssid":0,"svid":2,"az":79.5,"el":16.1,"ss":37.0,"used":true,"health":1},{"PRN":21,"gnssid":0,"svid":21,"az":257.4,"el":35.0,"ss":26.0,"used":false,"health":1}]}
$GPZDA,012455.00,26,11,2006,00,00*61
$GPGGA,012455.00,5332.2669423,N,11329.5912209,W,1,04,,964.16,M,-18.865,M,,*45
$GPRMC,012455.00,A,5332.2669423,N,11329.5912209,W,0.0000,0.000,261106,13.9,E*41
$GPGSA,A,2,24,2,30,10,,,,,,,,,,,*2B
{"class":"TPV","mode":2,"time":"2006-11-26T01:24:55.000Z","leapseconds":14,"ept":0.005,"lat":53.537782372,"lon":-113.493187015,"altHAE":945.2910,"altMSL":964.1561,"alt":964.1561,"track":0.0000,"magtrack":13.9326,"magvar":13.9,"speed":0.000}
$GPZDA,012456.00,26,11,2006,00,00*62
$GPGGA,012456.00,5332.2670882,N,11329.5909342,W,1,04,,964.61,M,-18.865,M,,*4D
$GPRMC,012456.00,A,5332.2670882,N,11329.5909342,W,0.0000,0.000,261106,13.9,E*49
$GPGSA,A,2,24,2,30,10,,,,,,,,,,,*2B
{"class":"TPV","mode":2,"time":"2006-11-26T01:24:56.000Z","leapseconds":14,"ept":0.005,"lat":53.537784803,"lon":-113.493182237,"altHAE":945.7480,"altMSL":964.6131,"alt":964.6131,"track":0.0000,"magtrack":13.9326,"magvar":13.9,"speed":0.000}
$GPZDA,012457.00,26,11,2006,00,00*63
$GPGGA,012457.00,5332.2672139,N,11329.5906828,W,1,04,,965.03,M,-18.865,M,,*4A
$GPRMC,012457.00,A,5332.2672139,N,11329.5906828,W,0.0000,0.000,261106,13.9,E*4B
$GPGSA,A,2,24,2,30,10,,,,,,,,,,,*2B
{"class":"TPV","mode":2,"time":"2006-11-26T01:24:57.000Z","leapseconds":14,"ept":0.005,"lat":53.537786898,"lon":-113.493178046,"altHAE":946.1600,"altMSL":965.0251,"alt":965.0251,"track":0.0000,"magtrack":13.9326,"magvar":13.9,"speed":0.000}
$GPGGA,012457.00,5332.2672139,N,11329.5906828,W,1,04,5.23,965.03,M,-18.865,M,,*50
$GPRMC,012457.00,A,5332.2672139,N,11329.5906828,W,0.0000,0.000,261106,13.9,E*4B
$GPGSA,A,2,24,2,30,10,,,,,,,,,5.2,5.2,0.0*05
{"class":"TPV","mode":2,"time":"2006-11-26T01:24:57.000Z","leapseconds":14,"ept":0.005,"lat":53.537786898,"lon":-113.493178046,"altHAE":946.1600,"altMSL":965.0251,"alt":965.0251,"track":0.0000,"magtrack":13.9326,"magvar":13.9,"speed":0.000,"eph":99.420,"sep":99.422}
{"class":"SKY","time":"2006-11-26T01:24:54.585Z","hdop":5.23,"pdop":5.23,"tdop":2.06,"vdop":0.04}
$GPZDA,012458.00,26,11,2006,00,00*6C
$GPGGA,012458.00,5332.2673245,N,11329.5904514,W,1,04,,965.40,M,-18.865,M,,*4B
$GPRMC,012458.00,A,5332.2673245,N,11329.5904514,W,0.0000,0.000,261106,13.9,E*4D
$GPGSA,A,2,24,2,30,10,,,,,,,,,,,*2B
{"class":"TPV","mode":2,"time":"2006-11-26T01:24:58.000Z","leapseconds":14,"ept":0.005,"lat":53.537788742,"lon":-113.493174190,"altHAE":946.5330,"altMSL":965.3981,"alt":965.3981,"track":0.0000,"magtrack":13.9326,"magvar":13.9,"speed":0.000}
$GPGGA,012458.00,5332.2673245,N,11329.5904514,W,1,04,5.23,965.40,M,-18.865,M,,*51
$GPRMC,012458.00,A,5332.2673245,N,11329.5904514,W,0.0000,0.000,261106,13.9,E*4D
$GPGSA,A,2,24,2,30,10,,,,,,,,,5.2,5.2,0.0*05
{"class":"TPV","mode":2,"time":"2006-11-26T01:24:58.000Z","leapseconds":14,"ept":0.005,"lat":53.537788742,"lon":-113.493174190,"altHAE":946.5330,"altMSL":965.3981,"alt":965.3981,"track":0.0000,"magtrack":13.9326,"magvar":13.9,"speed":0.000,"eph":99.420,"sep":99.422}
{"class":"SKY","time":"2006-11-26T01:24:54.585Z","hdop":5.23,"pdop":5.23,"tdop":2.06,"vdop":0.04}
$GPZDA,012459.00,26,11,2006,00,00*6D
$GPGGA,012459.00,5332.2674201,N,11329.5902452,W,1,04,,965.74,M,-18.865,M,,*4F
$GPRMC,012459.00,A,5332.2674201,N,11329.5902452,W,0.0000,0.000,261106,13.9,E*4E
$GPGSA,A,2,24,2,30,10,,,,,,,,,,,*2B
{"class":"TPV","mode":2,"time":"2006-11-26T01:24:59.000Z","leapseconds":14,"ept":0.005,"lat":53.537790335,"lon":-113.493170754,"altHAE":946.8720,"altMSL":965.7371,"alt":965.7371,"track":0.0000,"magtrack":13.9326,"magvar":13.9,"speed":0.000}
$GPGGA,012459.45,,S,,W,1,04,,,M,,M,,*43
$GPRMC,012459.45,A,,S,,W,,,261106,,*04
$GPGSA,A,2,24,2,30,10,,,,,,,,,,,*2B
{"class":"TPV","mode":2,"time":"2006-11-26T01:24:59.450Z","leapseconds":14,"ept":0.005}
$GPGSV,2,1,08,26,06,138,00,24,14,077,29,06,77,231,26,29,15,126,26*7E
$GPGSV,2,2,08,02,16,079,35,21,35,257,26,30,22,204,32,10,54,072,43*7B
{"class":"SKY","time":"2006-11-26T01:24:59.531Z","gdop":33.44,"hdop":27.32,"pdop":29.68,"tdop":15.39,"xdop":17.58,"ydop":20.91,"vdop":11.61,"nSat":8,"uSat":4,"satellites":[{"PRN":26,"gnssid":0,"svid":26,"az":137.9,"el":6.0,"ss":0.0,"used":false},{"PRN":24,"gnssid":0,"svid":24,"az":76.8,"el":13.7,"ss":29.0,"used":true,"health":1},{"PRN":6,"gnssid":0,"svid":6,"az":231.0,"el":77.3,"ss":26.0,"used":false,"health":1},{"PRN":29,"gnssid":0,"svid":29,"az":126.3,"el":14.7,"ss":26.0,"used":false,"health":1},{"PRN":2,"gnssid":0,"svid":2,"az":79.5,"el":16.0,"ss":35.0,"used":true,"health":1},{"PRN":21,"gnssid":0,"svid":21,"az":257.4,"el":35.1,"ss":26.0,"used":false,"health":1}]}
$GPGSV,3,1,09,26,06,138,00,24,14,077,29,06,77,231,26,29,15,126,26*7E
$GPGSV,3,2,09,02,16,079,35,21,35,257,26,30,22,204,32,10,54,072,43*7B
$GPGSV,3,3,09,07,40,297,29*44
{"class":"SKY","time":"2006-11-26T01:24:59.531Z","gdop":33.44,"hdop":27.32,"pdop":29.68,"tdop":15.39,"xdop":17.58,"ydop":20.91,"vdop":11.61,"nSat":9,"uSat":4,"satellites":[{"PRN":26,"gnssid":0,"svid":26,"az":137.9,"el":6.0,"ss":0.0,"used":false},{"PRN":24,"gnssid":0,"svid":24,"az":76.8,"el":13.7,"ss":29.0,"used":true,"health":1},{"PRN":6,"gnssid":0,"svid":6,"az":231.0,"el":77.3,"ss":26.0,"used":false,"health":1},{"PRN":29,"gnssid":0,"svid":29,"az":126.3,"el":14.7,"ss":26.0,"used":false,"health":1},{"PRN":2,"gnssid":0,"svid":2,"az":79.5,"el":16.0,"ss":35.0,"used":true,"health":1},{"PRN":21,"gnssid":0,"svid":21,"az":257.4,"el":35.1,"ss":26.0,"used":false,"health":1}]}
$GPZDA,012500.00,26,11,2006,00,00*60
$GPGGA,012500.00,5332.2675106,N,11329.5900491,W,1,04,,966.05,M,-18.865,M,,*4F
$GPRMC,012500.00,A,5332.2675106,N,11329.5900491,W,0.0000,0.000,261106,13.9,E*4B
$GPGSA,A,2,24,2,30,10,,,,,,,,,,,*2B
{"class":"TPV","mode":2,"time":"2006-11-26T01:25:00.000Z","leapseconds":14,"ept":0.005,"lat":53.537791843,"lon":-113.493167485,"altHAE":947.1810,"altMSL":966.0461,"alt":966.0461,"track":0.0000,"magtrack":13.9326,"magvar":13.9,"speed":0.000}
$GPZDA,012501.00,26,11,2006,00,00*61
$GPGGA,012501.00,5332.2675911,N,11329.5898731,W,1,04,,966.33,M,-18.865,M,,*4C
$GPRMC,012501.00,A,5332.2675911,N,11329.5898731,W,0.0000,0.000,261106,13.9,E*4D
$GPGSA,A,2,24,2,30,10,,,,,,,,,,,*2B
{"class":"TPV","mode":2,"time":"2006-11-26T01:25:01.000Z","leapseconds":14,"ept":0.005,"lat":53.537793184,"lon":-113.493164551,"altHAE":947.4650,"altMSL":966.3301,"alt":966.3301,"track":0.0000,"magtrack":13.9326,"magvar":13.9,"speed":0.000}
$GPGGA,012501.00,5332.2675911,N,11329.5898731,W,1,04,5.22,966.33,M,-18.865,M,,*57
$GPRMC,012501.00,A,5332.2675911,N,11329.5898731,W,0.0000,0.000,261106,13.9,E*4D
$GPGSA,A,2,24,2,30,10,,,,,,,,,5.2,5.2,0.0*05
{"class":"TPV","mode":2,"time":"2006-11-26T01:25:01.000Z","leapseconds":14,"ept":0.005,"lat":53.537793184,"lon":-113.493164551,"altHAE":947.4650,"altMSL":966.3301,"alt":966.3301,"track":0.0000,"magtrack":13.9326,"magvar":13.9,"speed":0.000,"eph":99.133,"sep":99.135}
{"class":"SKY","time":"2006-11-26T01:24:59.531Z","hdop":5.22,"pdop":5.22,"tdop":2.06,"vdop":0.04}
$GPZDA,012503.00,26,11,2006,00,00*63
$GPGGA,012503.00,5332.2677269,N,11329.5895512,W,1,04,,966.83,M,-18.865,M,,*4D
$GPRMC,012503.00,A,5332.2677269,N,11329.5895512,W,0.0000,0.000,261106,13.9,E*47
$GPGSA,A,2,24,2,30,10,,,,,,,,,,,*2B
{"class":"TPV","mode":2,"time":"2006-11-26T01:25:03.000Z","leapseconds":14,"ept":0.005,"lat":53.537795448,"lon":-113.493159187,"altHAE":947.9670,"altMSL":966.8321,"alt":966.8321,"track":0.0000,"magtrack":13.9326,"magvar":13.9,"speed":0.000}
$GPZDA,012504.00,26,11,2006,00,00*64
$GPGGA,012504.00,5332.2677822,N,11329.5894054,W,1,04,,967.06,M,-18.865,M,,*45
$GPRMC,012504.00,A,5332.2677822,N,11329.5894054,W,0.0000,0.000,261106,13.9,E*43
$GPGSA,A,2,24,2,30,10,,,,,,,,,,,*2B
{"class":"TPV","mode":2,"time":"2006-11-26T01:25:04.000Z","leapseconds":14,"ept":0.005,"lat":53.537796370,"lon":-113.493156756,"altHAE":948.1900,"altMSL":967.0551,"alt":967.0551,"track":0.0000,"magtrack":13.9326,"magvar":13.9,"speed":0.000}
$GPGGA,012504.00,5332.2677822,N,11329.5894054,W,1,04,5.21,967.06,M,-18.865,M,,*5D
$GPRMC,012504.00,A,5332.2677822,N,11329.5894054,W,0.0000,0.000,261106,13.9,E*43
$GPGSA,A,2,24,2,30,10,,,,,,,,,5.2,5.2,0.0*05
{"class":"TPV","mode":2,"time":"2006-11-26T01:25:04.000Z","leapseconds":14,"ept":0.005,"lat":53.537796370,"lon":-113.493156756,"altHAE":948.1900,"altMSL":967.0551,"alt":967.0551,"track":0.0000,"magtrack":13.9326,"magvar":13.9,"speed":0.000,"eph":99.005,"sep":99.007}
{"class":"SKY","time":"2006-11-26T01:24:59.531Z","hdop":5.21,"pdop":5.21,"tdop":2.05,"vdop":0.04}
$GPGSV,2,1,08,26,06,138,00,24,14,077,29,06,77,231,26,29,15,126,26*7E
$GPGSV,2,2,08,02,16,080,35,21,35,257,26,30,22,204,33,10,54,072,43*7C
{"class":"SKY","time":"2006-11-26T01:25:04.527Z","gdop":33.43,"hdop":5.21,"pdop":5.21,"tdop":2.05,"xdop":17.57,"ydop":20.89,"vdop":0.04,"nSat":8,"uSat":4,"satellites":[{"PRN":26,"gnssid":0,"svid":26,"az":137.9,"el":6.1,"ss":0.0,"used":false},{"PRN":24,"gnssid":0,"svid":24,"az":76.8,"el":13.7,"ss":29.0,"used":true,"health":1},{"PRN":6,"gnssid":0,"svid":6,"az":230.9,"el":77.3,"ss":26.0,"used":false,"health":1},{"PRN":29,"gnssid":0,"svid":29,"az":126.2,"el":14.7,"ss":26.0,"used":false,"health":1},{"PRN":2,"gnssid":0,"svid":2,"az":79.5,"el":16.0,"ss":35.0,"used":true,"health":1},{"PRN":21,"gnssid":0,"svid":21,"az":257.4,"el":35.1,"ss":26.0,"used":false,"health":1}]}
$GPGSV,3,1,09,26,06,138,00,24,14,077,29,06,77,231,26,29,15,126,26*7E
$GPGSV,3,2,09,02,16,080,35,21,35,257,26,30,22,204,33,10,54,072,43*7C
$GPGSV,3,3,09,07,40,297,29*44
{"class":"SKY","time":"2006-11-26T01:25:04.527Z","gdop":33.43,"hdop":5.21,"pdop":5.21,"tdop":2.05,"xdop":17.57,"ydop":20.89,"vdop":0.04,"nSat":9,"uSat":4,"satellites":[{"PRN":26,"gnssid":0,"svid":26,"az":137.9,"el":6.1,"ss":0.0,"used":false},{"PRN":24,"gnssid":0,"svid":24,"az":76.8,"el":13.7,"ss":29.0,"used":true,"health":1},{"PRN":6,"gnssid":0,"svid":6,"az":230.9,"el":77.3,"ss":26.0,"used":false,"health":1},{"PRN":29,"gnssid":0,"svid":29,"az":126.2,"el":14.7,"ss":26.0,"used":false,"health":1},{"PRN":2,"gnssid":0,"svid":2,"az":79.5,"el":16.0,"ss":35.0,"used":true,"health":1},{"PRN":21,"gnssid":0,"svid":21,"az":257.4,"el":35.1,"ss":26.0,"used":false,"health":1}]}
$GPZDA,012505.00,26,11,2006,00,00*65
$GPGGA,012505.00,5332.2678325,N,11329.5892696,W,1,04,,967.26,M,-18.865,M,,*4B
$GPRMC,012505.00,A,5332.2678325,N,11329.5892696,W,0.0000,0.000,261106,13.9,E*4F
$GPGSA,A,2,24,2,30,10,,,,,,,,,,,*2B
{"class":"TPV","mode":2,"time":"2006-11-26T01:25:05.000Z","leapseconds":14,"ept":0.005,"lat":53.537797208,"lon":-113.493154493,"altHAE":948.3970,"altMSL":967.2621,"alt":967.2621,"track":0.0000,"magtrack":13.9326,"magvar":13.9,"speed":0.000}
$GPGGA,012505.52,,S,,W,1,04,,,M,,M,,*4D
$GPRMC,012505.52,A,,S,,W,,,261106,,*0A
$GPGSA,A,2,24,2,30,10,,,,,,,,,,,*2B
{"class":"TPV","mode":2,"time":"2006-11-26T01:25:05.520Z","leapseconds":14,"ept":0.005}
$GPZDA,012506.00,26,11,2006,00,00*66
$GPGGA,012506.00,5332.2678727,N,11329.5891438,W,1,04,,967.46,M,-18.865,M,,*4D
$GPRMC,012506.00,A,5332.2678727,N,11329.5891438,W,0.0000,0.000,261106,13.9,E*4F
$GPGSA,A,2,24,2,30,10,,,,,,,,,,,*2B
{"class":"TPV","mode":2,"time":"2006-11-26T01:25:06.000Z","leapseconds":14,"ept":0.005,"lat":53.537797878,"lon":-113.493152397,"altHAE":948.5900,"altMSL":967.4551,"alt":967.4551,"track":0.0000,"magtrack":13.9326,"magvar":13.9,"speed":0.000}
$GPGGA,012506.00,5332.2678727,N,11329.5891438,W,1,04,5.20,967.46,M,-18.865,M,,*54
$GPRMC,012506.00,A,5332.2678727,N,11329.5891438,W,0.0000,0.000,261106,13.9,E*4F
$GPGSA,A,2,24,2,30,10,,,,,,,,,5.2,5.2,0.0*05
{"class":"TPV","mode":2,"time":"2006-11-26T01:25:06.000Z","leapseconds":14,"ept":0.005,"lat":53.537797878,"lon":-113.493152397,"altHAE":948.5900,"altMSL":967.4551,"alt":967.4551,"track":0.0000,"magtrack":13.9326,"magvar":13.9,"speed":0.000,"eph":98.867,"sep":98.869}
{"class":"SKY","time":"2006-11-26T01:25:04.527Z","hdop":5.20,"pdop":5.20,"tdop":2.05,"vdop":0.04}
$GPZDA,012507.00,26,11,2006,00,00*67
$GPGGA,012507.00,5332.2679129,N,11329.5890231,W,1,04,,967.64,M,-18.865,M,,*4B
$GPRMC,012507.00,A,5332.2679129,N,11329.5890231,W,0.0000,0.000,261106,13.9,E*49
$GPGSA,A,2,24,2,30,10,,,,,,,,,,,*2B
{"class":"TPV","mode":2,"time":"2006-11-26T01:25:07.000Z","leapseconds":14,"ept":0.005,"lat":53.537798549,"lon":-113.493150386,"altHAE":948.7700,"altMSL":967.6351,"alt":967.6351,"track":0.0000,"magtrack":13.9326,"magvar":13.9,"speed":0.000}
$GPGGA,012507.00,5332.2679129,N,11329.5890231,W,1,04,5.20,967.64,M,-18.865,M,,*52
$GPRMC,012507.00,A,5332.2679129,N,11329.5890231,W,0.0000,0.000,261106,13.9,E*49
$GPGSA,A,2,24,2,30,10,,,,,,,,,5.2,5.2,0.0*05
{"class":"TPV","mode":2,"time":"2006-11-26T01:25:07.000Z","leapseconds":14,"ept":0.005,"lat":53.537798549,"lon":-113.493150386,"altHAE":948.7700,"altMSL":967.6351,"alt":967.6351,"track":0.0000,"magtrack":13.9326,"magvar":13.9,"speed":0.000,"eph":98.758,"sep":98.760}
{"class":"SKY","time":"2006-11-26T01:25:04.527Z","hdop":5.20,"pdop":5.20,"tdop":2.05,"vdop":0.04}
$GPZDA,012508.00,26,11,2006,00,00*68
$GPGGA,012508.00,5332.2679532,N,11329.5889075,W,1,04,,967.80,M,-18.865,M,,*4A
$GPRMC,012508.00,A,5332.2679532,N,11329.5889075,W,0.0000,0.000,261106,13.9,E*42
$GPGSA,A,2,24,2,30,10,,,,,,,,,,,*2B
{"class":"TPV","mode":2,"time":"2006-11-26T01:25:08.000Z","leapseconds":14,"ept":0.005,"lat":53.537799219,"lon":-113.493148458,"altHAE":948.9380,"altMSL":967.8031,"alt":967.8031,"track":0.0000,"magtrack":13.9326,"magvar":13.9,"speed":0.000}
$GPZDA,012509.00,26,11,2006,00,00*69
$GPGGA,012509.00,5332.2679884,N,11329.5887918,W,1,04,,967.96,M,-18.865,M,,*40
$GPRMC,012509.00,A,5332.2679884,N,11329.5887918,W,0.0000,0.000,261106,13.9,E*4F
$GPGSA,A,2,24,2,30,10,,,,,,,,,,,*2B
{"class":"TPV","mode":2,"time":"2006-11-26T01:25:09.000Z","leapseconds":14,"ept":0.005,"lat":53.537799806,"lon":-113.493146530,"altHAE":949.0960,"altMSL":967.9611,"alt":967.9611,"track":0.0000,"magtrack":13.9326,"magvar":13.9,"speed":0.000}
$GPGGA,012509.00,5332.2679884,N,11329.5887918,W,1,04,5.20,967.96,M,-18.865,M,,*59
$GPRMC,012509.00,A,5332.2679884,N,11329.5887918,W,0.0000,0.000,261106,13.9,E*4F
$GPGSA,A,2,24,2,30,10,,,,,,,,,5.2,5.2,0.0*05
{"class":"TPV","mode":2,"time":"2006-11-26T01:25:09.000Z","leapseconds":14,"ept":0.005,"lat":53.537799806,"lon":-113.493146530,"altHAE":949.0960,"altMSL":967.9611,"alt":967.9611,"track":0.0000,"magtrack":13.9326,"magvar":13.9,"speed":0.000,"eph":98.791,"sep":98.793}
{"class":"SKY","time":"2006-11-26T01:25:04.527Z","hdop":5.20,"pdop":5.20,"tdop":2.05,"vdop":0.04}
$GPGSV,2,1,08,26,06,138,00,24,14,077,28,06,77,231,26,29,15,126,26*7F
$GPGSV,2,2,08,02,16,080,35,21,35,257,26,30,22,204,30,10,54,072,44*78
{"class":"SKY","time":"2006-11-26T01:25:09.579Z","gdop":33.41,"hdop":5.20,"pdop":5.20,"tdop":2.05,"xdop":17.56,"ydop":20.88,"vdop":0.04,"nSat":8,"uSat":4,"satellites":[{"PRN":26,"gnssid":0,"svid":26,"az":137.9,"el":6.1,"ss":0.0,"used":false},{"PRN":24,"gnssid":0,"svid":24,"az":76.8,"el":13.6,"ss":28.0,"used":true,"health":1},{"PRN":6,"gnssid":0,"svid":6,"az":230.6,"el":77.3,"ss":26.0,"used":false,"health":1},{"PRN":29,"gnssid":0,"svid":29,"az":126.2,"el":14.7,"ss":26.0,"used":false,"health":1},{"PRN":2,"gnssid":0,"svid":2,"az":79.5,"el":16.0,"ss":35.0,"used":true,"health":1},{"PRN":21,"gnssid":0,"svid":21,"az":257.4,"el":35.1,"ss":26.0,"used":false,"health":1}]}
$GPGSV,3,1,09,26,06,138,00,24,14,077,28,06,77,231,26,29,15,126,26*7F
$GPGSV,3,2,09,02,16,080,35,21,35,257,26,30,22,204,30,10,54,072,44*78
$GPGSV,3,3,09,07,40,297,29*44
{"class":"SKY","time":"2006-11-26T01:25:09.579Z","gdop":33.41,"hdop":5.20,"pdop":5.20,"tdop":2.05,"xdop":17.56,"ydop":20.88,"vdop":0.04,"nSat":9,"uSat":4,"satellites":[{"PRN":26,"gnssid":0,"svid":26,"az":137.9,"el":6.1,"ss":0.0,"used":false},{"PRN":24,"gnssid":0,"svid":24,"az":76.8,"el":13.6,"ss":28.0,"used":true,"health":1},{"PRN":6,"gnssid":0,"svid":6,"az":230.6,"el":77.3,"ss":26.0,"used":false,"health":1},{"PRN":29,"gnssid":0,"svid":29,"az":126.2,"el":14.7,"ss":26.0,"used":false,"health":1},{"PRN":2,"gnssid":0,"svid":2,"az":79.5,"el":16.0,"ss":35.0,"used":true,"health":1},{"PRN":21,"gnssid":0,"svid":21,"az":257.4,"el":35.1,"ss":26.0,"used":false,"health":1}]}
$GPZDA,012510.00,26,11,2006,00,00*61
$GPGGA,012510.00,5332.2680236,N,11329.5886862,W,1,04,,968.11,M,-18.865,M,,*40
$GPRMC,012510.00,A,5332.2680236,N,11329.5886862,W,0.0000,0.000,261106,13.9,E*4F
$GPGSA,A,2,24,2,30,10,,,,,,,,,,,*2B
{"class":"TPV","mode":2,"time":"2006-11-26T01:25:10.000Z","leapseconds":14,"ept":0.005,"lat":53.537800393,"lon":-113.493144770,"altHAE":949.2440,"altMSL":968.1091,"alt":968.1091,"track":0.0000,"magtrack":13.9326,"magvar":13.9,"speed":0.000}
$GPGGA,012510.00,5332.2680236,N,11329.5886862,W,1,04,5.19,968.11,M,-18.865,M,,*53
$GPRMC,012510.00,A,5332.2680236,N,11329.5886862,W,0.0000,0.000,261106,13.9,E*4F
$GPGSA,A,2,24,2,30,10,,,,,,,,,5.2,5.2,0.0*05
{"class":"TPV","mode":2,"time":"2006-11-26T01:25:10.000Z","leapseconds":14,"ept":0.005,"lat":53.537800393,"lon":-113.493144770,"altHAE":949.2440,"altMSL":968.1091,"alt":968.1091,"track":0.0000,"magtrack":13.9326,"magvar":13.9,"speed":0.000,"eph":98.631,"sep":98.633}
{"class":"SKY","time":"2006-11-26T01:25:09.579Z","hdop":5.19,"pdop":5.19,"tdop":2.05,"vdop":0.04}
$GPZDA,012511.00,26,11,2006,00,00*60
$GPGGA,012511.00,5332.2680537,N,11329.5885806,W,1,04,,968.25,M,-18.865,M,,*41
$GPRMC,012511.00,A,5332.2680537,N,11329.5885806,W,0.0000,0.000,261106,13.9,E*49
$GPGSA,A,2,24,2,30,10,,,,,,,,,,,*2B
{"class":"TPV","mode":2,"time":"2006-11-26T01:25:11.000Z","leapseconds":14,"ept":0.005,"lat":53.537800896,"lon":-113.493143010,"altHAE":949.3840,"altMSL":968.2491,"alt":968.2491,"track":0.0000,"magtrack":13.9326,"magvar":13.9,"speed":0.000}
$GPGGA,012511.00,5332.2680537,N,11329.5885806,W,1,04,5.19,968.25,M,-18.865,M,,*52
$GPRMC,012511.00,A,5332.2680537,N,11329.5885806,W,0.0000,0.000,261106,13.9,E*49
$GPGSA,A,2,24,2,30,10,,,,,,,,,5.2,5.2,0.0*05
{"class":"TPV","mode":2,"time":"2006-11-26T01:25:11.000Z","leapseconds":14,"ept":0.005,"lat":53.537800896,"lon":-113.493143010,"altHAE":949.3840,"altMSL":968.2491,"alt":968.2491,"track":0.0000,"magtrack":13.9326,"magvar":13.9,"speed":0.000,"eph":98.631,"sep":98.633}
{"class":"SKY","time":"2006-11-26T01:25:09.579Z","hdop":5.19,"pdop":5.19,"tdop":2.05,"vdop":0.04}
$GPZDA,012512.00,26,11,2006,00,00*63
$GPGGA,012512.00,5332.2680789,N,11329.5884800,W,1,04,,968.38,M,-18.865,M,,*4E
$GPRMC,012512.00,A,5332.2680789,N,11329.5884800,W,0.0000,0.000,261106,13.9,E*4A
$GPGSA,A,2,24,2,30,10,,,,,,,,,,,*2B
{"class":"TPV","mode":2,"time":"2006-11-26T01:25:12.000Z","leapseconds":14,"ept":0.005,"lat":53.537801315,"lon":-113.493141333,"altHAE":949.5150,"altMSL":968.3801,"alt":968.3801,"track":0.0000,"magtrack":13.9326,"magvar":13.9,"speed":0.000}
$GPGGA,012512.00,5332.2680789,N,11329.5884800,W,1,04,5.18,968.38,M,-18.865,M,,*5C
$GPRMC,012512.00,A,5332.2680789,N,11329.5884800,W,0.0000,0.000,261106,13.9,E*4A
$GPGSA,A,2,24,2,30,10,,,,,,,,,5.2,5.2,0.0*05
{"class":"TPV","mode":2,"time":"2006-11-26T01:25:12.000Z","leapseconds":14,"ept":0.005,"lat":53.537801315,"lon":-113.493141333,"altHAE":949.5150,"altMSL":968.3801,"alt":968.3801,"track":0.0000,"magtrack":13.9326,"magvar":13.9,"speed":0.000,"eph":98.490,"sep":98.493}
{"class":"SKY","time":"2006-11-26T01:25:09.579Z","hdop":5.18,"pdop":5.18,"tdop":2.04,"vdop":0.04}
$GPZDA,012513.00,26,11,2006,00,00*62
$GPGGA,012513.00,5332.2680990,N,11329.5883794,W,1,04,,968.51,M,-18.865,M,,*43
$GPRMC,012513.00,A,5332.2680990,N,11329.5883794,W,0.0000,0.000,261106,13.9,E*48
$GPGSA,A,2,24,2,30,10,,,,,,,,,,,*2B
{"class":"TPV","mode":2,"time":"2006-11-26T01:25:13.000Z","leapseconds":14,"ept":0.005,"lat":53.537801650,"lon":-113.493139657,"altHAE":949.6400,"altMSL":968.5051,"alt":968.5051,"track":0.0000,"magtrack":13.9326,"magvar":13.9,"speed":0.000}
$GPZDA,012514.00,26,11,2006,00,00*65
$GPGGA,012514.00,5332.2681242,N,11329.5882839,W,1,04,,968.62,M,-18.865,M,,*48
$GPRMC,012514.00,A,5332.2681242,N,11329.5882839,W,0.0000,0.000,261106,13.9,E*43
$GPGSA,A,2,24,2,30,10,,,,,,,,,,,*2B
{"class":"TPV","mode":2,"time":"2006-11-26T01:25:14.000Z","leapseconds":14,"ept":0.005,"lat":53.537802069,"lon":-113.493138064,"altHAE":949.7570,"altMSL":968.6221,"alt":968.6221,"track":0.0000,"magtrack":13.9326,"magvar":13.9,"speed":0.000}
$GPGSV,2,1,08,26,06,138,00,24,14,077,30,06,77,231,26,29,15,126,26*76
$GPGSV,2,2,08,02,16,080,35,21,35,257,26,30,22,204,30,10,54,072,45*79
{"class":"SKY","time":"2006-11-26T01:25:14.518Z","gdop":33.40,"hdop":27.25,"pdop":29.64,"tdop":15.39,"xdop":17.54,"ydop":20.86,"vdop":11.66,"nSat":8,"uSat":4,"satellites":[{"PRN":26,"gnssid":0,"svid":26,"az":137.8,"el":6.1,"ss":0.0,"used":false},{"PRN":24,"gnssid":0,"svid":24,"az":76.8,"el":13.6,"ss":30.0,"used":true,"health":1},{"PRN":6,"gnssid":0,"svid":6,"az":230.6,"el":77.3,"ss":26.0,"used":false,"health":1},{"PRN":29,"gnssid":0,"svid":29,"az":126.2,"el":14.8,"ss":26.0,"used":false,"health":1},{"PRN":2,"gnssid":0,"svid":2,"az":79.5,"el":15.9,"ss":35.0,"used":true,"health":1},{"PRN":21,"gnssid":0,"svid":21,"az":257.5,"el":35.2,"ss":26.0,"used":false,"health":1}]}
$GPGSV,3,1,09,26,06,138,00,24,14,077,30,06,77,231,26,29,15,126,26*76
$GPGSV,3,2,09,02,16,080,35,21,35,257,26,30,22,204,30,10,54,072,45*79
$GPGSV,3,3,09,07,40,297,29*44
{"class":"SKY","time":"2006-11-26T01:25:14.518Z","gdop":33.40,"hdop":27.25,"pdop":29.64,"tdop":15.39,"xdop":17.54,"ydop":20.86,"vdop":11.66,"nSat":9,"uSat":4,"satellites":[{"PRN":26,"gnssid":0,"svid":26,"az":137.8,"el":6.1,"ss":0.0,"used":false},{"PRN":24,"gnssid":0,"svid":24,"az":76.8,"el":13.6,"ss":30.0,"used":true,"health":1},{"PRN":6,"gnssid":0,"svid":6,"az":230.6,"el":77.3,"ss":26.0,"used":false,"health":1},{"PRN":29,"gnssid":0,"svid":29,"az":126.2,"el":14.8,"ss":26.0,"used":false,"health":1},{"PRN":2,"gnssid":0,"svid":2,"az":79.5,"el":15.9,"ss":35.0,"used":true,"health":1},{"PRN":21,"gnssid":0,"svid":21,"az":257.5,"el":35.2,"ss":26.0,"used":false,"health":1}]}
$GPZDA,012515.00,26,11,2006,00,00*64
$GPGGA,012515.00,5332.2681443,N,11329.5881933,W,1,04,,968.73,M,-18.865,M,,*46
$GPRMC,012515.00,A,5332.2681443,N,11329.5881933,W,0.0000,0.000,261106,13.9,E*4D
$GPGSA,A,2,24,2,30,10,,,,,,,,,,,*2B
{"class":"TPV","mode":2,"time":"2006-11-26T01:25:15.000Z","leapseconds":14,"ept":0.005,"lat":53.537802405,"lon":-113.493136556,"altHAE":949.8680,"altMSL":968.7332,"alt":968.7332,"track":0.0000,"magtrack":13.9326,"magvar":13.9,"speed":0.000}
$GPZDA,012517.00,26,11,2006,00,00*66
$GPGGA,012517.00,5332.2681946,N,11329.5880173,W,1,04,,968.94,M,-18.865,M,,*48
$GPRMC,012517.00,A,5332.2681946,N,11329.5880173,W,0.0000,0.000,261106,13.9,E*4A
$GPGSA,A,2,24,2,30,10,,,,,,,,,,,*2B
{"class":"TPV","mode":2,"time":"2006-11-26T01:25:17.000Z","leapseconds":14,"ept":0.005,"lat":53.537803243,"lon":-113.493133622,"altHAE":950.0740,"altMSL":968.9392,"alt":968.9392,"track":0.0000,"magtrack":13.9326,"magvar":13.9,"speed":0.000}
