$GPGGA,222248.00,4404.1309749,N,12118.8446049,W,7,00,,1129.53,M,-22.154,M,,*77
$GPRMC,222248.00,A,4404.1309749,N,12118.8446049,W,,,180224,14.4,E*77
$GPGSA,A,3,,,,,,,,,,,,,,,*1C
{"class":"TPV","status":7,"mode":3,"time":"2024-02-18T22:22:48.000Z","leapseconds":18,"ept":0.005,"lat":44.068849581,"lon":-121.314076749,"altHAE":1107.3751,"altMSL":1129.5295,"alt":1129.5295,"magvar":14.4,"geoidSep":-22.154,"clockbias":-170,"temp":34.363}
$GPGGA,222248.00,4404.1309749,N,12118.8446049,W,7,08,0.00,1129.53,M,-22.154,M,,*61
$GPRMC,222248.00,A,4404.1309749,N,12118.8446049,W,,,180224,14.4,E*77
$GPGSA,A,3,,,,,,,,,,,,,0.0,0.0,0.0*32
{"class":"TPV","status":7,"mode":3,"time":"2024-02-18T22:22:48.000Z","leapseconds":18,"ept":0.005,"lat":44.068849581,"lon":-121.314076749,"altHAE":1107.3751,"altMSL":1129.5295,"alt":1129.5295,"epv":0.000,"magvar":14.4,"geoidSep":-22.154,"eph":0.000,"sep":0.000,"clockbias":-170,"temp":34.363}
{"class":"SKY","hdop":0.00,"pdop":0.00,"tdop":1.00,"vdop":0.00}
$GPGGA,222249.00,4404.1309749,N,12118.8446049,W,7,08,,1129.53,M,-22.154,M,,*7E
$GPRMC,222249.00,A,4404.1309749,N,12118.8446049,W,0.0000,,180224,14.4,E*68
$GPGSA,A,3,,,,,,,,,,,,,,,*1C
{"class":"TPV","status":7,"mode":3,"time":"2024-02-18T22:22:49.000Z","leapseconds":18,"ept":0.005,"lat":44.068849581,"lon":-121.314076749,"altHAE":1107.3751,"altMSL":1129.5295,"alt":1129.5295,"magvar":14.4,"speed":0.000,"climb":0.000,"geoidSep":-22.154,"clockbias":-170,"temp":34.355}
$GPGGA,222249.00,4404.1309749,N,12118.8446049,W,7,08,0.00,1129.53,M,-22.154,M,,*60
$GPRMC,222249.00,A,4404.1309749,N,12118.8446049,W,0.0000,,180224,14.4,E*68
$GPGSA,A,3,,,,,,,,,,,,,0.0,0.0,0.0*32
{"class":"TPV","status":7,"mode":3,"time":"2024-02-18T22:22:49.000Z","leapseconds":18,"ept":0.005,"lat":44.068849581,"lon":-121.314076749,"altHAE":1107.3751,"altMSL":1129.5295,"alt":1129.5295,"epv":0.000,"magvar":14.4,"speed":0.000,"climb":0.000,"epc":0.00,"geoidSep":-22.154,"eph":0.000,"sep":0.000,"clockbias":-170,"temp":34.355}
{"class":"SKY","hdop":0.00,"pdop":0.00,"tdop":1.00,"vdop":0.00}
$GPGSV,1,1,01,06,59,124,34*42
{"class":"SKY","time":"2024-02-18T22:22:49.000Z","hdop":0.00,"pdop":0.00,"tdop":1.00,"vdop":0.00,"nSat":1,"uSat":0,"satellites":[{"PRN":6,"gnssid":0,"svid":6,"az":124.0,"el":59.0,"ss":34.0,"used":false,"health":2}]}
$GPGSV,1,1,02,06,59,124,34,19,56,051,32*7F
{"class":"SKY","time":"2024-02-18T22:22:49.000Z","hdop":0.00,"pdop":0.00,"tdop":1.00,"vdop":0.00,"nSat":2,"uSat":0,"satellites":[{"PRN":6,"gnssid":0,"svid":6,"az":124.0,"el":59.0,"ss":34.0,"used":false,"health":2},{"PRN":19,"gnssid":0,"svid":19,"az":51.0,"el":56.0,"ss":32.0,"used":false,"health":2}]}
$GPGSV,1,1,03,06,59,124,34,19,56,051,32,24,55,244,34*4D
{"class":"SKY","time":"2024-02-18T22:22:49.000Z","hdop":0.00,"pdop":0.00,"tdop":1.00,"vdop":0.00,"nSat":3,"uSat":0,"satellites":[{"PRN":6,"gnssid":0,"svid":6,"az":124.0,"el":59.0,"ss":34.0,"used":false,"health":2},{"PRN":19,"gnssid":0,"svid":19,"az":51.0,"el":56.0,"ss":32.0,"used":false,"health":2},{"PRN":24,"gnssid":0,"svid":24,"az":244.0,"el":55.0,"ss":34.0,"used":false,"health":2}]}
$GPGSV,1,1,04,06,59,124,34,19,56,051,32,24,55,244,34,12,38,300,28*7B
{"class":"SKY","time":"2024-02-18T22:22:49.000Z","hdop":0.00,"pdop":0.00,"tdop":1.00,"vdop":0.00,"nSat":4,"uSat":0,"satellites":[{"PRN":6,"gnssid":0,"svid":6,"az":124.0,"el":59.0,"ss":34.0,"used":false,"health":2},{"PRN":19,"gnssid":0,"svid":19,"az":51.0,"el":56.0,"ss":32.0,"used":false,"health":2},{"PRN":24,"gnssid":0,"svid":24,"az":244.0,"el":55.0,"ss":34.0,"used":false,"health":2},{"PRN":12,"gnssid":0,"svid":12,"az":300.0,"el":38.0,"ss":28.0,"used":false,"health":2}]}
$GPGSV,2,1,05,06,59,124,34,19,56,051,32,24,55,244,34,12,38,300,28*79
$GPGSV,2,2,05,11,37,172,38*47
{"class":"SKY","time":"2024-02-18T22:22:49.000Z","hdop":0.00,"pdop":0.00,"tdop":1.00,"vdop":0.00,"nSat":5,"uSat":0,"satellites":[{"PRN":6,"gnssid":0,"svid":6,"az":124.0,"el":59.0,"ss":34.0,"used":false,"health":2},{"PRN":19,"gnssid":0,"svid":19,"az":51.0,"el":56.0,"ss":32.0,"used":false,"health":2},{"PRN":24,"gnssid":0,"svid":24,"az":244.0,"el":55.0,"ss":34.0,"used":false,"health":2},{"PRN":12,"gnssid":0,"svid":12,"az":300.0,"el":38.0,"ss":28.0,"used":false,"health":2},{"PRN":11,"gnssid":0,"svid":11,"az":172.0,"el":37.0,"ss":38.0,"used":false,"health":2}]}
$GPGSV,2,1,06,06,59,124,34,19,56,051,32,24,55,244,34,12,38,300,28*7A
$GPGSV,2,2,06,11,37,172,38,22,30,102,43*73
{"class":"SKY","time":"2024-02-18T22:22:49.000Z","hdop":0.00,"pdop":0.00,"tdop":1.00,"vdop":0.00,"nSat":6,"uSat":0,"satellites":[{"PRN":6,"gnssid":0,"svid":6,"az":124.0,"el":59.0,"ss":34.0,"used":false,"health":2},{"PRN":19,"gnssid":0,"svid":19,"az":51.0,"el":56.0,"ss":32.0,"used":false,"health":2},{"PRN":24,"gnssid":0,"svid":24,"az":244.0,"el":55.0,"ss":34.0,"used":false,"health":2},{"PRN":12,"gnssid":0,"svid":12,"az":300.0,"el":38.0,"ss":28.0,"used":false,"health":2},{"PRN":11,"gnssid":0,"svid":11,"az":172.0,"el":37.0,"ss":38.0,"used":false,"health":2},{"PRN":22,"gnssid":0,"svid":22,"az":102.0,"el":30.0,"ss":43.0,"used":false,"health":2}]}
$GPGSV,2,1,07,06,59,124,34,19,56,051,32,24,55,244,34,12,38,300,28*7B
$GPGSV,2,2,07,11,37,172,38,22,30,102,43,17,28,057,40*48
{"class":"SKY","time":"2024-02-18T22:22:49.000Z","hdop":0.00,"pdop":0.00,"tdop":1.00,"vdop":0.00,"nSat":7,"uSat":0,"satellites":[{"PRN":6,"gnssid":0,"svid":6,"az":124.0,"el":59.0,"ss":34.0,"used":false,"health":2},{"PRN":19,"gnssid":0,"svid":19,"az":51.0,"el":56.0,"ss":32.0,"used":false,"health":2},{"PRN":24,"gnssid":0,"svid":24,"az":244.0,"el":55.0,"ss":34.0,"used":false,"health":2},{"PRN":12,"gnssid":0,"svid":12,"az":300.0,"el":38.0,"ss":28.0,"used":false,"health":2},{"PRN":11,"gnssid":0,"svid":11,"az":172.0,"el":37.0,"ss":38.0,"used":false,"health":2},{"PRN":22,"gnssid":0,"svid":22,"az":102.0,"el":30.0,"ss":43.0,"used":false,"health":2},{"PRN":17,"gnssid":0,"svid":17,"az":57.0,"el":28.0,"ss":40.0,"used":false,"health":2}]}
$GPGSV,2,1,08,06,59,124,34,19,56,051,32,24,55,244,34,12,38,300,28*74
$GPGSV,2,2,08,11,37,172,38,22,30,102,43,17,28,057,40,14,08,110,21*79
{"class":"SKY","time":"2024-02-18T22:22:49.000Z","hdop":0.00,"pdop":0.00,"tdop":1.00,"vdop":0.00,"nSat":8,"uSat":0,"satellites":[{"PRN":6,"gnssid":0,"svid":6,"az":124.0,"el":59.0,"ss":34.0,"used":false,"health":2},{"PRN":19,"gnssid":0,"svid":19,"az":51.0,"el":56.0,"ss":32.0,"used":false,"health":2},{"PRN":24,"gnssid":0,"svid":24,"az":244.0,"el":55.0,"ss":34.0,"used":false,"health":2},{"PRN":12,"gnssid":0,"svid":12,"az":300.0,"el":38.0,"ss":28.0,"used":false,"health":2},{"PRN":11,"gnssid":0,"svid":11,"az":172.0,"el":37.0,"ss":38.0,"used":false,"health":2},{"PRN":22,"gnssid":0,"svid":22,"az":102.0,"el":30.0,"ss":43.0,"used":false,"health":2},{"PRN":17,"gnssid":0,"svid":17,"az":57.0,"el":28.0,"ss":40.0,"used":false,"health":2},{"PRN":14,"gnssid":0,"svid":14,"az":110.0,"el":8.0,"ss":21.0,"used":false,"health":2}]}
$GPGSV,3,1,09,06,59,124,34,19,56,051,32,24,55,244,34,12,38,300,28*74
$GPGSV,3,2,09,11,37,172,38,22,30,102,43,17,28,057,40,14,08,110,21*79
$GPGSV,3,3,09,03,07,039,22*4E
{"class":"SKY","time":"2024-02-18T22:22:49.000Z","hdop":0.00,"pdop":0.00,"tdop":1.00,"vdop":0.00,"nSat":9,"uSat":0,"satellites":[{"PRN":6,"gnssid":0,"svid":6,"az":124.0,"el":59.0,"ss":34.0,"used":false,"health":2},{"PRN":19,"gnssid":0,"svid":19,"az":51.0,"el":56.0,"ss":32.0,"used":false,"health":2},{"PRN":24,"gnssid":0,"svid":24,"az":244.0,"el":55.0,"ss":34.0,"used":false,"health":2},{"PRN":12,"gnssid":0,"svid":12,"az":300.0,"el":38.0,"ss":28.0,"used":false,"health":2},{"PRN":11,"gnssid":0,"svid":11,"az":172.0,"el":37.0,"ss":38.0,"used":false,"health":2},{"PRN":22,"gnssid":0,"svid":22,"az":102.0,"el":30.0,"ss":43.0,"used":false,"health":2},{"PRN":17,"gnssid":0,"svid":17,"az":57.0,"el":28.0,"ss":40.0,"used":false,"health":2},{"PRN":14,"gnssid":0,"svid":14,"az":110.0,"el":8.0,"ss":21.0,"used":false,"health":2},{"PRN":3,"gnssid":0,"svid":3,"az":39.0,"el":7.0,"ss":22.0,"used":false}]}
$GPGSV,3,1,10,06,59,124,34,19,56,051,32,24,55,244,34,12,38,300,28*7C
$GPGSV,3,2,10,11,37,172,38,22,30,102,43,17,28,057,40,14,08,110,21*71
$GPGSV,3,3,10,03,07,039,22,25,07,296,00*7B
{"class":"SKY","time":"2024-02-18T22:22:49.000Z","hdop":0.00,"pdop":0.00,"tdop":1.00,"vdop":0.00,"nSat":10,"uSat":0,"satellites":[{"PRN":6,"gnssid":0,"svid":6,"az":124.0,"el":59.0,"ss":34.0,"used":false,"health":2},{"PRN":19,"gnssid":0,"svid":19,"az":51.0,"el":56.0,"ss":32.0,"used":false,"health":2},{"PRN":24,"gnssid":0,"svid":24,"az":244.0,"el":55.0,"ss":34.0,"used":false,"health":2},{"PRN":12,"gnssid":0,"svid":12,"az":300.0,"el":38.0,"ss":28.0,"used":false,"health":2},{"PRN":11,"gnssid":0,"svid":11,"az":172.0,"el":37.0,"ss":38.0,"used":false,"health":2},{"PRN":22,"gnssid":0,"svid":22,"az":102.0,"el":30.0,"ss":43.0,"used":false,"health":2},{"PRN":17,"gnssid":0,"svid":17,"az":57.0,"el":28.0,"ss":40.0,"used":false,"health":2},{"PRN":14,"gnssid":0,"svid":14,"az":110.0,"el":8.0,"ss":21.0,"used":false,"health":2},{"PRN":3,"gnssid":0,"svid":3,"az":39.0,"el":7.0,"ss":22.0,"used":false},{"PRN":25,"gnssid":0,"svid":25,"az":296.0,"el":7.0,"ss":0.0,"used":false}]}
$GPGSV,3,1,11,06,59,124,34,19,56,051,32,24,55,244,34,12,38,300,28*7D
$GPGSV,3,2,11,11,37,172,38,22,30,102,43,17,28,057,40,14,08,110,21*70
$GPGSV,3,3,11,03,07,039,22,25,07,296,00,32,05,326,00*49
{"class":"SKY","time":"2024-02-18T22:22:49.000Z","hdop":0.00,"pdop":0.00,"tdop":1.00,"vdop":0.00,"nSat":11,"uSat":0,"satellites":[{"PRN":6,"gnssid":0,"svid":6,"az":124.0,"el":59.0,"ss":34.0,"used":false,"health":2},{"PRN":19,"gnssid":0,"svid":19,"az":51.0,"el":56.0,"ss":32.0,"used":false,"health":2},{"PRN":24,"gnssid":0,"svid":24,"az":244.0,"el":55.0,"ss":34.0,"used":false,"health":2},{"PRN":12,"gnssid":0,"svid":12,"az":300.0,"el":38.0,"ss":28.0,"used":false,"health":2},{"PRN":11,"gnssid":0,"svid":11,"az":172.0,"el":37.0,"ss":38.0,"used":false,"health":2},{"PRN":22,"gnssid":0,"svid":22,"az":102.0,"el":30.0,"ss":43.0,"used":false,"health":2},{"PRN":17,"gnssid":0,"svid":17,"az":57.0,"el":28.0,"ss":40.0,"used":false,"health":2},{"PRN":14,"gnssid":0,"svid":14,"az":110.0,"el":8.0,"ss":21.0,"used":false,"health":2},{"PRN":3,"gnssid":0,"svid":3,"az":39.0,"el":7.0,"ss":22.0,"used":false},{"PRN":25,"gnssid":0,"svid":25,"az":296.0,"el":7.0,"ss":0.0,"used":false},{"PRN":32,"gnssid":0,"svid":32,"az":326.0,"el":5.0,"ss":0.0,"used":false}]}
$GPGGA,222250.00,4404.1309749,N,12118.8446049,W,7,08,,1129.53,M,-22.154,M,,*76
$GPRMC,222250.00,A,4404.1309749,N,12118.8446049,W,0.0000,,180224,14.4,E*60
$GPGSA,A,3,,,,,,,,,,,,,,,*1C
{"class":"TPV","status":7,"mode":3,"time":"2024-02-18T22:22:50.000Z","leapseconds":18,"ept":0.005,"lat":44.068849581,"lon":-121.314076749,"altHAE":1107.3751,"altMSL":1129.5295,"alt":1129.5295,"magvar":14.4,"speed":0.000,"climb":0.000,"geoidSep":-22.154,"clockbias":-171,"temp":34.346}
$GPGGA,222250.00,4404.1309749,N,12118.8446049,W,7,08,0.00,1129.53,M,-22.154,M,,*68
$GPRMC,222250.00,A,4404.1309749,N,12118.8446049,W,0.0000,,180224,14.4,E*60
$GPGSA,A,3,,,,,,,,,,,,,0.0,0.0,0.0*32
{"class":"TPV","status":7,"mode":3,"time":"2024-02-18T22:22:50.000Z","leapseconds":18,"ept":0.005,"lat":44.068849581,"lon":-121.314076749,"altHAE":1107.3751,"altMSL":1129.5295,"alt":1129.5295,"epv":0.000,"magvar":14.4,"speed":0.000,"climb":0.000,"epc":0.00,"geoidSep":-22.154,"eph":0.000,"sep":0.000,"clockbias":-171,"temp":34.346}
{"class":"SKY","time":"2024-02-18T22:22:49.000Z","hdop":0.00,"pdop":0.00,"tdop":1.00,"vdop":0.00}
$GPGGA,222251.00,4404.1309749,N,12118.8446049,W,7,08,,1129.53,M,-22.154,M,,*77
$GPRMC,222251.00,A,4404.1309749,N,12118.8446049,W,0.0000,,180224,14.4,E*61
$GPGSA,A,3,,,,,,,,,,,,,,,*1C
{"class":"TPV","status":7,"mode":3,"time":"2024-02-18T22:22:51.000Z","leapseconds":18,"ept":0.005,"lat":44.068849581,"lon":-121.314076749,"altHAE":1107.3751,"altMSL":1129.5295,"alt":1129.5295,"magvar":14.4,"speed":0.000,"climb":0.000,"geoidSep":-22.154,"clockbias":-174,"temp":34.339}
$GPGGA,222251.00,4404.1309749,N,12118.8446049,W,7,08,0.00,1129.53,M,-22.154,M,,*69
$GPRMC,222251.00,A,4404.1309749,N,12118.8446049,W,0.0000,,180224,14.4,E*61
$GPGSA,A,3,,,,,,,,,,,,,0.0,0.0,0.0*32
{"class":"TPV","status":7,"mode":3,"time":"2024-02-18T22:22:51.000Z","leapseconds":18,"ept":0.005,"lat":44.068849581,"lon":-121.314076749,"altHAE":1107.3751,"altMSL":1129.5295,"alt":1129.5295,"epv":0.000,"magvar":14.4,"speed":0.000,"climb":0.000,"epc":0.00,"geoidSep":-22.154,"eph":0.000,"sep":0.000,"clockbias":-174,"temp":34.339}
{"class":"SKY","time":"2024-02-18T22:22:49.000Z","hdop":0.00,"pdop":0.00,"tdop":1.00,"vdop":0.00}
$GPGGA,222252.00,4404.1309749,N,12118.8446049,W,7,08,,1129.53,M,-22.154,M,,*74
$GPRMC,222252.00,A,4404.1309749,N,12118.8446049,W,0.0000,,180224,14.4,E*62
$GPGSA,A,3,,,,,,,,,,,,,,,*1C
{"class":"TPV","status":7,"mode":3,"time":"2024-02-18T22:22:52.000Z","leapseconds":18,"ept":0.005,"lat":44.068849581,"lon":-121.314076749,"altHAE":1107.3751,"altMSL":1129.5295,"alt":1129.5295,"magvar":14.4,"speed":0.000,"climb":0.000,"geoidSep":-22.154,"clockbias":-170,"temp":34.331}
$GPGGA,222252.00,4404.1309749,N,12118.8446049,W,7,08,0.00,1129.53,M,-22.154,M,,*6A
$GPRMC,222252.00,A,4404.1309749,N,12118.8446049,W,0.0000,,180224,14.4,E*62
$GPGSA,A,3,,,,,,,,,,,,,0.0,0.0,0.0*32
{"class":"TPV","status":7,"mode":3,"time":"2024-02-18T22:22:52.000Z","leapseconds":18,"ept":0.005,"lat":44.068849581,"lon":-121.314076749,"altHAE":1107.3751,"altMSL":1129.5295,"alt":1129.5295,"epv":0.000,"magvar":14.4,"speed":0.000,"climb":0.000,"epc":0.00,"geoidSep":-22.154,"eph":0.000,"sep":0.000,"clockbias":-170,"temp":34.331}
{"class":"SKY","time":"2024-02-18T22:22:49.000Z","hdop":0.00,"pdop":0.00,"tdop":1.00,"vdop":0.00}
$GPGGA,222253.00,4404.1309749,N,12118.8446049,W,7,08,,1129.53,M,-22.154,M,,*75
$GPRMC,222253.00,A,4404.1309749,N,12118.8446049,W,0.0000,,180224,14.4,E*63
$GPGSA,A,3,,,,,,,,,,,,,,,*1C
{"class":"TPV","status":7,"mode":3,"time":"2024-02-18T22:22:53.000Z","leapseconds":18,"ept":0.005,"lat":44.068849581,"lon":-121.314076749,"altHAE":1107.3751,"altMSL":1129.5295,"alt":1129.5295,"magvar":14.4,"speed":0.000,"climb":0.000,"geoidSep":-22.154,"clockbias":-173,"temp":34.324}
$GPGGA,222253.00,4404.1309749,N,12118.8446049,W,7,08,0.00,1129.53,M,-22.154,M,,*6B
$GPRMC,222253.00,A,4404.1309749,N,12118.8446049,W,0.0000,,180224,14.4,E*63
$GPGSA,A,3,,,,,,,,,,,,,0.0,0.0,0.0*32
{"class":"TPV","status":7,"mode":3,"time":"2024-02-18T22:22:53.000Z","leapseconds":18,"ept":0.005,"lat":44.068849581,"lon":-121.314076749,"altHAE":1107.3751,"altMSL":1129.5295,"alt":1129.5295,"epv":0.000,"magvar":14.4,"speed":0.000,"climb":0.000,"epc":0.00,"geoidSep":-22.154,"eph":0.000,"sep":0.000,"clockbias":-173,"temp":34.324}
{"class":"SKY","time":"2024-02-18T22:22:49.000Z","hdop":0.00,"pdop":0.00,"tdop":1.00,"vdop":0.00}
$GPGGA,222254.00,4404.1309749,N,12118.8446049,W,7,08,,1129.53,M,-22.154,M,,*72
$GPRMC,222254.00,A,4404.1309749,N,12118.8446049,W,0.0000,,180224,14.4,E*64
$GPGSA,A,3,,,,,,,,,,,,,,,*1C
{"class":"TPV","status":7,"mode":3,"time":"2024-02-18T22:22:54.000Z","leapseconds":18,"ept":0.005,"lat":44.068849581,"lon":-121.314076749,"altHAE":1107.3751,"altMSL":1129.5295,"alt":1129.5295,"magvar":14.4,"speed":0.000,"climb":0.000,"geoidSep":-22.154,"ant":2,"clockbias":-170,"temp":34.320}
$GPGGA,222254.00,4404.1309749,N,12118.8446049,W,7,06,0.00,1129.53,M,-22.154,M,,*62
$GPRMC,222254.00,A,4404.1309749,N,12118.8446049,W,0.0000,,180224,14.4,E*64
$GPGSA,A,3,,,,,,,,,,,,,0.0,0.0,0.0*32
{"class":"TPV","status":7,"mode":3,"time":"2024-02-18T22:22:54.000Z","leapseconds":18,"ept":0.005,"lat":44.068849581,"lon":-121.314076749,"altHAE":1107.3751,"altMSL":1129.5295,"alt":1129.5295,"epv":0.000,"magvar":14.4,"speed":0.000,"climb":0.000,"epc":0.00,"geoidSep":-22.154,"eph":0.000,"sep":0.000,"ant":2,"clockbias":-170,"temp":34.320}
{"class":"SKY","time":"2024-02-18T22:22:49.000Z","hdop":0.00,"pdop":0.00,"tdop":1.00,"vdop":0.00}
$GPGGA,222255.00,4404.1309749,N,12118.8446049,W,7,06,,1129.53,M,-22.154,M,,*7D
$GPRMC,222255.00,A,4404.1309749,N,12118.8446049,W,0.0000,,180224,14.4,E*65
$GPGSA,A,3,,,,,,,,,,,,,,,*1C
{"class":"TPV","status":7,"mode":3,"time":"2024-02-18T22:22:55.000Z","leapseconds":18,"ept":0.005,"lat":44.068849581,"lon":-121.314076749,"altHAE":1107.3751,"altMSL":1129.5295,"alt":1129.5295,"magvar":14.4,"speed":0.000,"climb":0.000,"geoidSep":-22.154,"ant":2,"clockbias":-170,"temp":34.314}
$GPGGA,222255.00,4404.1309749,N,12118.8446049,W,7,06,0.00,1129.53,M,-22.154,M,,*63
$GPRMC,222255.00,A,4404.1309749,N,12118.8446049,W,0.0000,,180224,14.4,E*65
$GPGSA,A,3,,,,,,,,,,,,,0.0,0.0,0.0*32
{"class":"TPV","status":7,"mode":3,"time":"2024-02-18T22:22:55.000Z","leapseconds":18,"ept":0.005,"lat":44.068849581,"lon":-121.314076749,"altHAE":1107.3751,"altMSL":1129.5295,"alt":1129.5295,"epv":0.000,"magvar":14.4,"speed":0.000,"climb":0.000,"epc":0.00,"geoidSep":-22.154,"eph":0.000,"sep":0.000,"ant":2,"clockbias":-170,"temp":34.314}
{"class":"SKY","time":"2024-02-18T22:22:49.000Z","hdop":0.00,"pdop":0.00,"tdop":1.00,"vdop":0.00}
$GPGSV,3,1,10,06,59,124,14,19,56,051,20,24,55,244,32,12,38,300,20*73
$GPGSV,3,2,10,11,37,172,18,22,30,102,42,17,28,057,39,14,08,110,22*7F
$GPGSV,3,3,10,03,07,039,20,25,07,296,00*79
{"class":"SKY","time":"2024-02-18T22:22:55.000Z","hdop":0.00,"pdop":0.00,"tdop":1.00,"vdop":0.00,"nSat":10,"uSat":0,"satellites":[{"PRN":6,"gnssid":0,"svid":6,"az":124.0,"el":59.0,"ss":14.0,"used":false,"health":2},{"PRN":19,"gnssid":0,"svid":19,"az":51.0,"el":56.0,"ss":20.0,"used":false,"health":2},{"PRN":24,"gnssid":0,"svid":24,"az":244.0,"el":55.0,"ss":32.0,"used":false,"health":2},{"PRN":12,"gnssid":0,"svid":12,"az":300.0,"el":38.0,"ss":20.0,"used":false,"health":2},{"PRN":11,"gnssid":0,"svid":11,"az":172.0,"el":37.0,"ss":18.0,"used":false,"health":2},{"PRN":22,"gnssid":0,"svid":22,"az":102.0,"el":30.0,"ss":42.0,"used":false,"health":2},{"PRN":17,"gnssid":0,"svid":17,"az":57.0,"el":28.0,"ss":39.0,"used":false,"health":2},{"PRN":14,"gnssid":0,"svid":14,"az":110.0,"el":8.0,"ss":22.0,"used":false,"health":2},{"PRN":3,"gnssid":0,"svid":3,"az":39.0,"el":7.0,"ss":20.0,"used":false},{"PRN":25,"gnssid":0,"svid":25,"az":296.0,"el":7.0,"ss":0.0,"used":false}]}
$GPGSV,3,1,11,06,59,124,14,19,56,051,20,24,55,244,32,12,38,300,20*72
$GPGSV,3,2,11,11,37,172,18,22,30,102,42,17,28,057,39,14,08,110,22*7E
$GPGSV,3,3,11,03,07,039,20,25,07,296,00,32,05,326,00*4B
{"class":"SKY","time":"2024-02-18T22:22:55.000Z","hdop":0.00,"pdop":0.00,"tdop":1.00,"vdop":0.00,"nSat":11,"uSat":0,"satellites":[{"PRN":6,"gnssid":0,"svid":6,"az":124.0,"el":59.0,"ss":14.0,"used":false,"health":2},{"PRN":19,"gnssid":0,"svid":19,"az":51.0,"el":56.0,"ss":20.0,"used":false,"health":2},{"PRN":24,"gnssid":0,"svid":24,"az":244.0,"el":55.0,"ss":32.0,"used":false,"health":2},{"PRN":12,"gnssid":0,"svid":12,"az":300.0,"el":38.0,"ss":20.0,"used":false,"health":2},{"PRN":11,"gnssid":0,"svid":11,"az":172.0,"el":37.0,"ss":18.0,"used":false,"health":2},{"PRN":22,"gnssid":0,"svid":22,"az":102.0,"el":30.0,"ss":42.0,"used":false,"health":2},{"PRN":17,"gnssid":0,"svid":17,"az":57.0,"el":28.0,"ss":39.0,"used":false,"health":2},{"PRN":14,"gnssid":0,"svid":14,"az":110.0,"el":8.0,"ss":22.0,"used":false,"health":2},{"PRN":3,"gnssid":0,"svid":3,"az":39.0,"el":7.0,"ss":20.0,"used":false},{"PRN":25,"gnssid":0,"svid":25,"az":296.0,"el":7.0,"ss":0.0,"used":false},{"PRN":32,"gnssid":0,"svid":32,"az":326.0,"el":5.0,"ss":0.0,"used":false}]}
$GPGGA,222256.00,4404.1309749,N,12118.8446049,W,7,06,,1129.53,M,-22.154,M,,*7E
$GPRMC,222256.00,A,4404.1309749,N,12118.8446049,W,0.0000,,180224,14.4,E*66
$GPGSA,A,3,,,,,,,,,,,,,,,*1C
{"class":"TPV","status":7,"mode":3,"time":"2024-02-18T22:22:56.000Z","leapseconds":18,"ept":0.005,"lat":44.068849581,"lon":-121.314076749,"altHAE":1107.3751,"altMSL":1129.5295,"alt":1129.5295,"magvar":14.4,"speed":0.000,"climb":0.000,"geoidSep":-22.154,"ant":2,"clockbias":-170,"temp":34.311}
$GPGGA,222256.00,4404.1309749,N,12118.8446049,W,7,08,0.00,1129.53,M,-22.154,M,,*6E
$GPRMC,222256.00,A,4404.1309749,N,12118.8446049,W,0.0000,,180224,14.4,E*66
$GPGSA,A,3,,,,,,,,,,,,,0.0,0.0,0.0*32
{"class":"TPV","status":7,"mode":3,"time":"2024-02-18T22:22:56.000Z","leapseconds":18,"ept":0.005,"lat":44.068849581,"lon":-121.314076749,"altHAE":1107.3751,"altMSL":1129.5295,"alt":1129.5295,"epv":0.000,"magvar":14.4,"speed":0.000,"climb":0.000,"epc":0.00,"geoidSep":-22.154,"eph":0.000,"sep":0.000,"ant":2,"clockbias":-170,"temp":34.311}
{"class":"SKY","time":"2024-02-18T22:22:55.000Z","hdop":0.00,"pdop":0.00,"tdop":1.00,"vdop":0.00}
$GPGGA,222257.00,4404.1309749,N,12118.8446049,W,7,08,,1129.53,M,-22.154,M,,*71
$GPRMC,222257.00,A,4404.1309749,N,12118.8446049,W,0.0000,,180224,14.4,E*67
$GPGSA,A,3,,,,,,,,,,,,,,,*1C
{"class":"TPV","status":7,"mode":3,"time":"2024-02-18T22:22:57.000Z","leapseconds":18,"ept":0.005,"lat":44.068849581,"lon":-121.314076749,"altHAE":1107.3751,"altMSL":1129.5295,"alt":1129.5295,"magvar":14.4,"speed":0.000,"climb":0.000,"geoidSep":-22.154,"ant":2,"clockbias":-169,"temp":34.309}
$GPGGA,222257.00,4404.1309749,N,12118.8446049,W,7,05,0.00,1129.53,M,-22.154,M,,*62
$GPRMC,222257.00,A,4404.1309749,N,12118.8446049,W,0.0000,,180224,14.4,E*67
$GPGSA,A,3,,,,,,,,,,,,,0.0,0.0,0.0*32
{"class":"TPV","status":7,"mode":3,"time":"2024-02-18T22:22:57.000Z","leapseconds":18,"ept":0.005,"lat":44.068849581,"lon":-121.314076749,"altHAE":1107.3751,"altMSL":1129.5295,"alt":1129.5295,"epv":0.000,"magvar":14.4,"speed":0.000,"climb":0.000,"epc":0.00,"geoidSep":-22.154,"eph":0.000,"sep":0.000,"ant":2,"clockbias":-169,"temp":34.309}
{"class":"SKY","time":"2024-02-18T22:22:55.000Z","hdop":0.00,"pdop":0.00,"tdop":1.00,"vdop":0.00}
$GPGGA,222258.00,4404.1309749,N,12118.8446049,W,7,05,,1129.53,M,-22.154,M,,*73
$GPRMC,222258.00,A,4404.1309749,N,12118.8446049,W,0.0000,,180224,14.4,E*68
$GPGSA,A,3,,,,,,,,,,,,,,,*1C
{"class":"TPV","status":7,"mode":3,"time":"2024-02-18T22:22:58.000Z","leapseconds":18,"ept":0.005,"lat":44.068849581,"lon":-121.314076749,"altHAE":1107.3751,"altMSL":1129.5295,"alt":1129.5295,"magvar":14.4,"speed":0.000,"climb":0.000,"geoidSep":-22.154,"ant":2,"clockbias":-169,"temp":34.306}
$GPGGA,222258.00,4404.1309749,N,12118.8446049,W,7,05,0.00,1129.53,M,-22.154,M,,*6D
$GPRMC,222258.00,A,4404.1309749,N,12118.8446049,W,0.0000,,180224,14.4,E*68
$GPGSA,A,3,,,,,,,,,,,,,0.0,0.0,0.0*32
{"class":"TPV","status":7,"mode":3,"time":"2024-02-18T22:22:58.000Z","leapseconds":18,"ept":0.005,"lat":44.068849581,"lon":-121.314076749,"altHAE":1107.3751,"altMSL":1129.5295,"alt":1129.5295,"epv":0.000,"magvar":14.4,"speed":0.000,"climb":0.000,"epc":0.00,"geoidSep":-22.154,"eph":0.000,"sep":0.000,"ant":2,"clockbias":-169,"temp":34.306}
{"class":"SKY","time":"2024-02-18T22:22:55.000Z","hdop":0.00,"pdop":0.00,"tdop":1.00,"vdop":0.00}
$GPGGA,222259.00,4404.1309749,N,12118.8446049,W,7,05,,1129.53,M,-22.154,M,,*72
$GPRMC,222259.00,A,4404.1309749,N,12118.8446049,W,0.0000,,180224,14.4,E*69
$GPGSA,A,3,,,,,,,,,,,,,,,*1C
{"class":"TPV","status":7,"mode":3,"time":"2024-02-18T22:22:59.000Z","leapseconds":18,"ept":0.005,"lat":44.068849581,"lon":-121.314076749,"altHAE":1107.3751,"altMSL":1129.5295,"alt":1129.5295,"magvar":14.4,"speed":0.000,"climb":0.000,"geoidSep":-22.154,"ant":2,"clockbias":-171,"temp":34.307}
$GPGGA,222259.00,4404.1309749,N,12118.8446049,W,7,02,0.00,1129.53,M,-22.154,M,,*6B
$GPRMC,222259.00,A,4404.1309749,N,12118.8446049,W,0.0000,,180224,14.4,E*69
$GPGSA,A,3,,,,,,,,,,,,,0.0,0.0,0.0*32
{"class":"TPV","status":7,"mode":3,"time":"2024-02-18T22:22:59.000Z","leapseconds":18,"ept":0.005,"lat":44.068849581,"lon":-121.314076749,"altHAE":1107.3751,"altMSL":1129.5295,"alt":1129.5295,"epv":0.000,"magvar":14.4,"speed":0.000,"climb":0.000,"epc":0.00,"geoidSep":-22.154,"eph":0.000,"sep":0.000,"ant":2,"clockbias":-171,"temp":34.307}
{"class":"SKY","time":"2024-02-18T22:22:55.000Z","hdop":0.00,"pdop":0.00,"tdop":1.00,"vdop":0.00}
$GPGGA,222300.00,4404.1309749,N,12118.8446049,W,7,02,,1129.53,M,-22.154,M,,*78
$GPRMC,222300.00,A,4404.1309749,N,12118.8446049,W,0.0000,,180224,14.4,E*64
$GPGSA,A,3,,,,,,,,,,,,,,,*1C
{"class":"TPV","status":7,"mode":3,"time":"2024-02-18T22:23:00.000Z","leapseconds":18,"ept":0.005,"lat":44.068849581,"lon":-121.314076749,"altHAE":1107.3751,"altMSL":1129.5295,"alt":1129.5295,"magvar":14.4,"speed":0.000,"climb":0.000,"geoidSep":-22.154,"ant":2,"clockbias":-171,"temp":34.309}
$GPGGA,222300.00,4404.1309749,N,12118.8446049,W,7,02,0.00,1129.53,M,-22.154,M,,*66
$GPRMC,222300.00,A,4404.1309749,N,12118.8446049,W,0.0000,,180224,14.4,E*64
$GPGSA,A,3,,,,,,,,,,,,,0.0,0.0,0.0*32
{"class":"TPV","status":7,"mode":3,"time":"2024-02-18T22:23:00.000Z","leapseconds":18,"ept":0.005,"lat":44.068849581,"lon":-121.314076749,"altHAE":1107.3751,"altMSL":1129.5295,"alt":1129.5295,"epv":0.000,"magvar":14.4,"speed":0.000,"climb":0.000,"epc":0.00,"geoidSep":-22.154,"eph":0.000,"sep":0.000,"ant":2,"clockbias":-171,"temp":34.309}
{"class":"SKY","time":"2024-02-18T22:22:55.000Z","hdop":0.00,"pdop":0.00,"tdop":1.00,"vdop":0.00}
$GPGGA,222301.00,4404.1309749,N,12118.8446049,W,7,02,,1129.53,M,-22.154,M,,*79
$GPRMC,222301.00,A,4404.1309749,N,12118.8446049,W,0.0000,,180224,14.4,E*65
$GPGSA,A,3,,,,,,,,,,,,,,,*1C
{"class":"TPV","status":7,"mode":3,"time":"2024-02-18T22:23:01.000Z","leapseconds":18,"ept":0.005,"lat":44.068849581,"lon":-121.314076749,"altHAE":1107.3751,"altMSL":1129.5295,"alt":1129.5295,"magvar":14.4,"speed":0.000,"climb":0.000,"geoidSep":-22.154,"ant":2,"clockbias":-170,"temp":34.313}
$GPGGA,222301.00,4404.1309749,N,12118.8446049,W,7,02,0.00,1129.53,M,-22.154,M,,*67
$GPRMC,222301.00,A,4404.1309749,N,12118.8446049,W,0.0000,,180224,14.4,E*65
$GPGSA,A,3,,,,,,,,,,,,,0.0,0.0,0.0*32
{"class":"TPV","status":7,"mode":3,"time":"2024-02-18T22:23:01.000Z","leapseconds":18,"ept":0.005,"lat":44.068849581,"lon":-121.314076749,"altHAE":1107.3751,"altMSL":1129.5295,"alt":1129.5295,"epv":0.000,"magvar":14.4,"speed":0.000,"climb":0.000,"epc":0.00,"geoidSep":-22.154,"eph":0.000,"sep":0.000,"ant":2,"clockbias":-170,"temp":34.313}
{"class":"SKY","time":"2024-02-18T22:22:55.000Z","hdop":0.00,"pdop":0.00,"tdop":1.00,"vdop":0.00}
$GPGSV,3,1,10,19,56,051,16,12,38,300,16,06,59,124,15,24,55,243,17*72
$GPGSV,3,2,10,11,37,172,16,22,29,102,17,17,28,057,16,14,08,110,16*73
$GPGSV,3,3,10,03,07,039,16,25,07,296,00*7C
{"class":"SKY","time":"2024-02-18T22:23:01.000Z","hdop":0.00,"pdop":0.00,"tdop":1.00,"vdop":0.00,"nSat":10,"uSat":0,"satellites":[{"PRN":19,"gnssid":0,"svid":19,"az":51.0,"el":56.0,"ss":16.0,"used":false,"health":2},{"PRN":12,"gnssid":0,"svid":12,"az":300.0,"el":38.0,"ss":16.0,"used":false,"health":2},{"PRN":6,"gnssid":0,"svid":6,"az":124.0,"el":59.0,"ss":15.0,"used":false,"health":2},{"PRN":24,"gnssid":0,"svid":24,"az":243.0,"el":55.0,"ss":17.0,"used":false,"health":2},{"PRN":11,"gnssid":0,"svid":11,"az":172.0,"el":37.0,"ss":16.0,"used":false,"health":2},{"PRN":22,"gnssid":0,"svid":22,"az":102.0,"el":29.0,"ss":17.0,"used":false,"health":2},{"PRN":17,"gnssid":0,"svid":17,"az":57.0,"el":28.0,"ss":16.0,"used":false,"health":2},{"PRN":14,"gnssid":0,"svid":14,"az":110.0,"el":8.0,"ss":16.0,"used":false,"health":2},{"PRN":3,"gnssid":0,"svid":3,"az":39.0,"el":7.0,"ss":16.0,"used":false},{"PRN":25,"gnssid":0,"svid":25,"az":296.0,"el":7.0,"ss":0.0,"used":false}]}
$GPGSV,3,1,11,19,56,051,16,12,38,300,16,06,59,124,15,24,55,243,17*73
$GPGSV,3,2,11,11,37,172,16,22,29,102,17,17,28,057,16,14,08,110,16*72
$GPGSV,3,3,11,03,07,039,16,25,07,296,00,32,05,326,00*4E
{"class":"SKY","time":"2024-02-18T22:23:01.000Z","hdop":0.00,"pdop":0.00,"tdop":1.00,"vdop":0.00,"nSat":11,"uSat":0,"satellites":[{"PRN":19,"gnssid":0,"svid":19,"az":51.0,"el":56.0,"ss":16.0,"used":false,"health":2},{"PRN":12,"gnssid":0,"svid":12,"az":300.0,"el":38.0,"ss":16.0,"used":false,"health":2},{"PRN":6,"gnssid":0,"svid":6,"az":124.0,"el":59.0,"ss":15.0,"used":false,"health":2},{"PRN":24,"gnssid":0,"svid":24,"az":243.0,"el":55.0,"ss":17.0,"used":false,"health":2},{"PRN":11,"gnssid":0,"svid":11,"az":172.0,"el":37.0,"ss":16.0,"used":false,"health":2},{"PRN":22,"gnssid":0,"svid":22,"az":102.0,"el":29.0,"ss":17.0,"used":false,"health":2},{"PRN":17,"gnssid":0,"svid":17,"az":57.0,"el":28.0,"ss":16.0,"used":false,"health":2},{"PRN":14,"gnssid":0,"svid":14,"az":110.0,"el":8.0,"ss":16.0,"used":false,"health":2},{"PRN":3,"gnssid":0,"svid":3,"az":39.0,"el":7.0,"ss":16.0,"used":false},{"PRN":25,"gnssid":0,"svid":25,"az":296.0,"el":7.0,"ss":0.0,"used":false},{"PRN":32,"gnssid":0,"svid":32,"az":326.0,"el":5.0,"ss":0.0,"used":false}]}
$GPGGA,222302.00,4404.1309749,N,12118.8446049,W,7,02,,1129.53,M,-22.154,M,,*7A
$GPRMC,222302.00,A,4404.1309749,N,12118.8446049,W,0.0000,,180224,14.4,E*66
$GPGSA,A,3,,,,,,,,,,,,,,,*1C
{"class":"TPV","status":7,"mode":3,"time":"2024-02-18T22:23:02.000Z","leapseconds":18,"ept":0.005,"lat":44.068849581,"lon":-121.314076749,"altHAE":1107.3751,"altMSL":1129.5295,"alt":1129.5295,"magvar":14.4,"speed":0.000,"climb":0.000,"geoidSep":-22.154,"ant":2,"clockbias":-170,"temp":34.321}
$GPGGA,222302.00,4404.1309749,N,12118.8446049,W,7,02,0.00,1129.53,M,-22.154,M,,*64
$GPRMC,222302.00,A,4404.1309749,N,12118.8446049,W,0.0000,,180224,14.4,E*66
$GPGSA,A,3,,,,,,,,,,,,,0.0,0.0,0.0*32
{"class":"TPV","status":7,"mode":3,"time":"2024-02-18T22:23:02.000Z","leapseconds":18,"ept":0.005,"lat":44.068849581,"lon":-121.314076749,"altHAE":1107.3751,"altMSL":1129.5295,"alt":1129.5295,"epv":0.000,"magvar":14.4,"speed":0.000,"climb":0.000,"epc":0.00,"geoidSep":-22.154,"eph":0.000,"sep":0.000,"ant":2,"clockbias":-170,"temp":34.321}
{"class":"SKY","time":"2024-02-18T22:23:01.000Z","hdop":0.00,"pdop":0.00,"tdop":1.00,"vdop":0.00}
$GPGGA,222303.00,4404.1309749,N,12118.8446049,W,7,02,,1129.53,M,-22.154,M,,*7B
$GPRMC,222303.00,A,4404.1309749,N,12118.8446049,W,0.0000,,180224,14.4,E*67
$GPGSA,A,3,,,,,,,,,,,,,,,*1C
{"class":"TPV","status":7,"mode":3,"time":"2024-02-18T22:23:03.000Z","leapseconds":18,"ept":0.005,"lat":44.068849581,"lon":-121.314076749,"altHAE":1107.3751,"altMSL":1129.5295,"alt":1129.5295,"magvar":14.4,"speed":0.000,"climb":0.000,"geoidSep":-22.154,"ant":2,"clockbias":-170,"temp":34.329}
$GPGGA,222303.00,4404.1309749,N,12118.8446049,W,7,02,0.00,1129.53,M,-22.154,M,,*65
$GPRMC,222303.00,A,4404.1309749,N,12118.8446049,W,0.0000,,180224,14.4,E*67
$GPGSA,A,3,,,,,,,,,,,,,0.0,0.0,0.0*32
{"class":"TPV","status":7,"mode":3,"time":"2024-02-18T22:23:03.000Z","leapseconds":18,"ept":0.005,"lat":44.068849581,"lon":-121.314076749,"altHAE":1107.3751,"altMSL":1129.5295,"alt":1129.5295,"epv":0.000,"magvar":14.4,"speed":0.000,"climb":0.000,"epc":0.00,"geoidSep":-22.154,"eph":0.000,"sep":0.000,"ant":2,"clockbias":-170,"temp":34.329}
{"class":"SKY","time":"2024-02-18T22:23:01.000Z","hdop":0.00,"pdop":0.00,"tdop":1.00,"vdop":0.00}
$GPGGA,222304.00,4404.1309749,N,12118.8446049,W,7,02,,1129.53,M,-22.154,M,,*7C
$GPRMC,222304.00,A,4404.1309749,N,12118.8446049,W,0.0000,,180224,14.4,E*60
$GPGSA,A,3,,,,,,,,,,,,,,,*1C
{"class":"TPV","status":7,"mode":3,"time":"2024-02-18T22:23:04.000Z","leapseconds":18,"ept":0.005,"lat":44.068849581,"lon":-121.314076749,"altHAE":1107.3751,"altMSL":1129.5295,"alt":1129.5295,"magvar":14.4,"speed":0.000,"climb":0.000,"geoidSep":-22.154,"ant":2,"clockbias":-159,"temp":34.340}
$GPGGA,222304.00,4404.1309749,N,12118.8446049,W,7,02,0.00,1129.53,M,-22.154,M,,*62
$GPRMC,222304.00,A,4404.1309749,N,12118.8446049,W,0.0000,,180224,14.4,E*60
$GPGSA,A,3,,,,,,,,,,,,,0.0,0.0,0.0*32
{"class":"TPV","status":7,"mode":3,"time":"2024-02-18T22:23:04.000Z","leapseconds":18,"ept":0.005,"lat":44.068849581,"lon":-121.314076749,"altHAE":1107.3751,"altMSL":1129.5295,"alt":1129.5295,"epv":0.000,"magvar":14.4,"speed":0.000,"climb":0.000,"epc":0.00,"geoidSep":-22.154,"eph":0.000,"sep":0.000,"ant":2,"clockbias":-159,"temp":34.340}
{"class":"SKY","time":"2024-02-18T22:23:01.000Z","hdop":0.00,"pdop":0.00,"tdop":1.00,"vdop":0.00}
$GPGGA,222305.00,4404.1309749,N,12118.8446049,W,6,02,,1129.53,M,-22.154,M,,*7C
$GPRMC,222305.00,A,4404.1309749,N,12118.8446049,W,0.0000,,180224,14.4,E*61
$GPGSA,A,3,,,,,,,,,,,,,,,*1C
{"class":"TPV","status":5,"mode":3,"time":"2024-02-18T22:23:05.000Z","leapseconds":18,"ept":0.005,"lat":44.068849581,"lon":-121.314076749,"altHAE":1107.3751,"altMSL":1129.5295,"alt":1129.5295,"magvar":14.4,"speed":0.000,"climb":0.000,"geoidSep":-22.154,"ant":2,"clockbias":-159,"temp":34.354}
$GPGGA,222305.00,4404.1309749,N,12118.8446049,W,6,00,0.00,1129.53,M,-22.154,M,,*60
$GPRMC,222305.00,A,4404.1309749,N,12118.8446049,W,0.0000,,180224,14.4,E*61
$GPGSA,A,3,,,,,,,,,,,,,0.0,0.0,0.0*32
{"class":"TPV","status":5,"mode":3,"time":"2024-02-18T22:23:05.000Z","leapseconds":18,"ept":0.005,"lat":44.068849581,"lon":-121.314076749,"altHAE":1107.3751,"altMSL":1129.5295,"alt":1129.5295,"epv":0.000,"magvar":14.4,"speed":0.000,"climb":0.000,"epc":0.00,"geoidSep":-22.154,"eph":0.000,"sep":0.000,"ant":2,"clockbias":-159,"temp":34.354}
{"class":"SKY","time":"2024-02-18T22:23:01.000Z","hdop":0.00,"pdop":0.00,"tdop":1.00,"vdop":0.00}
$GPGGA,222306.00,4404.1309749,N,12118.8446049,W,6,00,,1129.53,M,-22.154,M,,*7D
$GPRMC,222306.00,A,4404.1309749,N,12118.8446049,W,0.0000,,180224,14.4,E*62
$GPGSA,A,3,,,,,,,,,,,,,,,*1C
{"class":"TPV","status":5,"mode":3,"time":"2024-02-18T22:23:06.000Z","leapseconds":18,"ept":0.005,"lat":44.068849581,"lon":-121.314076749,"altHAE":1107.3751,"altMSL":1129.5295,"alt":1129.5295,"magvar":14.4,"speed":0.000,"climb":0.000,"geoidSep":-22.154,"ant":2,"clockbias":-159,"temp":34.369}
$GPGGA,222306.00,4404.1309749,N,12118.8446049,W,6,00,0.00,1129.53,M,-22.154,M,,*63
$GPRMC,222306.00,A,4404.1309749,N,12118.8446049,W,0.0000,,180224,14.4,E*62
$GPGSA,A,3,,,,,,,,,,,,,0.0,0.0,0.0*32
{"class":"TPV","status":5,"mode":3,"time":"2024-02-18T22:23:06.000Z","leapseconds":18,"ept":0.005,"lat":44.068849581,"lon":-121.314076749,"altHAE":1107.3751,"altMSL":1129.5295,"alt":1129.5295,"epv":0.000,"magvar":14.4,"speed":0.000,"climb":0.000,"epc":0.00,"geoidSep":-22.154,"eph":0.000,"sep":0.000,"ant":2,"clockbias":-159,"temp":34.369}
{"class":"SKY","time":"2024-02-18T22:23:01.000Z","hdop":0.00,"pdop":0.00,"tdop":1.00,"vdop":0.00}
$GPGGA,222307.00,4404.1309749,N,12118.8446049,W,6,00,,1129.53,M,-22.154,M,,*7C
$GPRMC,222307.00,A,4404.1309749,N,12118.8446049,W,0.0000,,180224,14.4,E*63
$GPGSA,A,3,,,,,,,,,,,,,,,*1C
{"class":"TPV","status":5,"mode":3,"time":"2024-02-18T22:23:07.000Z","leapseconds":18,"ept":0.005,"lat":44.068849581,"lon":-121.314076749,"altHAE":1107.3751,"altMSL":1129.5295,"alt":1129.5295,"magvar":14.4,"speed":0.000,"climb":0.000,"geoidSep":-22.154,"ant":2,"clockbias":-159,"temp":34.385}
$GPGGA,222307.00,4404.1309749,N,12118.8446049,W,6,00,0.00,1129.53,M,-22.154,M,,*62
$GPRMC,222307.00,A,4404.1309749,N,12118.8446049,W,0.0000,,180224,14.4,E*63
$GPGSA,A,3,,,,,,,,,,,,,0.0,0.0,0.0*32
{"class":"TPV","status":5,"mode":3,"time":"2024-02-18T22:23:07.000Z","leapseconds":18,"ept":0.005,"lat":44.068849581,"lon":-121.314076749,"altHAE":1107.3751,"altMSL":1129.5295,"alt":1129.5295,"epv":0.000,"magvar":14.4,"speed":0.000,"climb":0.000,"epc":0.00,"geoidSep":-22.154,"eph":0.000,"sep":0.000,"ant":2,"clockbias":-159,"temp":34.385}
{"class":"SKY","time":"2024-02-18T22:23:01.000Z","hdop":0.00,"pdop":0.00,"tdop":1.00,"vdop":0.00}
$GPGSV,3,1,10,06,59,124,16,19,56,051,16,24,55,243,16,12,38,300,16*70
$GPGSV,3,2,10,11,37,172,16,22,29,102,16,17,28,057,17,14,08,110,15*70
$GPGSV,3,3,10,03,07,039,16,25,07,296,00*7C
{"class":"SKY","time":"2024-02-18T22:23:07.000Z","hdop":0.00,"pdop":0.00,"tdop":1.00,"vdop":0.00,"nSat":10,"uSat":0,"satellites":[{"PRN":6,"gnssid":0,"svid":6,"az":124.0,"el":59.0,"ss":16.0,"used":false,"health":2},{"PRN":19,"gnssid":0,"svid":19,"az":51.0,"el":56.0,"ss":16.0,"used":false,"health":2},{"PRN":24,"gnssid":0,"svid":24,"az":243.0,"el":55.0,"ss":16.0,"used":false,"health":2},{"PRN":12,"gnssid":0,"svid":12,"az":300.0,"el":38.0,"ss":16.0,"used":false,"health":2},{"PRN":11,"gnssid":0,"svid":11,"az":172.0,"el":37.0,"ss":16.0,"used":false,"health":2},{"PRN":22,"gnssid":0,"svid":22,"az":102.0,"el":29.0,"ss":16.0,"used":false,"health":2},{"PRN":17,"gnssid":0,"svid":17,"az":57.0,"el":28.0,"ss":17.0,"used":false,"health":2},{"PRN":14,"gnssid":0,"svid":14,"az":110.0,"el":8.0,"ss":15.0,"used":false,"health":2},{"PRN":3,"gnssid":0,"svid":3,"az":39.0,"el":7.0,"ss":16.0,"used":false},{"PRN":25,"gnssid":0,"svid":25,"az":296.0,"el":7.0,"ss":0.0,"used":false}]}
$GPGSV,3,1,11,06,59,124,16,19,56,051,16,24,55,243,16,12,38,300,16*71
$GPGSV,3,2,11,11,37,172,16,22,29,102,16,17,28,057,17,14,08,110,15*71
$GPGSV,3,3,11,03,07,039,16,25,07,296,00,32,05,325,00*4D
{"class":"SKY","time":"2024-02-18T22:23:07.000Z","hdop":0.00,"pdop":0.00,"tdop":1.00,"vdop":0.00,"nSat":11,"uSat":0,"satellites":[{"PRN":6,"gnssid":0,"svid":6,"az":124.0,"el":59.0,"ss":16.0,"used":false,"health":2},{"PRN":19,"gnssid":0,"svid":19,"az":51.0,"el":56.0,"ss":16.0,"used":false,"health":2},{"PRN":24,"gnssid":0,"svid":24,"az":243.0,"el":55.0,"ss":16.0,"used":false,"health":2},{"PRN":12,"gnssid":0,"svid":12,"az":300.0,"el":38.0,"ss":16.0,"used":false,"health":2},{"PRN":11,"gnssid":0,"svid":11,"az":172.0,"el":37.0,"ss":16.0,"used":false,"health":2},{"PRN":22,"gnssid":0,"svid":22,"az":102.0,"el":29.0,"ss":16.0,"used":false,"health":2},{"PRN":17,"gnssid":0,"svid":17,"az":57.0,"el":28.0,"ss":17.0,"used":false,"health":2},{"PRN":14,"gnssid":0,"svid":14,"az":110.0,"el":8.0,"ss":15.0,"used":false,"health":2},{"PRN":3,"gnssid":0,"svid":3,"az":39.0,"el":7.0,"ss":16.0,"used":false},{"PRN":25,"gnssid":0,"svid":25,"az":296.0,"el":7.0,"ss":0.0,"used":false},{"PRN":32,"gnssid":0,"svid":32,"az":325.0,"el":5.0,"ss":0.0,"used":false}]}
$GPRMC,222307.00,V,4404.1309749,N,12118.8446049,W,0.0000,,180224,14.4,E*74
$GPGSA,A,1,,,,,,,,,,,,,,,,*32
{"class":"TPV","status":5,"mode":1,"time":"2024-02-18T22:23:07.000Z","leapseconds":18,"ept":0.005,"ant":2,"clockbias":-159,"temp":34.385}
$GPGGA,222308.00,4404.1309749,N,12118.8446049,W,6,00,,1129.53,M,-22.154,M,,*73
$GPRMC,222308.00,A,4404.1309749,N,12118.8446049,W,,,180224,14.4,E*72
$GPGSA,A,3,,,,,,,,,,,,,,,*1C
{"class":"TPV","status":5,"mode":3,"time":"2024-02-18T22:23:08.000Z","leapseconds":18,"ept":0.005,"lat":44.068849581,"lon":-121.314076749,"altHAE":1107.3751,"altMSL":1129.5295,"alt":1129.5295,"magvar":14.4,"geoidSep":-22.154,"ant":2,"clockbias":-159,"temp":34.403}
$GPGGA,222308.00,4404.1309749,N,12118.8446049,W,6,00,0.00,1129.53,M,-22.154,M,,*6D
$GPRMC,222308.00,A,4404.1309749,N,12118.8446049,W,,,180224,14.4,E*72
$GPGSA,A,3,,,,,,,,,,,,,0.0,0.0,0.0*32
{"class":"TPV","status":5,"mode":3,"time":"2024-02-18T22:23:08.000Z","leapseconds":18,"ept":0.005,"lat":44.068849581,"lon":-121.314076749,"altHAE":1107.3751,"altMSL":1129.5295,"alt":1129.5295,"epv":0.000,"magvar":14.4,"geoidSep":-22.154,"eph":0.000,"sep":0.000,"ant":2,"clockbias":-159,"temp":34.403}
{"class":"SKY","time":"2024-02-18T22:23:07.000Z","hdop":0.00,"pdop":0.00,"tdop":1.00,"vdop":0.00}
$GPGGA,222309.00,4404.1309749,N,12118.8446049,W,6,00,,1129.53,M,-22.154,M,,*72
$GPRMC,222309.00,A,4404.1309749,N,12118.8446049,W,0.0000,,180224,14.4,E*6D
$GPGSA,A,3,,,,,,,,,,,,,,,*1C
{"class":"TPV","status":5,"mode":3,"time":"2024-02-18T22:23:09.000Z","leapseconds":18,"ept":0.005,"lat":44.068849581,"lon":-121.314076749,"altHAE":1107.3751,"altMSL":1129.5295,"alt":1129.5295,"magvar":14.4,"speed":0.000,"climb":0.000,"geoidSep":-22.154,"ant":2,"clockbias":-159,"temp":34.423}
$GPGGA,222309.00,4404.1309749,N,12118.8446049,W,6,00,0.00,1129.53,M,-22.154,M,,*6C
$GPRMC,222309.00,A,4404.1309749,N,12118.8446049,W,0.0000,,180224,14.4,E*6D
$GPGSA,A,3,,,,,,,,,,,,,0.0,0.0,0.0*32
{"class":"TPV","status":5,"mode":3,"time":"2024-02-18T22:23:09.000Z","leapseconds":18,"ept":0.005,"lat":44.068849581,"lon":-121.314076749,"altHAE":1107.3751,"altMSL":1129.5295,"alt":1129.5295,"epv":0.000,"magvar":14.4,"speed":0.000,"climb":0.000,"epc":0.00,"geoidSep":-22.154,"eph":0.000,"sep":0.000,"ant":2,"clockbias":-159,"temp":34.423}
{"class":"SKY","time":"2024-02-18T22:23:07.000Z","hdop":0.00,"pdop":0.00,"tdop":1.00,"vdop":0.00}
$GPGGA,222310.00,4404.1309749,N,12118.8446049,W,6,00,,1129.53,M,-22.154,M,,*7A
$GPRMC,222310.00,A,4404.1309749,N,12118.8446049,W,0.0000,,180224,14.4,E*65
$GPGSA,A,3,,,,,,,,,,,,,,,*1C
{"class":"TPV","status":5,"mode":3,"time":"2024-02-18T22:23:10.000Z","leapseconds":18,"ept":0.005,"lat":44.068849581,"lon":-121.314076749,"altHAE":1107.3751,"altMSL":1129.5295,"alt":1129.5295,"magvar":14.4,"speed":0.000,"climb":0.000,"geoidSep":-22.154,"ant":2,"clockbias":-159,"temp":34.443}
$GPGGA,222310.00,4404.1309749,N,12118.8446049,W,6,00,0.00,1129.53,M,-22.154,M,,*64
$GPRMC,222310.00,A,4404.1309749,N,12118.8446049,W,0.0000,,180224,14.4,E*65
$GPGSA,A,3,,,,,,,,,,,,,0.0,0.0,0.0*32
{"class":"TPV","status":5,"mode":3,"time":"2024-02-18T22:23:10.000Z","leapseconds":18,"ept":0.005,"lat":44.068849581,"lon":-121.314076749,"altHAE":1107.3751,"altMSL":1129.5295,"alt":1129.5295,"epv":0.000,"magvar":14.4,"speed":0.000,"climb":0.000,"epc":0.00,"geoidSep":-22.154,"eph":0.000,"sep":0.000,"ant":2,"clockbias":-159,"temp":34.443}
{"class":"SKY","time":"2024-02-18T22:23:07.000Z","hdop":0.00,"pdop":0.00,"tdop":1.00,"vdop":0.00}
$GPGGA,222311.00,4404.1309749,N,12118.8446049,W,6,00,,1129.53,M,-22.154,M,,*7B
$GPRMC,222311.00,A,4404.1309749,N,12118.8446049,W,0.0000,,180224,14.4,E*64
$GPGSA,A,3,,,,,,,,,,,,,,,*1C
{"class":"TPV","status":5,"mode":3,"time":"2024-02-18T22:23:11.000Z","leapseconds":18,"ept":0.005,"lat":44.068849581,"lon":-121.314076749,"altHAE":1107.3751,"altMSL":1129.5295,"alt":1129.5295,"magvar":14.4,"speed":0.000,"climb":0.000,"geoidSep":-22.154,"ant":2,"clockbias":-159,"temp":34.465}
$GPGGA,222311.00,4404.1309749,N,12118.8446049,W,6,00,0.00,1129.53,M,-22.154,M,,*65
$GPRMC,222311.00,A,4404.1309749,N,12118.8446049,W,0.0000,,180224,14.4,E*64
$GPGSA,A,3,,,,,,,,,,,,,0.0,0.0,0.0*32
{"class":"TPV","status":5,"mode":3,"time":"2024-02-18T22:23:11.000Z","leapseconds":18,"ept":0.005,"lat":44.068849581,"lon":-121.314076749,"altHAE":1107.3751,"altMSL":1129.5295,"alt":1129.5295,"epv":0.000,"magvar":14.4,"speed":0.000,"climb":0.000,"epc":0.00,"geoidSep":-22.154,"eph":0.000,"sep":0.000,"ant":2,"clockbias":-159,"temp":34.465}
{"class":"SKY","time":"2024-02-18T22:23:07.000Z","hdop":0.00,"pdop":0.00,"tdop":1.00,"vdop":0.00}
$GPGGA,222312.00,4404.1309749,N,12118.8446049,W,6,00,,1129.53,M,-22.154,M,,*78
$GPRMC,222312.00,A,4404.1309749,N,12118.8446049,W,0.0000,,180224,14.4,E*67
$GPGSA,A,3,,,,,,,,,,,,,,,*1C
{"class":"TPV","status":5,"mode":3,"time":"2024-02-18T22:23:12.000Z","leapseconds":18,"ept":0.005,"lat":44.068849581,"lon":-121.314076749,"altHAE":1107.3751,"altMSL":1129.5295,"alt":1129.5295,"magvar":14.4,"speed":0.000,"climb":0.000,"geoidSep":-22.154,"ant":2,"clockbias":-159,"temp":34.485}
$GPGGA,222312.00,4404.1309749,N,12118.8446049,W,6,00,0.00,1129.53,M,-22.154,M,,*66
$GPRMC,222312.00,A,4404.1309749,N,12118.8446049,W,0.0000,,180224,14.4,E*67
$GPGSA,A,3,,,,,,,,,,,,,0.0,0.0,0.0*32
{"class":"TPV","status":5,"mode":3,"time":"2024-02-18T22:23:12.000Z","leapseconds":18,"ept":0.005,"lat":44.068849581,"lon":-121.314076749,"altHAE":1107.3751,"altMSL":1129.5295,"alt":1129.5295,"epv":0.000,"magvar":14.4,"speed":0.000,"climb":0.000,"epc":0.00,"geoidSep":-22.154,"eph":0.000,"sep":0.000,"ant":2,"clockbias":-159,"temp":34.485}
{"class":"SKY","time":"2024-02-18T22:23:07.000Z","hdop":0.00,"pdop":0.00,"tdop":1.00,"vdop":0.00}
$GPGGA,222313.00,4404.1309749,N,12118.8446049,W,6,00,,1129.53,M,-22.154,M,,*79
$GPRMC,222313.00,A,4404.1309749,N,12118.8446049,W,0.0000,,180224,14.4,E*66
$GPGSA,A,3,,,,,,,,,,,,,,,*1C
{"class":"TPV","status":5,"mode":3,"time":"2024-02-18T22:23:13.000Z","leapseconds":18,"ept":0.005,"lat":44.068849581,"lon":-121.314076749,"altHAE":1107.3751,"altMSL":1129.5295,"alt":1129.5295,"magvar":14.4,"speed":0.000,"climb":0.000,"geoidSep":-22.154,"ant":2,"clockbias":-159,"temp":34.507}
$GPGGA,222313.00,4404.1309749,N,12118.8446049,W,6,00,0.00,1129.53,M,-22.154,M,,*67
$GPRMC,222313.00,A,4404.1309749,N,12118.8446049,W,0.0000,,180224,14.4,E*66
$GPGSA,A,3,,,,,,,,,,,,,0.0,0.0,0.0*32
{"class":"TPV","status":5,"mode":3,"time":"2024-02-18T22:23:13.000Z","leapseconds":18,"ept":0.005,"lat":44.068849581,"lon":-121.314076749,"altHAE":1107.3751,"altMSL":1129.5295,"alt":1129.5295,"epv":0.000,"magvar":14.4,"speed":0.000,"climb":0.000,"epc":0.00,"geoidSep":-22.154,"eph":0.000,"sep":0.000,"ant":2,"clockbias":-159,"temp":34.507}
{"class":"SKY","time":"2024-02-18T22:23:07.000Z","hdop":0.00,"pdop":0.00,"tdop":1.00,"vdop":0.00}
$GPGSV,3,1,10,06,59,124,16,19,56,051,15,24,55,243,16,12,38,300,16*73
$GPGSV,3,2,10,22,29,102,16,17,28,057,16,14,08,110,16,03,07,039,17*7D
$GPGSV,3,3,10,11,37,172,00,25,07,296,00*75
{"class":"SKY","time":"2024-02-18T22:23:13.000Z","hdop":0.00,"pdop":0.00,"tdop":1.00,"vdop":0.00,"nSat":10,"uSat":0,"satellites":[{"PRN":6,"gnssid":0,"svid":6,"az":124.0,"el":59.0,"ss":16.0,"used":false,"health":2},{"PRN":19,"gnssid":0,"svid":19,"az":51.0,"el":56.0,"ss":15.0,"used":false,"health":2},{"PRN":24,"gnssid":0,"svid":24,"az":243.0,"el":55.0,"ss":16.0,"used":false,"health":2},{"PRN":12,"gnssid":0,"svid":12,"az":300.0,"el":38.0,"ss":16.0,"used":false,"health":2},{"PRN":22,"gnssid":0,"svid":22,"az":102.0,"el":29.0,"ss":16.0,"used":false,"health":2},{"PRN":17,"gnssid":0,"svid":17,"az":57.0,"el":28.0,"ss":16.0,"used":false,"health":2},{"PRN":14,"gnssid":0,"svid":14,"az":110.0,"el":8.0,"ss":16.0,"used":false,"health":2},{"PRN":3,"gnssid":0,"svid":3,"az":39.0,"el":7.0,"ss":17.0,"used":false,"health":2},{"PRN":11,"gnssid":0,"svid":11,"az":172.0,"el":37.0,"ss":0.0,"used":false},{"PRN":25,"gnssid":0,"svid":25,"az":296.0,"el":7.0,"ss":0.0,"used":false}]}
$GPGSV,3,1,11,06,59,124,16,19,56,051,15,24,55,243,16,12,38,300,16*72
$GPGSV,3,2,11,22,29,102,16,17,28,057,16,14,08,110,16,03,07,039,17*7C
$GPGSV,3,3,11,11,37,172,00,25,07,296,00,32,05,325,00*44
{"class":"SKY","time":"2024-02-18T22:23:13.000Z","hdop":0.00,"pdop":0.00,"tdop":1.00,"vdop":0.00,"nSat":11,"uSat":0,"satellites":[{"PRN":6,"gnssid":0,"svid":6,"az":124.0,"el":59.0,"ss":16.0,"used":false,"health":2},{"PRN":19,"gnssid":0,"svid":19,"az":51.0,"el":56.0,"ss":15.0,"used":false,"health":2},{"PRN":24,"gnssid":0,"svid":24,"az":243.0,"el":55.0,"ss":16.0,"used":false,"health":2},{"PRN":12,"gnssid":0,"svid":12,"az":300.0,"el":38.0,"ss":16.0,"used":false,"health":2},{"PRN":22,"gnssid":0,"svid":22,"az":102.0,"el":29.0,"ss":16.0,"used":false,"health":2},{"PRN":17,"gnssid":0,"svid":17,"az":57.0,"el":28.0,"ss":16.0,"used":false,"health":2},{"PRN":14,"gnssid":0,"svid":14,"az":110.0,"el":8.0,"ss":16.0,"used":false,"health":2},{"PRN":3,"gnssid":0,"svid":3,"az":39.0,"el":7.0,"ss":17.0,"used":false,"health":2},{"PRN":11,"gnssid":0,"svid":11,"az":172.0,"el":37.0,"ss":0.0,"used":false},{"PRN":25,"gnssid":0,"svid":25,"az":296.0,"el":7.0,"ss":0.0,"used":false},{"PRN":32,"gnssid":0,"svid":32,"az":325.0,"el":5.0,"ss":0.0,"used":false}]}
$GPRMC,222313.00,V,4404.1309749,N,12118.8446049,W,0.0000,,180224,14.4,E*71
$GPGSA,A,1,,,,,,,,,,,,,,,,*32
{"class":"TPV","status":5,"mode":1,"time":"2024-02-18T22:23:13.000Z","leapseconds":18,"ept":0.005,"ant":2,"clockbias":-159,"temp":34.507}
$GPGGA,222314.00,4404.1309749,N,12118.8446049,W,6,00,,1129.53,M,-22.154,M,,*7E
$GPRMC,222314.00,A,4404.1309749,N,12118.8446049,W,,,180224,14.4,E*7F
$GPGSA,A,3,,,,,,,,,,,,,,,*1C
{"class":"TPV","status":5,"mode":3,"time":"2024-02-18T22:23:14.000Z","leapseconds":18,"ept":0.005,"lat":44.068849581,"lon":-121.314076749,"altHAE":1107.3751,"altMSL":1129.5295,"alt":1129.5295,"magvar":14.4,"geoidSep":-22.154,"ant":2,"clockbias":-159,"temp":34.530}
$GPGGA,222314.00,4404.1309749,N,12118.8446049,W,6,00,0.00,1129.53,M,-22.154,M,,*60
$GPRMC,222314.00,A,4404.1309749,N,12118.8446049,W,,,180224,14.4,E*7F
$GPGSA,A,3,,,,,,,,,,,,,0.0,0.0,0.0*32
{"class":"TPV","status":5,"mode":3,"time":"2024-02-18T22:23:14.000Z","leapseconds":18,"ept":0.005,"lat":44.068849581,"lon":-121.314076749,"altHAE":1107.3751,"altMSL":1129.5295,"alt":1129.5295,"epv":0.000,"magvar":14.4,"geoidSep":-22.154,"eph":0.000,"sep":0.000,"ant":2,"clockbias":-159,"temp":34.530}
{"class":"SKY","time":"2024-02-18T22:23:13.000Z","hdop":0.00,"pdop":0.00,"tdop":1.00,"vdop":0.00}
$GPGGA,222315.00,4404.1309749,N,12118.8446049,W,6,00,,1129.53,M,-22.154,M,,*7F
$GPRMC,222315.00,A,4404.1309749,N,12118.8446049,W,0.0000,,180224,14.4,E*60
$GPGSA,A,3,,,,,,,,,,,,,,,*1C
{"class":"TPV","status":5,"mode":3,"time":"2024-02-18T22:23:15.000Z","leapseconds":18,"ept":0.005,"lat":44.068849581,"lon":-121.314076749,"altHAE":1107.3751,"altMSL":1129.5295,"alt":1129.5295,"magvar":14.4,"speed":0.000,"climb":0.000,"geoidSep":-22.154,"ant":2,"clockbias":-159,"temp":34.554}
$GPGGA,222315.00,4404.1309749,N,12118.8446049,W,6,00,0.00,1129.53,M,-22.154,M,,*61
$GPRMC,222315.00,A,4404.1309749,N,12118.8446049,W,0.0000,,180224,14.4,E*60
$GPGSA,A,3,,,,,,,,,,,,,0.0,0.0,0.0*32
{"class":"TPV","status":5,"mode":3,"time":"2024-02-18T22:23:15.000Z","leapseconds":18,"ept":0.005,"lat":44.068849581,"lon":-121.314076749,"altHAE":1107.3751,"altMSL":1129.5295,"alt":1129.5295,"epv":0.000,"magvar":14.4,"speed":0.000,"climb":0.000,"epc":0.00,"geoidSep":-22.154,"eph":0.000,"sep":0.000,"ant":2,"clockbias":-159,"temp":34.554}
{"class":"SKY","time":"2024-02-18T22:23:13.000Z","hdop":0.00,"pdop":0.00,"tdop":1.00,"vdop":0.00}
$GPGGA,222316.00,4404.1309749,N,12118.8446049,W,6,00,,1129.53,M,-22.154,M,,*7C
$GPRMC,222316.00,A,4404.1309749,N,12118.8446049,W,0.0000,,180224,14.4,E*63
$GPGSA,A,3,,,,,,,,,,,,,,,*1C
{"class":"TPV","status":5,"mode":3,"time":"2024-02-18T22:23:16.000Z","leapseconds":18,"ept":0.005,"lat":44.068849581,"lon":-121.314076749,"altHAE":1107.3751,"altMSL":1129.5295,"alt":1129.5295,"magvar":14.4,"speed":0.000,"climb":0.000,"geoidSep":-22.154,"ant":2,"clockbias":-159,"temp":34.579}
$GPGGA,222316.00,4404.1309749,N,12118.8446049,W,6,00,0.00,1129.53,M,-22.154,M,,*62
$GPRMC,222316.00,A,4404.1309749,N,12118.8446049,W,0.0000,,180224,14.4,E*63
$GPGSA,A,3,,,,,,,,,,,,,0.0,0.0,0.0*32
{"class":"TPV","status":5,"mode":3,"time":"2024-02-18T22:23:16.000Z","leapseconds":18,"ept":0.005,"lat":44.068849581,"lon":-121.314076749,"altHAE":1107.3751,"altMSL":1129.5295,"alt":1129.5295,"epv":0.000,"magvar":14.4,"speed":0.000,"climb":0.000,"epc":0.00,"geoidSep":-22.154,"eph":0.000,"sep":0.000,"ant":2,"clockbias":-159,"temp":34.579}
{"class":"SKY","time":"2024-02-18T22:23:13.000Z","hdop":0.00,"pdop":0.00,"tdop":1.00,"vdop":0.00}
$GPGGA,222317.00,4404.1309749,N,12118.8446049,W,6,00,,1129.53,M,-22.154,M,,*7D
$GPRMC,222317.00,A,4404.1309749,N,12118.8446049,W,0.0000,,180224,14.4,E*62
$GPGSA,A,3,,,,,,,,,,,,,,,*1C
{"class":"TPV","status":5,"mode":3,"time":"2024-02-18T22:23:17.000Z","leapseconds":18,"ept":0.005,"lat":44.068849581,"lon":-121.314076749,"altHAE":1107.3751,"altMSL":1129.5295,"alt":1129.5295,"magvar":14.4,"speed":0.000,"climb":0.000,"geoidSep":-22.154,"ant":3,"clockbias":-159,"temp":34.604}
$GPGGA,222317.00,4404.1309749,N,12118.8446049,W,6,00,0.00,1129.53,M,-22.154,M,,*63
$GPRMC,222317.00,A,4404.1309749,N,12118.8446049,W,0.0000,,180224,14.4,E*62
$GPGSA,A,3,,,,,,,,,,,,,0.0,0.0,0.0*32
{"class":"TPV","status":5,"mode":3,"time":"2024-02-18T22:23:17.000Z","leapseconds":18,"ept":0.005,"lat":44.068849581,"lon":-121.314076749,"altHAE":1107.3751,"altMSL":1129.5295,"alt":1129.5295,"epv":0.000,"magvar":14.4,"speed":0.000,"climb":0.000,"epc":0.00,"geoidSep":-22.154,"eph":0.000,"sep":0.000,"ant":3,"clockbias":-159,"temp":34.604}
{"class":"SKY","time":"2024-02-18T22:23:13.000Z","hdop":0.00,"pdop":0.00,"tdop":1.00,"vdop":0.00}
$GPGGA,222318.00,4404.1309749,N,12118.8446049,W,6,00,,1129.53,M,-22.154,M,,*72
$GPRMC,222318.00,A,4404.1309749,N,12118.8446049,W,0.0000,,180224,14.4,E*6D
$GPGSA,A,3,,,,,,,,,,,,,,,*1C
{"class":"TPV","status":5,"mode":3,"time":"2024-02-18T22:23:18.000Z","leapseconds":18,"ept":0.005,"lat":44.068849581,"lon":-121.314076749,"altHAE":1107.3751,"altMSL":1129.5295,"alt":1129.5295,"magvar":14.4,"speed":0.000,"climb":0.000,"geoidSep":-22.154,"clockbias":-159,"temp":34.631}
$GPGGA,222318.00,4404.1309749,N,12118.8446049,W,6,00,0.00,1129.53,M,-22.154,M,,*6C
$GPRMC,222318.00,A,4404.1309749,N,12118.8446049,W,0.0000,,180224,14.4,E*6D
$GPGSA,A,3,,,,,,,,,,,,,0.0,0.0,0.0*32
{"class":"TPV","status":5,"mode":3,"time":"2024-02-18T22:23:18.000Z","leapseconds":18,"ept":0.005,"lat":44.068849581,"lon":-121.314076749,"altHAE":1107.3751,"altMSL":1129.5295,"alt":1129.5295,"epv":0.000,"magvar":14.4,"speed":0.000,"climb":0.000,"epc":0.00,"geoidSep":-22.154,"eph":0.000,"sep":0.000,"clockbias":-159,"temp":34.631}
{"class":"SKY","time":"2024-02-18T22:23:13.000Z","hdop":0.00,"pdop":0.00,"tdop":1.00,"vdop":0.00}
$GPGGA,222319.00,4404.1309749,N,12118.8446049,W,6,00,,1129.53,M,-22.154,M,,*73
$GPRMC,222319.00,A,4404.1309749,N,12118.8446049,W,0.0000,,180224,14.4,E*6C
$GPGSA,A,3,,,,,,,,,,,,,,,*1C
{"class":"TPV","status":5,"mode":3,"time":"2024-02-18T22:23:19.000Z","leapseconds":18,"ept":0.005,"lat":44.068849581,"lon":-121.314076749,"altHAE":1107.3751,"altMSL":1129.5295,"alt":1129.5295,"magvar":14.4,"speed":0.000,"climb":0.000,"geoidSep":-22.154,"clockbias":-159,"temp":34.655}
$GPGGA,222319.00,4404.1309749,N,12118.8446049,W,6,00,0.00,1129.53,M,-22.154,M,,*6D
$GPRMC,222319.00,A,4404.1309749,N,12118.8446049,W,0.0000,,180224,14.4,E*6C
$GPGSA,A,3,,,,,,,,,,,,,0.0,0.0,0.0*32
{"class":"TPV","status":5,"mode":3,"time":"2024-02-18T22:23:19.000Z","leapseconds":18,"ept":0.005,"lat":44.068849581,"lon":-121.314076749,"altHAE":1107.3751,"altMSL":1129.5295,"alt":1129.5295,"epv":0.000,"magvar":14.4,"speed":0.000,"climb":0.000,"epc":0.00,"geoidSep":-22.154,"eph":0.000,"sep":0.000,"clockbias":-159,"temp":34.655}
{"class":"SKY","time":"2024-02-18T22:23:13.000Z","hdop":0.00,"pdop":0.00,"tdop":1.00,"vdop":0.00}
$GPGSV,3,1,10,06,59,124,15,19,56,051,16,24,55,243,13,12,38,300,13*73
$GPGSV,3,2,10,22,29,102,18,14,08,110,19,03,07,039,13,11,37,172,00*71
$GPGSV,3,3,10,17,28,057,00,25,07,296,00*7B
{"class":"SKY","time":"2024-02-18T22:23:19.000Z","hdop":0.00,"pdop":0.00,"tdop":1.00,"vdop":0.00,"nSat":10,"uSat":0,"satellites":[{"PRN":6,"gnssid":0,"svid":6,"az":124.0,"el":59.0,"ss":15.0,"used":false,"health":2},{"PRN":19,"gnssid":0,"svid":19,"az":51.0,"el":56.0,"ss":16.0,"used":false,"health":2},{"PRN":24,"gnssid":0,"svid":24,"az":243.0,"el":55.0,"ss":13.0,"used":false,"health":2},{"PRN":12,"gnssid":0,"svid":12,"az":300.0,"el":38.0,"ss":13.0,"used":false,"health":2},{"PRN":22,"gnssid":0,"svid":22,"az":102.0,"el":29.0,"ss":18.0,"used":false,"health":2},{"PRN":14,"gnssid":0,"svid":14,"az":110.0,"el":8.0,"ss":19.0,"used":false,"health":2},{"PRN":3,"gnssid":0,"svid":3,"az":39.0,"el":7.0,"ss":13.0,"used":false,"health":2},{"PRN":11,"gnssid":0,"svid":11,"az":172.0,"el":37.0,"ss":0.0,"used":false,"health":2},{"PRN":17,"gnssid":0,"svid":17,"az":57.0,"el":28.0,"ss":0.0,"used":false},{"PRN":25,"gnssid":0,"svid":25,"az":296.0,"el":7.0,"ss":0.0,"used":false}]}
$GPGSV,3,1,11,06,59,124,15,19,56,051,16,24,55,243,13,12,38,300,13*72
$GPGSV,3,2,11,22,29,102,18,14,08,110,19,03,07,039,13,11,37,172,00*70
$GPGSV,3,3,11,17,28,057,00,25,07,296,00,32,05,325,00*4A
{"class":"SKY","time":"2024-02-18T22:23:19.000Z","hdop":0.00,"pdop":0.00,"tdop":1.00,"vdop":0.00,"nSat":11,"uSat":0,"satellites":[{"PRN":6,"gnssid":0,"svid":6,"az":124.0,"el":59.0,"ss":15.0,"used":false,"health":2},{"PRN":19,"gnssid":0,"svid":19,"az":51.0,"el":56.0,"ss":16.0,"used":false,"health":2},{"PRN":24,"gnssid":0,"svid":24,"az":243.0,"el":55.0,"ss":13.0,"used":false,"health":2},{"PRN":12,"gnssid":0,"svid":12,"az":300.0,"el":38.0,"ss":13.0,"used":false,"health":2},{"PRN":22,"gnssid":0,"svid":22,"az":102.0,"el":29.0,"ss":18.0,"used":false,"health":2},{"PRN":14,"gnssid":0,"svid":14,"az":110.0,"el":8.0,"ss":19.0,"used":false,"health":2},{"PRN":3,"gnssid":0,"svid":3,"az":39.0,"el":7.0,"ss":13.0,"used":false,"health":2},{"PRN":11,"gnssid":0,"svid":11,"az":172.0,"el":37.0,"ss":0.0,"used":false,"health":2},{"PRN":17,"gnssid":0,"svid":17,"az":57.0,"el":28.0,"ss":0.0,"used":false},{"PRN":25,"gnssid":0,"svid":25,"az":296.0,"el":7.0,"ss":0.0,"used":false},{"PRN":32,"gnssid":0,"svid":32,"az":325.0,"el":5.0,"ss":0.0,"used":false}]}
$GPRMC,222319.00,V,4404.1309749,N,12118.8446049,W,0.0000,,180224,14.4,E*7B
$GPGSA,A,1,,,,,,,,,,,,,,,,*32
{"class":"TPV","status":5,"mode":1,"time":"2024-02-18T22:23:19.000Z","leapseconds":18,"ept":0.005,"clockbias":-159,"temp":34.655}
$GPGGA,222320.00,4404.1309749,N,12118.8446049,W,6,00,,1129.53,M,-22.154,M,,*79
$GPRMC,222320.00,A,4404.1309749,N,12118.8446049,W,,,180224,14.4,E*78
$GPGSA,A,3,,,,,,,,,,,,,,,*1C
{"class":"TPV","status":5,"mode":3,"time":"2024-02-18T22:23:20.000Z","leapseconds":18,"ept":0.005,"lat":44.068849581,"lon":-121.314076749,"altHAE":1107.3751,"altMSL":1129.5295,"alt":1129.5295,"magvar":14.4,"geoidSep":-22.154,"clockbias":-159,"temp":34.680}
$GPGGA,222320.00,4404.1309749,N,12118.8446049,W,6,00,0.00,1129.53,M,-22.154,M,,*67
$GPRMC,222320.00,A,4404.1309749,N,12118.8446049,W,,,180224,14.4,E*78
$GPGSA,A,3,,,,,,,,,,,,,0.0,0.0,0.0*32
{"class":"TPV","status":5,"mode":3,"time":"2024-02-18T22:23:20.000Z","leapseconds":18,"ept":0.005,"lat":44.068849581,"lon":-121.314076749,"altHAE":1107.3751,"altMSL":1129.5295,"alt":1129.5295,"epv":0.000,"magvar":14.4,"geoidSep":-22.154,"eph":0.000,"sep":0.000,"clockbias":-159,"temp":34.680}
{"class":"SKY","time":"2024-02-18T22:23:19.000Z","hdop":0.00,"pdop":0.00,"tdop":1.00,"vdop":0.00}
$GPGGA,222321.00,4404.1309749,N,12118.8446049,W,6,00,,1129.53,M,-22.154,M,,*78
$GPRMC,222321.00,A,4404.1309749,N,12118.8446049,W,0.0000,,180224,14.4,E*67
$GPGSA,A,3,,,,,,,,,,,,,,,*1C
{"class":"TPV","status":5,"mode":3,"time":"2024-02-18T22:23:21.000Z","leapseconds":18,"ept":0.005,"lat":44.068849581,"lon":-121.314076749,"altHAE":1107.3751,"altMSL":1129.5295,"alt":1129.5295,"magvar":14.4,"speed":0.000,"climb":0.000,"geoidSep":-22.154,"clockbias":-159,"temp":34.706}
$GPGGA,222321.00,4404.1309749,N,12118.8446049,W,6,00,0.00,1129.53,M,-22.154,M,,*66
$GPRMC,222321.00,A,4404.1309749,N,12118.8446049,W,0.0000,,180224,14.4,E*67
$GPGSA,A,3,,,,,,,,,,,,,0.0,0.0,0.0*32
{"class":"TPV","status":5,"mode":3,"time":"2024-02-18T22:23:21.000Z","leapseconds":18,"ept":0.005,"lat":44.068849581,"lon":-121.314076749,"altHAE":1107.3751,"altMSL":1129.5295,"alt":1129.5295,"epv":0.000,"magvar":14.4,"speed":0.000,"climb":0.000,"epc":0.00,"geoidSep":-22.154,"eph":0.000,"sep":0.000,"clockbias":-159,"temp":34.706}
{"class":"SKY","time":"2024-02-18T22:23:19.000Z","hdop":0.00,"pdop":0.00,"tdop":1.00,"vdop":0.00}
$GPGGA,222322.00,4404.1309749,N,12118.8446049,W,7,00,,1129.53,M,-22.154,M,,*7A
$GPRMC,222322.00,A,4404.1309749,N,12118.8446049,W,0.0000,,180224,14.4,E*64
$GPGSA,A,3,,,,,,,,,,,,,,,*1C
{"class":"TPV","status":7,"mode":3,"time":"2024-02-18T22:23:22.000Z","leapseconds":18,"ept":0.005,"lat":44.068849581,"lon":-121.314076749,"altHAE":1107.3751,"altMSL":1129.5295,"alt":1129.5295,"magvar":14.4,"speed":0.000,"climb":0.000,"geoidSep":-22.154,"clockbias":-139,"temp":34.732}
$GPGGA,222322.00,4404.1309749,N,12118.8446049,W,7,02,0.00,1129.53,M,-22.154,M,,*66
$GPRMC,222322.00,A,4404.1309749,N,12118.8446049,W,0.0000,,180224,14.4,E*64
$GPGSA,A,3,,,,,,,,,,,,,0.0,0.0,0.0*32
{"class":"TPV","status":7,"mode":3,"time":"2024-02-18T22:23:22.000Z","leapseconds":18,"ept":0.005,"lat":44.068849581,"lon":-121.314076749,"altHAE":1107.3751,"altMSL":1129.5295,"alt":1129.5295,"epv":0.000,"magvar":14.4,"speed":0.000,"climb":0.000,"epc":0.00,"geoidSep":-22.154,"eph":0.000,"sep":0.000,"clockbias":-139,"temp":34.732}
{"class":"SKY","time":"2024-02-18T22:23:19.000Z","hdop":0.00,"pdop":0.00,"tdop":1.00,"vdop":0.00}
$GPGGA,222323.00,4404.1309749,N,12118.8446049,W,6,02,,1129.53,M,-22.154,M,,*78
$GPRMC,222323.00,A,4404.1309749,N,12118.8446049,W,0.0000,,180224,14.4,E*65
$GPGSA,A,3,,,,,,,,,,,,,,,*1C
