$GPGSV,3,1,11,08,75,303,44,07,66,172,51,11,51,055,36,28,39,325,36*76
$GPGSV,3,2,11,17,31,254,51,26,13,295,51,09,12,322,36,19,12,046,51*76
$GPGSV,3,3,11,20,09,138,36,13,04,183,51,32,03,113,44,,,,*44
{"class":"SKY","nSat":11,"uSat":0,"satellites":[{"PRN":8,"gnssid":0,"svid":8,"az":303.0,"el":75.0,"ss":44.0,"used":false},{"PRN":7,"gnssid":0,"svid":7,"az":172.0,"el":66.0,"ss":51.0,"used":false},{"PRN":11,"gnssid":0,"svid":11,"az":55.0,"el":51.0,"ss":36.0,"used":false},{"PRN":28,"gnssid":0,"svid":28,"az":325.0,"el":39.0,"ss":36.0,"used":false},{"PRN":17,"gnssid":0,"svid":17,"az":254.0,"el":31.0,"ss":51.0,"used":false},{"PRN":26,"gnssid":0,"svid":26,"az":295.0,"el":13.0,"ss":51.0,"used":false},{"PRN":9,"gnssid":0,"svid":9,"az":322.0,"el":12.0,"ss":36.0,"used":false},{"PRN":19,"gnssid":0,"svid":19,"az":46.0,"el":12.0,"ss":51.0,"used":false},{"PRN":20,"gnssid":0,"svid":20,"az":138.0,"el":9.0,"ss":36.0,"used":false},{"PRN":13,"gnssid":0,"svid":13,"az":183.0,"el":4.0,"ss":51.0,"used":false},{"PRN":32,"gnssid":0,"svid":32,"az":113.0,"el":3.0,"ss":44.0,"used":false}]}
$GPGLL,2638.1726,N,08011.3892,W,030129.000,A,A*47
{"class":"TPV","mode":2,"lat":26.636210000,"lon":-80.189820000,"magvar":-7.0}
$GPGGA,030129.00,2638.1726,N,08011.3892,W,1,06,1.5,00016,M,-0028,M,,*50
{"class":"TPV","mode":3,"lat":26.636210000,"lon":-80.189820000,"altHAE":-12.0000,"altMSL":16.0000,"alt":16.0000,"magvar":-7.0,"geoidSep":-28.000,"eph":28.500}
{"class":"SKY","hdop":1.50}
$GPRMC,030129.0,A,2638.1726,N,08011.3892,W,0.00,219.6,010413,,*26
{"class":"TPV","mode":3,"time":"2032-11-15T03:01:29.000Z","ept":0.005,"lat":26.636210000,"lon":-80.189820000,"altHAE":-12.0000,"altMSL":16.0000,"alt":16.0000,"track":219.6000,"magtrack":212.5829,"magvar":-7.0,"speed":0.000,"geoidSep":-28.000,"eph":28.500}
$GPGSA,A,3,08,07,11,28,17,26,,,,,,,02.6,01.5,02.1*06
{"class":"TPV","mode":3,"time":"2032-11-15T03:01:29.000Z","ept":0.005,"lat":26.636210000,"lon":-80.189820000,"altHAE":-12.0000,"altMSL":16.0000,"alt":16.0000,"epv":48.300,"track":219.6000,"magtrack":212.5829,"magvar":-7.0,"speed":0.000,"geoidSep":-28.000,"eph":28.500,"sep":49.400}
{"class":"SKY","hdop":1.50,"pdop":2.60,"vdop":2.10}
$GPGSV,3,1,11,08,75,303,44,07,66,172,51,11,51,055,36,28,39,325,36*76
$GPGSV,3,2,11,17,31,254,51,26,13,295,51,09,12,322,36,19,12,046,51*76
$GPGSV,3,3,11,20,09,138,36,13,04,183,51,32,03,113,44,,,,*44
{"class":"SKY","gdop":3.96,"hdop":1.50,"pdop":2.60,"tdop":2.26,"xdop":1.31,"ydop":1.26,"vdop":2.10,"nSat":11,"uSat":6,"satellites":[{"PRN":8,"gnssid":0,"svid":8,"az":303.0,"el":75.0,"ss":44.0,"used":true},{"PRN":7,"gnssid":0,"svid":7,"az":172.0,"el":66.0,"ss":51.0,"used":true},{"PRN":11,"gnssid":0,"svid":11,"az":55.0,"el":51.0,"ss":36.0,"used":true},{"PRN":28,"gnssid":0,"svid":28,"az":325.0,"el":39.0,"ss":36.0,"used":true},{"PRN":17,"gnssid":0,"svid":17,"az":254.0,"el":31.0,"ss":51.0,"used":true},{"PRN":26,"gnssid":0,"svid":26,"az":295.0,"el":13.0,"ss":51.0,"used":true},{"PRN":9,"gnssid":0,"svid":9,"az":322.0,"el":12.0,"ss":36.0,"used":false},{"PRN":19,"gnssid":0,"svid":19,"az":46.0,"el":12.0,"ss":51.0,"used":false},{"PRN":20,"gnssid":0,"svid":20,"az":138.0,"el":9.0,"ss":36.0,"used":false},{"PRN":13,"gnssid":0,"svid":13,"az":183.0,"el":4.0,"ss":51.0,"used":false},{"PRN":32,"gnssid":0,"svid":32,"az":113.0,"el":3.0,"ss":44.0,"used":false}]}
$GPGLL,2638.1727,N,08011.3892,W,030130.000,A,A*4E
{"class":"TPV","mode":3,"time":"2032-11-15T03:01:30.000Z","ept":0.005,"lat":26.636211667,"lon":-80.189820000,"magvar":-7.0,"speed":0.185,"geoidSep":-29.289}
$GPGLL,2638.1728,N,08011.3893,W,030131.000,A,A*41
{"class":"TPV","mode":3,"time":"2032-11-15T03:01:31.000Z","ept":0.005,"lat":26.636213333,"lon":-80.189821667,"magvar":-7.0,"speed":0.248,"geoidSep":-29.289}
$GPGGA,030131.00,2638.1728,N,08011.3893,W,1,06,1.5,00016,M,-0028,M,,*56
{"class":"TPV","mode":3,"time":"2032-11-15T03:01:31.000Z","ept":0.005,"lat":26.636213333,"lon":-80.189821667,"altHAE":-12.0000,"altMSL":16.0000,"alt":16.0000,"magvar":-7.0,"speed":0.248,"geoidSep":-28.000,"eph":28.500}
{"class":"SKY","hdop":1.50}
$GPRMC,030131.0,A,2638.1728,N,08011.3893,W,0.00,219.6,010413,,*20
{"class":"TPV","mode":3,"time":"2032-11-15T03:01:31.000Z","ept":0.005,"lat":26.636213333,"lon":-80.189821667,"altHAE":-12.0000,"altMSL":16.0000,"alt":16.0000,"track":219.6000,"magtrack":212.5829,"magvar":-7.0,"speed":0.000,"geoidSep":-28.000,"eph":28.500}
$GPGSA,A,3,08,07,11,28,17,26,,,,,,,02.6,01.5,02.1*06
{"class":"TPV","mode":3,"time":"2032-11-15T03:01:31.000Z","ept":0.005,"lat":26.636213333,"lon":-80.189821667,"altHAE":-12.0000,"altMSL":16.0000,"alt":16.0000,"epv":48.300,"track":219.6000,"magtrack":212.5829,"magvar":-7.0,"speed":0.000,"geoidSep":-28.000,"eph":28.500,"sep":49.400}
{"class":"SKY","hdop":1.50,"pdop":2.60,"vdop":2.10}
$GPGSV,3,1,11,08,75,303,44,07,66,172,51,11,51,055,36,28,39,325,36*76
$GPGSV,3,2,11,17,31,254,51,26,13,295,51,09,12,322,36,19,12,046,51*76
$GPGSV,3,3,11,20,09,138,36,13,04,183,51,32,03,113,44,,,,*44
{"class":"SKY","gdop":3.96,"hdop":1.50,"pdop":2.60,"tdop":2.26,"xdop":1.31,"ydop":1.26,"vdop":2.10,"nSat":11,"uSat":6,"satellites":[{"PRN":8,"gnssid":0,"svid":8,"az":303.0,"el":75.0,"ss":44.0,"used":true},{"PRN":7,"gnssid":0,"svid":7,"az":172.0,"el":66.0,"ss":51.0,"used":true},{"PRN":11,"gnssid":0,"svid":11,"az":55.0,"el":51.0,"ss":36.0,"used":true},{"PRN":28,"gnssid":0,"svid":28,"az":325.0,"el":39.0,"ss":36.0,"used":true},{"PRN":17,"gnssid":0,"svid":17,"az":254.0,"el":31.0,"ss":51.0,"used":true},{"PRN":26,"gnssid":0,"svid":26,"az":295.0,"el":13.0,"ss":51.0,"used":true},{"PRN":9,"gnssid":0,"svid":9,"az":322.0,"el":12.0,"ss":36.0,"used":false},{"PRN":19,"gnssid":0,"svid":19,"az":46.0,"el":12.0,"ss":51.0,"used":false},{"PRN":20,"gnssid":0,"svid":20,"az":138.0,"el":9.0,"ss":36.0,"used":false},{"PRN":13,"gnssid":0,"svid":13,"az":183.0,"el":4.0,"ss":51.0,"used":false},{"PRN":32,"gnssid":0,"svid":32,"az":113.0,"el":3.0,"ss":44.0,"used":false}]}
$GPGLL,2638.1750,N,08011.3902,W,030132.000,A,A*44
{"class":"TPV","mode":3,"time":"2032-11-15T03:01:32.000Z","ept":0.005,"lat":26.636250000,"lon":-80.189836667,"magvar":-7.0,"speed":4.328,"geoidSep":-29.289}
$GPGGA,030132.00,2638.1750,N,08011.3902,W,1,06,1.5,00019,M,-0028,M,,*5C
{"class":"TPV","mode":3,"time":"2032-11-15T03:01:32.000Z","ept":0.005,"lat":26.636250000,"lon":-80.189836667,"altHAE":-9.0000,"altMSL":19.0000,"alt":19.0000,"magvar":-7.0,"speed":4.328,"climb":3.000,"geoidSep":-28.000,"eph":28.500}
{"class":"SKY","hdop":1.50}
$GPRMC,030132.0,A,2638.1750,N,08011.3902,W,0.00,219.6,010413,,*25
{"class":"TPV","mode":3,"time":"2032-11-15T03:01:32.000Z","ept":0.005,"lat":26.636250000,"lon":-80.189836667,"altHAE":-9.0000,"altMSL":19.0000,"alt":19.0000,"track":219.6000,"magtrack":212.5829,"magvar":-7.0,"speed":0.000,"climb":3.000,"geoidSep":-28.000,"eph":28.500}
$GPGSA,A,3,08,07,11,28,17,26,,,,,,,02.6,01.5,02.1*06
{"class":"TPV","mode":3,"time":"2032-11-15T03:01:32.000Z","ept":0.005,"lat":26.636250000,"lon":-80.189836667,"altHAE":-9.0000,"altMSL":19.0000,"alt":19.0000,"epv":48.300,"track":219.6000,"magtrack":212.5829,"magvar":-7.0,"speed":0.000,"climb":3.000,"epc":96.60,"geoidSep":-28.000,"eph":28.500,"sep":49.400}
{"class":"SKY","hdop":1.50,"pdop":2.60,"vdop":2.10}
$GPGSV,3,1,11,08,75,303,44,07,66,172,51,11,51,055,36,28,39,325,36*76
$GPGSV,3,2,11,17,31,254,51,26,13,295,51,09,12,322,36,19,12,046,36*77
$GPGSV,3,3,11,20,09,138,36,13,04,183,51,32,03,113,44,,,,*44
{"class":"SKY","gdop":3.96,"hdop":1.50,"pdop":2.60,"tdop":2.26,"xdop":1.31,"ydop":1.26,"vdop":2.10,"nSat":11,"uSat":6,"satellites":[{"PRN":8,"gnssid":0,"svid":8,"az":303.0,"el":75.0,"ss":44.0,"used":true},{"PRN":7,"gnssid":0,"svid":7,"az":172.0,"el":66.0,"ss":51.0,"used":true},{"PRN":11,"gnssid":0,"svid":11,"az":55.0,"el":51.0,"ss":36.0,"used":true},{"PRN":28,"gnssid":0,"svid":28,"az":325.0,"el":39.0,"ss":36.0,"used":true},{"PRN":17,"gnssid":0,"svid":17,"az":254.0,"el":31.0,"ss":51.0,"used":true},{"PRN":26,"gnssid":0,"svid":26,"az":295.0,"el":13.0,"ss":51.0,"used":true},{"PRN":9,"gnssid":0,"svid":9,"az":322.0,"el":12.0,"ss":36.0,"used":false},{"PRN":19,"gnssid":0,"svid":19,"az":46.0,"el":12.0,"ss":36.0,"used":false},{"PRN":20,"gnssid":0,"svid":20,"az":138.0,"el":9.0,"ss":36.0,"used":false},{"PRN":13,"gnssid":0,"svid":13,"az":183.0,"el":4.0,"ss":51.0,"used":false},{"PRN":32,"gnssid":0,"svid":32,"az":113.0,"el":3.0,"ss":44.0,"used":false}]}
$GPGLL,2638.1753,N,08011.3903,W,030133.000,A,A*47
{"class":"TPV","mode":3,"time":"2032-11-15T03:01:33.000Z","ept":0.005,"lat":26.636255000,"lon":-80.189838333,"magvar":-7.0,"speed":0.578,"geoidSep":-29.289}
$GPGGA,030133.00,2638.1753,N,08011.3903,W,1,06,1.5,00020,M,-0028,M,,*55
{"class":"TPV","mode":3,"time":"2032-11-15T03:01:33.000Z","ept":0.005,"lat":26.636255000,"lon":-80.189838333,"altHAE":-8.0000,"altMSL":20.0000,"alt":20.0000,"magvar":-7.0,"speed":0.578,"climb":1.000,"geoidSep":-28.000,"eph":28.500}
{"class":"SKY","hdop":1.50}
$GPRMC,030133.0,A,2638.1753,N,08011.3903,W,0.00,219.6,010413,,*26
{"class":"TPV","mode":3,"time":"2032-11-15T03:01:33.000Z","ept":0.005,"lat":26.636255000,"lon":-80.189838333,"altHAE":-8.0000,"altMSL":20.0000,"alt":20.0000,"track":219.6000,"magtrack":212.5829,"magvar":-7.0,"speed":0.000,"climb":1.000,"geoidSep":-28.000,"eph":28.500}
