$GPGSV,3,1,12,04,48,216,25,07,24,303,20,08,32,195,40,16,64,046,34*71
$GPGSV,3,2,12,26,36,067,36,27,63,154,41,67,22,229,25,76,20,084,29*70
$GPGSV,3,3,12,77,62,034,22,78,38,301,31,87,41,126,42,88,16,160,36*71
{"class":"SKY","time":"2021-02-23T18:04:29.000Z","xdop":0.59,"ydop":0.74,"vdop":1.64,"tdop":1.11,"hdop":0.95,"gdop":2.19,"pdop":1.89,"nSat":14,"uSat":10,"satellites":[{"PRN":4,"el":48.0,"az":216.0,"ss":25.0,"used":true,"gnssid":0,"svid":4,"health":1},{"PRN":7,"el":24.0,"az":303.0,"ss":20.0,"used":false,"gnssid":0,"svid":7,"health":1},{"PRN":8,"el":32.0,"az":195.0,"ss":40.0,"used":true,"gnssid":0,"svid":8,"health":1},{"PRN":9,"az":0.0,"ss":25.0,"used":false,"gnssid":0,"svid":9},{"PRN":16,"el":64.0,"az":46.0,"ss":34.0,"used":true,"gnssid":0,"svid":16,"health":1},{"PRN":26,"el":36.0,"az":67.0,"ss":36.0,"used":true,"gnssid":0,"svid":26,"health":1},{"PRN":27,"el":63.0,"az":154.0,"ss":41.0,"used":true,"gnssid":0,"svid":27,"health":1},{"PRN":31,"az":0.0,"ss":9.0,"used":false,"gnssid":0,"svid":31},{"PRN":67,"el":22.0,"az":229.0,"ss":25.0,"used":true,"gnssid":6,"svid":3,"health":1},{"PRN":76,"el":20.0,"az":84.0,"ss":29.0,"used":true,"gnssid":6,"svid":12,"health":1},{"PRN":77,"el":62.0,"az":34.0,"ss":22.0,"used":false,"gnssid":6,"svid":13,"health":1},{"PRN":78,"el":38.0,"az":301.0,"ss":31.0,"used":true,"gnssid":6,"svid":14,"health":1},{"PRN":87,"el":41.0,"az":126.0,"ss":42.0,"used":true,"gnssid":6,"svid":23,"health":1},{"PRN":88,"el":16.0,"az":160.0,"ss":36.0,"used":true,"gnssid":6,"svid":24,"health":1}]}
$GPGSV,3,1,12,04,48,216,23,07,24,303,20,08,32,195,40,16,64,046,34*77
$GPGSV,3,2,12,26,36,067,36,27,63,154,41,67,22,229,25,76,20,084,30*78
$GPGSV,3,3,12,77,62,034,22,78,38,301,31,87,41,126,42,88,16,160,36*71
{"class":"SKY","time":"2021-02-23T18:04:30.000Z","xdop":0.59,"ydop":0.74,"vdop":99.99,"tdop":0.32,"hdop":99.99,"gdop":0.32,"pdop":99.99,"nSat":14,"uSat":10,"satellites":[{"PRN":4,"el":48.0,"az":216.0,"ss":23.0,"used":true,"gnssid":0,"svid":4,"health":1},{"PRN":7,"el":24.0,"az":303.0,"ss":20.0,"used":false,"gnssid":0,"svid":7,"health":1},{"PRN":8,"el":32.0,"az":195.0,"ss":40.0,"used":true,"gnssid":0,"svid":8,"health":1},{"PRN":9,"az":0.0,"ss":25.0,"used":false,"gnssid":0,"svid":9},{"PRN":16,"el":64.0,"az":46.0,"ss":34.0,"used":true,"gnssid":0,"svid":16,"health":1},{"PRN":26,"el":36.0,"az":67.0,"ss":36.0,"used":true,"gnssid":0,"svid":26,"health":1},{"PRN":27,"el":63.0,"az":154.0,"ss":41.0,"used":true,"gnssid":0,"svid":27,"health":1},{"PRN":31,"az":0.0,"ss":8.0,"used":false,"gnssid":0,"svid":31},{"PRN":67,"el":22.0,"az":229.0,"ss":25.0,"used":true,"gnssid":6,"svid":3,"health":1},{"PRN":76,"el":20.0,"az":84.0,"ss":30.0,"used":true,"gnssid":6,"svid":12,"health":1},{"PRN":77,"el":62.0,"az":34.0,"ss":22.0,"used":false,"gnssid":6,"svid":13,"health":1},{"PRN":78,"el":38.0,"az":301.0,"ss":31.0,"used":true,"gnssid":6,"svid":14,"health":1},{"PRN":87,"el":41.0,"az":126.0,"ss":42.0,"used":true,"gnssid":6,"svid":23,"health":1},{"PRN":88,"el":16.0,"az":160.0,"ss":36.0,"used":true,"gnssid":6,"svid":24,"health":1}]}
$GPGSV,3,1,12,04,48,216,21,07,24,303,20,08,32,195,40,16,64,046,34*75
$GPGSV,3,2,12,26,36,067,36,27,63,154,41,67,21,229,25,76,20,084,30*7B
$GPGSV,3,3,12,77,62,034,22,78,38,301,32,87,41,126,42,88,16,160,36*72
{"class":"SKY","time":"2021-02-23T18:04:31.000Z","xdop":0.59,"ydop":0.74,"vdop":99.99,"tdop":0.32,"hdop":99.99,"gdop":0.32,"pdop":99.99,"nSat":14,"uSat":10,"satellites":[{"PRN":4,"el":48.0,"az":216.0,"ss":21.0,"used":true,"gnssid":0,"svid":4,"health":1},{"PRN":7,"el":24.0,"az":303.0,"ss":20.0,"used":false,"gnssid":0,"svid":7,"health":1},{"PRN":8,"el":32.0,"az":195.0,"ss":40.0,"used":true,"gnssid":0,"svid":8,"health":1},{"PRN":9,"az":0.0,"ss":25.0,"used":false,"gnssid":0,"svid":9},{"PRN":16,"el":64.0,"az":46.0,"ss":34.0,"used":true,"gnssid":0,"svid":16,"health":1},{"PRN":26,"el":36.0,"az":67.0,"ss":36.0,"used":true,"gnssid":0,"svid":26,"health":1},{"PRN":27,"el":63.0,"az":154.0,"ss":41.0,"used":true,"gnssid":0,"svid":27,"health":1},{"PRN":31,"az":0.0,"ss":7.0,"used":false,"gnssid":0,"svid":31},{"PRN":67,"el":21.0,"az":229.0,"ss":25.0,"used":true,"gnssid":6,"svid":3,"health":1},{"PRN":76,"el":20.0,"az":84.0,"ss":30.0,"used":true,"gnssid":6,"svid":12,"health":1},{"PRN":77,"el":62.0,"az":34.0,"ss":22.0,"used":false,"gnssid":6,"svid":13,"health":1},{"PRN":78,"el":38.0,"az":301.0,"ss":32.0,"used":true,"gnssid":6,"svid":14,"health":1},{"PRN":87,"el":41.0,"az":126.0,"ss":42.0,"used":true,"gnssid":6,"svid":23,"health":1},{"PRN":88,"el":16.0,"az":160.0,"ss":36.0,"used":true,"gnssid":6,"svid":24,"health":1}]}
$GPGSV,3,1,12,04,48,216,20,07,24,303,19,08,32,195,40,16,64,046,34*7E
$GPGSV,3,2,12,26,36,067,36,27,63,154,41,67,21,229,24,76,20,084,30*7A
$GPGSV,3,3,12,77,62,034,22,78,38,301,32,87,41,126,43,88,16,160,36*73
{"class":"SKY","time":"2021-02-23T18:04:32.000Z","xdop":0.59,"ydop":0.74,"vdop":99.99,"tdop":0.32,"hdop":99.99,"gdop":0.32,"pdop":99.99,"nSat":14,"uSat":10,"satellites":[{"PRN":4,"el":48.0,"az":216.0,"ss":20.0,"used":true,"gnssid":0,"svid":4,"health":1},{"PRN":7,"el":24.0,"az":303.0,"ss":19.0,"used":false,"gnssid":0,"svid":7,"health":1},{"PRN":8,"el":32.0,"az":195.0,"ss":40.0,"used":true,"gnssid":0,"svid":8,"health":1},{"PRN":9,"az":0.0,"ss":25.0,"used":false,"gnssid":0,"svid":9},{"PRN":16,"el":64.0,"az":46.0,"ss":34.0,"used":true,"gnssid":0,"svid":16,"health":1},{"PRN":26,"el":36.0,"az":67.0,"ss":36.0,"used":true,"gnssid":0,"svid":26,"health":1},{"PRN":27,"el":63.0,"az":154.0,"ss":41.0,"used":true,"gnssid":0,"svid":27,"health":1},{"PRN":31,"az":0.0,"ss":8.0,"used":false,"gnssid":0,"svid":31},{"PRN":67,"el":21.0,"az":229.0,"ss":24.0,"used":true,"gnssid":6,"svid":3,"health":1},{"PRN":76,"el":20.0,"az":84.0,"ss":30.0,"used":true,"gnssid":6,"svid":12,"health":1},{"PRN":77,"el":62.0,"az":34.0,"ss":22.0,"used":false,"gnssid":6,"svid":13,"health":1},{"PRN":78,"el":38.0,"az":301.0,"ss":32.0,"used":true,"gnssid":6,"svid":14,"health":1},{"PRN":87,"el":41.0,"az":126.0,"ss":43.0,"used":true,"gnssid":6,"svid":23,"health":1},{"PRN":88,"el":16.0,"az":160.0,"ss":36.0,"used":true,"gnssid":6,"svid":24,"health":1}]}
$GPGSV,3,1,12,04,48,216,19,07,24,303,19,08,32,195,40,16,64,046,34*74
$GPGSV,3,2,12,26,36,067,37,27,63,154,41,67,21,229,23,76,20,084,30*7C
$GPGSV,3,3,12,77,62,034,23,78,38,301,32,87,41,126,43,88,16,160,36*72
{"class":"SKY","time":"2021-02-23T18:04:33.000Z","xdop":0.59,"ydop":0.74,"vdop":99.99,"tdop":0.32,"hdop":99.99,"gdop":0.32,"pdop":99.99,"nSat":14,"uSat":10,"satellites":[{"PRN":4,"el":48.0,"az":216.0,"ss":19.0,"used":true,"gnssid":0,"svid":4,"health":1},{"PRN":7,"el":24.0,"az":303.0,"ss":19.0,"used":false,"gnssid":0,"svid":7,"health":1},{"PRN":8,"el":32.0,"az":195.0,"ss":40.0,"used":true,"gnssid":0,"svid":8,"health":1},{"PRN":9,"az":0.0,"ss":25.0,"used":false,"gnssid":0,"svid":9},{"PRN":16,"el":64.0,"az":46.0,"ss":34.0,"used":true,"gnssid":0,"svid":16,"health":1},{"PRN":26,"el":36.0,"az":67.0,"ss":37.0,"used":true,"gnssid":0,"svid":26,"health":1},{"PRN":27,"el":63.0,"az":154.0,"ss":41.0,"used":true,"gnssid":0,"svid":27,"health":1},{"PRN":31,"az":0.0,"ss":8.0,"used":false,"gnssid":0,"svid":31},{"PRN":67,"el":21.0,"az":229.0,"ss":23.0,"used":true,"gnssid":6,"svid":3,"health":1},{"PRN":76,"el":20.0,"az":84.0,"ss":30.0,"used":true,"gnssid":6,"svid":12,"health":1},{"PRN":77,"el":62.0,"az":34.0,"ss":23.0,"used":false,"gnssid":6,"svid":13,"health":1},{"PRN":78,"el":38.0,"az":301.0,"ss":32.0,"used":true,"gnssid":6,"svid":14,"health":1},{"PRN":87,"el":41.0,"az":126.0,"ss":43.0,"used":true,"gnssid":6,"svid":23,"health":1},{"PRN":88,"el":16.0,"az":160.0,"ss":36.0,"used":true,"gnssid":6,"svid":24,"health":1}]}
$GPGSV,3,1,12,04,48,216,20,07,24,303,19,08,32,195,40,16,64,046,34*7E
$GPGSV,3,2,12,26,36,067,37,27,63,154,41,67,21,229,22,76,20,084,30*7D
$GPGSV,3,3,12,77,62,034,22,78,38,301,32,87,41,126,42,88,16,160,35*71
{"class":"SKY","time":"2021-02-23T18:04:34.000Z","xdop":0.59,"ydop":0.74,"vdop":99.99,"tdop":0.32,"hdop":99.99,"gdop":0.32,"pdop":99.99,"nSat":14,"uSat":10,"satellites":[{"PRN":4,"el":48.0,"az":216.0,"ss":20.0,"used":true,"gnssid":0,"svid":4,"health":1},{"PRN":7,"el":24.0,"az":303.0,"ss":19.0,"used":false,"gnssid":0,"svid":7,"health":1},{"PRN":8,"el":32.0,"az":195.0,"ss":40.0,"used":true,"gnssid":0,"svid":8,"health":1},{"PRN":9,"az":0.0,"ss":24.0,"used":false,"gnssid":0,"svid":9},{"PRN":16,"el":64.0,"az":46.0,"ss":34.0,"used":true,"gnssid":0,"svid":16,"health":1},{"PRN":26,"el":36.0,"az":67.0,"ss":37.0,"used":true,"gnssid":0,"svid":26,"health":1},{"PRN":27,"el":63.0,"az":154.0,"ss":41.0,"used":true,"gnssid":0,"svid":27,"health":1},{"PRN":31,"az":0.0,"ss":9.0,"used":false,"gnssid":0,"svid":31},{"PRN":67,"el":21.0,"az":229.0,"ss":22.0,"used":true,"gnssid":6,"svid":3,"health":1},{"PRN":76,"el":20.0,"az":84.0,"ss":30.0,"used":true,"gnssid":6,"svid":12,"health":1},{"PRN":77,"el":62.0,"az":34.0,"ss":22.0,"used":false,"gnssid":6,"svid":13,"health":1},{"PRN":78,"el":38.0,"az":301.0,"ss":32.0,"used":true,"gnssid":6,"svid":14,"health":1},{"PRN":87,"el":41.0,"az":126.0,"ss":42.0,"used":true,"gnssid":6,"svid":23,"health":1},{"PRN":88,"el":16.0,"az":160.0,"ss":35.0,"used":true,"gnssid":6,"svid":24,"health":1}]}
$GPGSV,3,1,12,04,48,216,21,07,24,303,18,08,32,195,40,16,64,046,34*7E
$GPGSV,3,2,12,26,36,067,37,27,63,154,41,67,21,229,20,76,20,084,29*77
$GPGSV,3,3,12,77,62,034,21,78,38,301,30,87,41,126,40,88,16,160,33*74
{"class":"SKY","time":"2021-02-23T18:04:35.000Z","xdop":0.85,"ydop":1.06,"vdop":99.99,"tdop":0.32,"hdop":99.99,"gdop":0.32,"pdop":99.99,"nSat":14,"uSat":9,"satellites":[{"PRN":4,"el":48.0,"az":216.0,"ss":21.0,"used":true,"gnssid":0,"svid":4,"health":1},{"PRN":7,"el":24.0,"az":303.0,"ss":18.0,"used":false,"gnssid":0,"svid":7,"health":1},{"PRN":8,"el":32.0,"az":195.0,"ss":40.0,"used":true,"gnssid":0,"svid":8,"health":1},{"PRN":9,"az":0.0,"ss":25.0,"used":false,"gnssid":0,"svid":9},{"PRN":16,"el":64.0,"az":46.0,"ss":34.0,"used":true,"gnssid":0,"svid":16,"health":1},{"PRN":26,"el":36.0,"az":67.0,"ss":37.0,"used":true,"gnssid":0,"svid":26,"health":1},{"PRN":27,"el":63.0,"az":154.0,"ss":41.0,"used":true,"gnssid":0,"svid":27,"health":1},{"PRN":31,"az":0.0,"ss":8.0,"used":false,"gnssid":0,"svid":31},{"PRN":67,"el":21.0,"az":229.0,"ss":20.0,"used":true,"gnssid":6,"svid":3,"health":1},{"PRN":76,"el":20.0,"az":84.0,"ss":29.0,"used":true,"gnssid":6,"svid":12,"health":1},{"PRN":77,"el":62.0,"az":34.0,"ss":21.0,"used":false,"gnssid":6,"svid":13,"health":1},{"PRN":78,"el":38.0,"az":301.0,"ss":30.0,"used":false,"gnssid":6,"svid":14,"health":1},{"PRN":87,"el":41.0,"az":126.0,"ss":40.0,"used":true,"gnssid":6,"svid":23,"health":1},{"PRN":88,"el":16.0,"az":160.0,"ss":33.0,"used":true,"gnssid":6,"svid":24,"health":1}]}
$GPGSV,3,1,12,04,48,216,22,07,24,303,17,08,32,195,39,16,64,046,34*7C
$GPGSV,3,2,12,26,36,067,37,27,63,154,41,67,21,229,17,76,20,084,28*72
$GPGSV,3,3,12,77,62,034,20,78,38,301,30,87,41,126,41,88,16,160,33*74
{"class":"SKY","time":"2021-02-23T18:04:36.000Z","xdop":0.59,"ydop":0.74,"vdop":99.99,"tdop":0.33,"hdop":99.99,"gdop":0.33,"pdop":99.99,"nSat":13,"uSat":10,"satellites":[{"PRN":4,"el":48.0,"az":216.0,"ss":22.0,"used":true,"gnssid":0,"svid":4,"health":1},{"PRN":7,"el":24.0,"az":303.0,"ss":17.0,"used":false,"gnssid":0,"svid":7,"health":1},{"PRN":8,"el":32.0,"az":195.0,"ss":39.0,"used":true,"gnssid":0,"svid":8,"health":1},{"PRN":9,"az":0.0,"ss":24.0,"used":false,"gnssid":0,"svid":9},{"PRN":16,"el":64.0,"az":46.0,"ss":34.0,"used":true,"gnssid":0,"svid":16,"health":1},{"PRN":26,"el":36.0,"az":67.0,"ss":37.0,"used":true,"gnssid":0,"svid":26,"health":1},{"PRN":27,"el":63.0,"az":154.0,"ss":41.0,"used":true,"gnssid":0,"svid":27,"health":1},{"PRN":67,"el":21.0,"az":229.0,"ss":17.0,"used":true,"gnssid":6,"svid":3,"health":1},{"PRN":76,"el":20.0,"az":84.0,"ss":28.0,"used":true,"gnssid":6,"svid":12,"health":1},{"PRN":77,"el":62.0,"az":34.0,"ss":20.0,"used":false,"gnssid":6,"svid":13,"health":1},{"PRN":78,"el":38.0,"az":301.0,"ss":30.0,"used":true,"gnssid":6,"svid":14,"health":1},{"PRN":87,"el":41.0,"az":126.0,"ss":41.0,"used":true,"gnssid":6,"svid":23,"health":1},{"PRN":88,"el":16.0,"az":160.0,"ss":33.0,"used":true,"gnssid":6,"svid":24,"health":1}]}
$GPGSV,3,1,12,04,48,216,23,07,24,303,16,08,32,195,39,16,64,046,33*7B
$GPGSV,3,2,12,26,36,067,37,27,63,154,41,67,21,229,16,76,20,084,28*73
$GPGSV,3,3,12,77,62,034,20,78,38,301,29,87,41,126,41,88,16,160,32*7D
{"class":"SKY","time":"2021-02-23T18:04:37.000Z","xdop":0.59,"ydop":0.74,"vdop":99.99,"tdop":0.32,"hdop":99.99,"gdop":0.32,"pdop":99.99,"nSat":13,"uSat":10,"satellites":[{"PRN":4,"el":48.0,"az":216.0,"ss":23.0,"used":true,"gnssid":0,"svid":4,"health":1},{"PRN":7,"el":24.0,"az":303.0,"ss":16.0,"used":false,"gnssid":0,"svid":7,"health":1},{"PRN":8,"el":32.0,"az":195.0,"ss":39.0,"used":true,"gnssid":0,"svid":8,"health":1},{"PRN":9,"az":0.0,"ss":23.0,"used":false,"gnssid":0,"svid":9},{"PRN":16,"el":64.0,"az":46.0,"ss":33.0,"used":true,"gnssid":0,"svid":16,"health":1},{"PRN":26,"el":36.0,"az":67.0,"ss":37.0,"used":true,"gnssid":0,"svid":26,"health":1},{"PRN":27,"el":63.0,"az":154.0,"ss":41.0,"used":true,"gnssid":0,"svid":27,"health":1},{"PRN":67,"el":21.0,"az":229.0,"ss":16.0,"used":true,"gnssid":6,"svid":3,"health":1},{"PRN":76,"el":20.0,"az":84.0,"ss":28.0,"used":true,"gnssid":6,"svid":12,"health":1},{"PRN":77,"el":62.0,"az":34.0,"ss":20.0,"used":false,"gnssid":6,"svid":13,"health":1},{"PRN":78,"el":38.0,"az":301.0,"ss":29.0,"used":true,"gnssid":6,"svid":14,"health":1},{"PRN":87,"el":41.0,"az":126.0,"ss":41.0,"used":true,"gnssid":6,"svid":23,"health":1},{"PRN":88,"el":16.0,"az":160.0,"ss":32.0,"used":true,"gnssid":6,"svid":24,"health":1}]}
$GPGSV,3,1,12,04,48,216,24,07,24,303,16,08,32,195,39,16,64,046,33*7C
$GPGSV,3,2,12,26,36,067,36,27,63,154,40,67,21,229,17,76,20,084,29*73
$GPGSV,3,3,12,77,62,034,20,78,38,301,29,87,41,126,41,88,16,160,33*7C
{"class":"SKY","time":"2021-02-23T18:04:38.000Z","xdop":0.59,"ydop":0.74,"vdop":99.99,"tdop":0.32,"hdop":99.99,"gdop":0.32,"pdop":99.99,"nSat":13,"uSat":10,"satellites":[{"PRN":4,"el":48.0,"az":216.0,"ss":24.0,"used":true,"gnssid":0,"svid":4,"health":1},{"PRN":7,"el":24.0,"az":303.0,"ss":16.0,"used":false,"gnssid":0,"svid":7,"health":1},{"PRN":8,"el":32.0,"az":195.0,"ss":39.0,"used":true,"gnssid":0,"svid":8,"health":1},{"PRN":9,"az":0.0,"ss":23.0,"used":false,"gnssid":0,"svid":9},{"PRN":16,"el":64.0,"az":46.0,"ss":33.0,"used":true,"gnssid":0,"svid":16,"health":1},{"PRN":26,"el":36.0,"az":67.0,"ss":36.0,"used":true,"gnssid":0,"svid":26,"health":1},{"PRN":27,"el":63.0,"az":154.0,"ss":40.0,"used":true,"gnssid":0,"svid":27,"health":1},{"PRN":67,"el":21.0,"az":229.0,"ss":17.0,"used":true,"gnssid":6,"svid":3,"health":1},{"PRN":76,"el":20.0,"az":84.0,"ss":29.0,"used":true,"gnssid":6,"svid":12,"health":1},{"PRN":77,"el":62.0,"az":34.0,"ss":20.0,"used":false,"gnssid":6,"svid":13,"health":1},{"PRN":78,"el":38.0,"az":301.0,"ss":29.0,"used":true,"gnssid":6,"svid":14,"health":1},{"PRN":87,"el":41.0,"az":126.0,"ss":41.0,"used":true,"gnssid":6,"svid":23,"health":1},{"PRN":88,"el":16.0,"az":160.0,"ss":33.0,"used":true,"gnssid":6,"svid":24,"health":1}]}
$GPGSV,3,1,12,04,48,216,25,07,24,303,16,08,32,195,39,16,64,046,33*7D
$GPGSV,3,2,12,26,36,067,37,27,63,154,40,67,21,229,17,76,20,084,30*7A
$GPGSV,3,3,12,77,62,035,21,78,38,301,28,87,41,126,41,88,16,160,33*7D
{"class":"SKY","time":"2021-02-23T18:04:39.000Z","xdop":0.59,"ydop":0.74,"vdop":99.99,"tdop":0.32,"hdop":99.99,"gdop":0.32,"pdop":99.99,"nSat":13,"uSat":10,"satellites":[{"PRN":4,"el":48.0,"az":216.0,"ss":25.0,"used":true,"gnssid":0,"svid":4,"health":1},{"PRN":7,"el":24.0,"az":303.0,"ss":16.0,"used":false,"gnssid":0,"svid":7,"health":1},{"PRN":8,"el":32.0,"az":195.0,"ss":39.0,"used":true,"gnssid":0,"svid":8,"health":1},{"PRN":9,"az":0.0,"ss":23.0,"used":false,"gnssid":0,"svid":9},{"PRN":16,"el":64.0,"az":46.0,"ss":33.0,"used":true,"gnssid":0,"svid":16,"health":1},{"PRN":26,"el":36.0,"az":67.0,"ss":37.0,"used":true,"gnssid":0,"svid":26,"health":1},{"PRN":27,"el":63.0,"az":154.0,"ss":40.0,"used":true,"gnssid":0,"svid":27,"health":1},{"PRN":67,"el":21.0,"az":229.0,"ss":17.0,"used":true,"gnssid":6,"svid":3,"health":1},{"PRN":76,"el":20.0,"az":84.0,"ss":30.0,"used":true,"gnssid":6,"svid":12,"health":1},{"PRN":77,"el":62.0,"az":35.0,"ss":21.0,"used":false,"gnssid":6,"svid":13,"health":1},{"PRN":78,"el":38.0,"az":301.0,"ss":28.0,"used":true,"gnssid":6,"svid":14,"health":1},{"PRN":87,"el":41.0,"az":126.0,"ss":41.0,"used":true,"gnssid":6,"svid":23,"health":1},{"PRN":88,"el":16.0,"az":160.0,"ss":33.0,"used":true,"gnssid":6,"svid":24,"health":1}]}
$GPGSV,3,1,12,04,48,216,26,07,24,303,15,08,32,195,38,16,64,046,32*7D
$GPGSV,3,2,12,26,36,067,37,27,63,154,40,67,21,229,16,76,20,084,31*7A
$GPGSV,3,3,12,77,62,035,21,78,38,301,28,87,41,126,41,88,16,160,33*7D
{"class":"SKY","time":"2021-02-23T18:04:40.000Z","xdop":0.59,"ydop":0.74,"vdop":99.99,"tdop":0.32,"hdop":99.99,"gdop":0.32,"pdop":99.99,"nSat":13,"uSat":10,"satellites":[{"PRN":4,"el":48.0,"az":216.0,"ss":26.0,"used":true,"gnssid":0,"svid":4,"health":1},{"PRN":7,"el":24.0,"az":303.0,"ss":15.0,"used":false,"gnssid":0,"svid":7,"health":1},{"PRN":8,"el":32.0,"az":195.0,"ss":38.0,"used":true,"gnssid":0,"svid":8,"health":1},{"PRN":9,"az":0.0,"ss":22.0,"used":false,"gnssid":0,"svid":9},{"PRN":16,"el":64.0,"az":46.0,"ss":32.0,"used":true,"gnssid":0,"svid":16,"health":1},{"PRN":26,"el":36.0,"az":67.0,"ss":37.0,"used":true,"gnssid":0,"svid":26,"health":1},{"PRN":27,"el":63.0,"az":154.0,"ss":40.0,"used":true,"gnssid":0,"svid":27,"health":1},{"PRN":67,"el":21.0,"az":229.0,"ss":16.0,"used":true,"gnssid":6,"svid":3,"health":1},{"PRN":76,"el":20.0,"az":84.0,"ss":31.0,"used":true,"gnssid":6,"svid":12,"health":1},{"PRN":77,"el":62.0,"az":35.0,"ss":21.0,"used":false,"gnssid":6,"svid":13,"health":1},{"PRN":78,"el":38.0,"az":301.0,"ss":28.0,"used":true,"gnssid":6,"svid":14,"health":1},{"PRN":87,"el":41.0,"az":126.0,"ss":41.0,"used":true,"gnssid":6,"svid":23,"health":1},{"PRN":88,"el":16.0,"az":160.0,"ss":33.0,"used":true,"gnssid":6,"svid":24,"health":1}]}
$GPGSV,3,1,12,04,48,216,27,07,24,303,16,08,32,195,38,16,64,046,32*7F
$GPGSV,3,2,12,26,36,067,37,27,63,154,41,67,21,229,16,76,20,084,31*7B
$GPGSV,3,3,12,77,62,035,20,78,38,301,28,87,41,126,41,88,16,160,33*7C
{"class":"SKY","time":"2021-02-23T18:04:41.000Z","xdop":0.59,"ydop":0.74,"vdop":99.99,"tdop":0.32,"hdop":99.99,"gdop":0.32,"pdop":99.99,"nSat":13,"uSat":10,"satellites":[{"PRN":4,"el":48.0,"az":216.0,"ss":27.0,"used":true,"gnssid":0,"svid":4,"health":1},{"PRN":7,"el":24.0,"az":303.0,"ss":16.0,"used":false,"gnssid":0,"svid":7,"health":1},{"PRN":8,"el":32.0,"az":195.0,"ss":38.0,"used":true,"gnssid":0,"svid":8,"health":1},{"PRN":9,"az":0.0,"ss":21.0,"used":false,"gnssid":0,"svid":9},{"PRN":16,"el":64.0,"az":46.0,"ss":32.0,"used":true,"gnssid":0,"svid":16,"health":1},{"PRN":26,"el":36.0,"az":67.0,"ss":37.0,"used":true,"gnssid":0,"svid":26,"health":1},{"PRN":27,"el":63.0,"az":154.0,"ss":41.0,"used":true,"gnssid":0,"svid":27,"health":1},{"PRN":67,"el":21.0,"az":229.0,"ss":16.0,"used":true,"gnssid":6,"svid":3,"health":1},{"PRN":76,"el":20.0,"az":84.0,"ss":31.0,"used":true,"gnssid":6,"svid":12,"health":1},{"PRN":77,"el":62.0,"az":35.0,"ss":20.0,"used":false,"gnssid":6,"svid":13,"health":1},{"PRN":78,"el":38.0,"az":301.0,"ss":28.0,"used":true,"gnssid":6,"svid":14,"health":1},{"PRN":87,"el":41.0,"az":126.0,"ss":41.0,"used":true,"gnssid":6,"svid":23,"health":1},{"PRN":88,"el":16.0,"az":160.0,"ss":33.0,"used":true,"gnssid":6,"svid":24,"health":1}]}
$GPGSV,3,1,12,04,48,216,28,07,24,303,15,08,32,195,37,16,64,046,31*7F
$GPGSV,3,2,12,26,36,067,37,27,63,154,41,67,21,229,15,76,20,084,31*78
$GPGSV,3,3,12,77,62,035,20,78,38,301,27,87,41,126,41,88,16,160,34*74
{"class":"SKY","time":"2021-02-23T18:04:42.000Z","xdop":0.59,"ydop":0.74,"vdop":99.99,"tdop":0.32,"hdop":99.99,"gdop":0.32,"pdop":99.99,"nSat":13,"uSat":10,"satellites":[{"PRN":4,"el":48.0,"az":216.0,"ss":28.0,"used":true,"gnssid":0,"svid":4,"health":1},{"PRN":7,"el":24.0,"az":303.0,"ss":15.0,"used":false,"gnssid":0,"svid":7,"health":1},{"PRN":8,"el":32.0,"az":195.0,"ss":37.0,"used":true,"gnssid":0,"svid":8,"health":1},{"PRN":9,"az":0.0,"ss":19.0,"used":false,"gnssid":0,"svid":9},{"PRN":16,"el":64.0,"az":46.0,"ss":31.0,"used":true,"gnssid":0,"svid":16,"health":1},{"PRN":26,"el":36.0,"az":67.0,"ss":37.0,"used":true,"gnssid":0,"svid":26,"health":1},{"PRN":27,"el":63.0,"az":154.0,"ss":41.0,"used":true,"gnssid":0,"svid":27,"health":1},{"PRN":67,"el":21.0,"az":229.0,"ss":15.0,"used":true,"gnssid":6,"svid":3,"health":1},{"PRN":76,"el":20.0,"az":84.0,"ss":31.0,"used":true,"gnssid":6,"svid":12,"health":1},{"PRN":77,"el":62.0,"az":35.0,"ss":20.0,"used":false,"gnssid":6,"svid":13,"health":1},{"PRN":78,"el":38.0,"az":301.0,"ss":27.0,"used":true,"gnssid":6,"svid":14,"health":1},{"PRN":87,"el":41.0,"az":126.0,"ss":41.0,"used":true,"gnssid":6,"svid":23,"health":1},{"PRN":88,"el":16.0,"az":160.0,"ss":34.0,"used":true,"gnssid":6,"svid":24,"health":1}]}
$GPGSV,3,1,12,04,48,216,28,07,24,303,16,08,32,195,37,16,64,046,31*7C
$GPGSV,3,2,12,26,36,067,37,27,63,154,41,67,21,229,14,76,20,084,30*78
$GPGSV,3,3,12,77,62,035,19,78,38,301,27,87,41,126,41,88,16,160,34*7E
{"class":"SKY","time":"2021-02-23T18:04:43.000Z","xdop":0.52,"ydop":0.61,"vdop":99.99,"tdop":0.32,"hdop":99.99,"gdop":0.32,"pdop":99.99,"nSat":13,"uSat":11,"satellites":[{"PRN":4,"el":48.0,"az":216.0,"ss":28.0,"used":true,"gnssid":0,"svid":4,"health":1},{"PRN":7,"el":24.0,"az":303.0,"ss":16.0,"used":true,"gnssid":0,"svid":7,"health":1},{"PRN":8,"el":32.0,"az":195.0,"ss":37.0,"used":true,"gnssid":0,"svid":8,"health":1},{"PRN":9,"az":0.0,"ss":17.0,"used":false,"gnssid":0,"svid":9},{"PRN":16,"el":64.0,"az":46.0,"ss":31.0,"used":true,"gnssid":0,"svid":16,"health":1},{"PRN":26,"el":36.0,"az":67.0,"ss":37.0,"used":true,"gnssid":0,"svid":26,"health":1},{"PRN":27,"el":63.0,"az":154.0,"ss":41.0,"used":true,"gnssid":0,"svid":27,"health":1},{"PRN":67,"el":21.0,"az":229.0,"ss":14.0,"used":true,"gnssid":6,"svid":3,"health":1},{"PRN":76,"el":20.0,"az":84.0,"ss":30.0,"used":true,"gnssid":6,"svid":12,"health":1},{"PRN":77,"el":62.0,"az":35.0,"ss":19.0,"used":false,"gnssid":6,"svid":13,"health":1},{"PRN":78,"el":38.0,"az":301.0,"ss":27.0,"used":true,"gnssid":6,"svid":14,"health":1},{"PRN":87,"el":41.0,"az":126.0,"ss":41.0,"used":true,"gnssid":6,"svid":23,"health":1},{"PRN":88,"el":16.0,"az":160.0,"ss":34.0,"used":true,"gnssid":6,"svid":24,"health":1}]}
$GPGSV,3,1,12,04,48,216,28,07,24,303,17,08,32,195,36,16,64,046,30*7D
$GPGSV,3,2,12,26,36,067,37,27,63,154,41,67,21,229,15,76,20,084,30*79
$GPGSV,3,3,12,77,62,035,19,78,38,301,27,87,41,126,41,88,16,160,34*7E
{"class":"SKY","time":"2021-02-23T18:04:44.000Z","xdop":0.52,"ydop":0.61,"vdop":99.99,"tdop":0.30,"hdop":99.99,"gdop":0.30,"pdop":99.99,"nSat":13,"uSat":11,"satellites":[{"PRN":4,"el":48.0,"az":216.0,"ss":28.0,"used":true,"gnssid":0,"svid":4,"health":1},{"PRN":7,"el":24.0,"az":303.0,"ss":17.0,"used":true,"gnssid":0,"svid":7,"health":1},{"PRN":8,"el":32.0,"az":195.0,"ss":36.0,"used":true,"gnssid":0,"svid":8,"health":1},{"PRN":9,"az":0.0,"ss":14.0,"used":false,"gnssid":0,"svid":9},{"PRN":16,"el":64.0,"az":46.0,"ss":30.0,"used":true,"gnssid":0,"svid":16,"health":1},{"PRN":26,"el":36.0,"az":67.0,"ss":37.0,"used":true,"gnssid":0,"svid":26,"health":1},{"PRN":27,"el":63.0,"az":154.0,"ss":41.0,"used":true,"gnssid":0,"svid":27,"health":1},{"PRN":67,"el":21.0,"az":229.0,"ss":15.0,"used":true,"gnssid":6,"svid":3,"health":1},{"PRN":76,"el":20.0,"az":84.0,"ss":30.0,"used":true,"gnssid":6,"svid":12,"health":1},{"PRN":77,"el":62.0,"az":35.0,"ss":19.0,"used":false,"gnssid":6,"svid":13,"health":1},{"PRN":78,"el":38.0,"az":301.0,"ss":27.0,"used":true,"gnssid":6,"svid":14,"health":1},{"PRN":87,"el":41.0,"az":126.0,"ss":41.0,"used":true,"gnssid":6,"svid":23,"health":1},{"PRN":88,"el":16.0,"az":160.0,"ss":34.0,"used":true,"gnssid":6,"svid":24,"health":1}]}
$GPGSV,3,1,12,04,48,216,28,07,24,303,18,08,32,195,36,16,64,046,30*72
$GPGSV,3,2,12,26,36,067,37,27,63,154,41,67,21,229,13,76,20,084,29*77
$GPGSV,3,3,12,77,62,035,19,78,38,301,26,87,41,126,41,88,16,160,34*7F
{"class":"SKY","time":"2021-02-23T18:04:45.000Z","xdop":0.52,"ydop":0.61,"vdop":99.99,"tdop":0.30,"hdop":99.99,"gdop":0.30,"pdop":99.99,"nSat":13,"uSat":11,"satellites":[{"PRN":4,"el":48.0,"az":216.0,"ss":28.0,"used":true,"gnssid":0,"svid":4,"health":1},{"PRN":7,"el":24.0,"az":303.0,"ss":18.0,"used":true,"gnssid":0,"svid":7,"health":1},{"PRN":8,"el":32.0,"az":195.0,"ss":36.0,"used":true,"gnssid":0,"svid":8,"health":1},{"PRN":9,"az":0.0,"ss":10.0,"used":false,"gnssid":0,"svid":9},{"PRN":16,"el":64.0,"az":46.0,"ss":30.0,"used":true,"gnssid":0,"svid":16,"health":1},{"PRN":26,"el":36.0,"az":67.0,"ss":37.0,"used":true,"gnssid":0,"svid":26,"health":1},{"PRN":27,"el":63.0,"az":154.0,"ss":41.0,"used":true,"gnssid":0,"svid":27,"health":1},{"PRN":67,"el":21.0,"az":229.0,"ss":13.0,"used":true,"gnssid":6,"svid":3,"health":1},{"PRN":76,"el":20.0,"az":84.0,"ss":29.0,"used":true,"gnssid":6,"svid":12,"health":1},{"PRN":77,"el":62.0,"az":35.0,"ss":19.0,"used":false,"gnssid":6,"svid":13,"health":1},{"PRN":78,"el":38.0,"az":301.0,"ss":26.0,"used":true,"gnssid":6,"svid":14,"health":1},{"PRN":87,"el":41.0,"az":126.0,"ss":41.0,"used":true,"gnssid":6,"svid":23,"health":1},{"PRN":88,"el":16.0,"az":160.0,"ss":34.0,"used":true,"gnssid":6,"svid":24,"health":1}]}
$GPGSV,3,1,12,04,48,216,29,07,24,303,19,08,32,195,36,16,64,046,30*72
$GPGSV,3,2,12,26,36,067,37,27,63,154,42,67,21,229,13,76,20,084,29*74
$GPGSV,3,3,12,77,62,035,18,78,38,301,26,87,41,126,41,88,16,160,34*7E
{"class":"SKY","time":"2021-02-23T18:04:46.000Z","xdop":0.52,"ydop":0.61,"vdop":99.99,"tdop":0.30,"hdop":99.99,"gdop":0.30,"pdop":99.99,"nSat":13,"uSat":11,"satellites":[{"PRN":4,"el":48.0,"az":216.0,"ss":29.0,"used":true,"gnssid":0,"svid":4,"health":1},{"PRN":7,"el":24.0,"az":303.0,"ss":19.0,"used":true,"gnssid":0,"svid":7,"health":1},{"PRN":8,"el":32.0,"az":195.0,"ss":36.0,"used":true,"gnssid":0,"svid":8,"health":1},{"PRN":9,"az":0.0,"ss":8.0,"used":false,"gnssid":0,"svid":9},{"PRN":16,"el":64.0,"az":46.0,"ss":30.0,"used":true,"gnssid":0,"svid":16,"health":1},{"PRN":26,"el":36.0,"az":67.0,"ss":37.0,"used":true,"gnssid":0,"svid":26,"health":1},{"PRN":27,"el":63.0,"az":154.0,"ss":42.0,"used":true,"gnssid":0,"svid":27,"health":1},{"PRN":67,"el":21.0,"az":229.0,"ss":13.0,"used":true,"gnssid":6,"svid":3,"health":1},{"PRN":76,"el":20.0,"az":84.0,"ss":29.0,"used":true,"gnssid":6,"svid":12,"health":1},{"PRN":77,"el":62.0,"az":35.0,"ss":18.0,"used":false,"gnssid":6,"svid":13,"health":1},{"PRN":78,"el":38.0,"az":301.0,"ss":26.0,"used":true,"gnssid":6,"svid":14,"health":1},{"PRN":87,"el":41.0,"az":126.0,"ss":41.0,"used":true,"gnssid":6,"svid":23,"health":1},{"PRN":88,"el":16.0,"az":160.0,"ss":34.0,"used":true,"gnssid":6,"svid":24,"health":1}]}
$GPGSV,3,1,12,04,48,216,29,07,24,303,19,08,32,195,36,16,64,046,30*72
$GPGSV,3,2,12,26,36,067,37,27,63,154,42,67,21,229,12,76,20,084,28*74
$GPGSV,3,3,12,77,62,035,18,78,38,301,27,87,41,126,41,88,16,160,34*7F
{"class":"SKY","time":"2021-02-23T18:04:47.000Z","xdop":0.52,"ydop":0.61,"vdop":99.99,"tdop":0.30,"hdop":99.99,"gdop":0.30,"pdop":99.99,"nSat":14,"uSat":11,"satellites":[{"PRN":4,"el":48.0,"az":216.0,"ss":29.0,"used":true,"gnssid":0,"svid":4,"health":1},{"PRN":7,"el":24.0,"az":303.0,"ss":19.0,"used":true,"gnssid":0,"svid":7,"health":1},{"PRN":8,"el":32.0,"az":195.0,"ss":36.0,"used":true,"gnssid":0,"svid":8,"health":1},{"PRN":9,"az":0.0,"ss":9.0,"used":false,"gnssid":0,"svid":9},{"PRN":14,"az":0.0,"ss":0.0,"used":false,"gnssid":0,"svid":14},{"PRN":16,"el":64.0,"az":46.0,"ss":30.0,"used":true,"gnssid":0,"svid":16,"health":1},{"PRN":26,"el":36.0,"az":67.0,"ss":37.0,"used":true,"gnssid":0,"svid":26,"health":1},{"PRN":27,"el":63.0,"az":154.0,"ss":42.0,"used":true,"gnssid":0,"svid":27,"health":1},{"PRN":67,"el":21.0,"az":229.0,"ss":12.0,"used":true,"gnssid":6,"svid":3,"health":1},{"PRN":76,"el":20.0,"az":84.0,"ss":28.0,"used":true,"gnssid":6,"svid":12,"health":1},{"PRN":77,"el":62.0,"az":35.0,"ss":18.0,"used":false,"gnssid":6,"svid":13,"health":1},{"PRN":78,"el":38.0,"az":301.0,"ss":27.0,"used":true,"gnssid":6,"svid":14,"health":1},{"PRN":87,"el":41.0,"az":126.0,"ss":41.0,"used":true,"gnssid":6,"svid":23,"health":1},{"PRN":88,"el":16.0,"az":160.0,"ss":34.0,"used":true,"gnssid":6,"svid":24,"health":1}]}
$GPGSV,3,1,12,04,48,216,29,07,24,303,19,08,32,195,36,16,64,046,30*72
$GPGSV,3,2,12,26,36,067,38,27,63,154,42,67,21,229,11,76,20,084,28*78
$GPGSV,3,3,12,77,62,035,17,78,38,301,27,87,42,126,40,88,16,160,34*72
{"class":"SKY","time":"2021-02-23T18:04:48.000Z","xdop":0.52,"ydop":0.61,"vdop":99.99,"tdop":0.30,"hdop":99.99,"gdop":0.30,"pdop":99.99,"nSat":14,"uSat":11,"satellites":[{"PRN":4,"el":48.0,"az":216.0,"ss":29.0,"used":true,"gnssid":0,"svid":4,"health":1},{"PRN":7,"el":24.0,"az":303.0,"ss":19.0,"used":true,"gnssid":0,"svid":7,"health":1},{"PRN":8,"el":32.0,"az":195.0,"ss":36.0,"used":true,"gnssid":0,"svid":8,"health":1},{"PRN":9,"az":0.0,"ss":13.0,"used":false,"gnssid":0,"svid":9},{"PRN":14,"az":0.0,"ss":0.0,"used":false,"gnssid":0,"svid":14},{"PRN":16,"el":64.0,"az":46.0,"ss":30.0,"used":true,"gnssid":0,"svid":16,"health":1},{"PRN":26,"el":36.0,"az":67.0,"ss":38.0,"used":true,"gnssid":0,"svid":26,"health":1},{"PRN":27,"el":63.0,"az":154.0,"ss":42.0,"used":true,"gnssid":0,"svid":27,"health":1},{"PRN":67,"el":21.0,"az":229.0,"ss":11.0,"used":true,"gnssid":6,"svid":3,"health":1},{"PRN":76,"el":20.0,"az":84.0,"ss":28.0,"used":true,"gnssid":6,"svid":12,"health":1},{"PRN":77,"el":62.0,"az":35.0,"ss":17.0,"used":false,"gnssid":6,"svid":13,"health":1},{"PRN":78,"el":38.0,"az":301.0,"ss":27.0,"used":true,"gnssid":6,"svid":14,"health":1},{"PRN":87,"el":42.0,"az":126.0,"ss":40.0,"used":true,"gnssid":6,"svid":23,"health":1},{"PRN":88,"el":16.0,"az":160.0,"ss":34.0,"used":true,"gnssid":6,"svid":24,"health":1}]}
$GPGSV,4,1,13,04,48,216,29,07,24,303,20,08,32,195,36,16,64,046,31*7F
$GPGSV,4,2,13,26,36,067,38,27,63,154,41,67,21,229,10,76,20,084,28*7C
$GPGSV,4,3,13,77,62,035,16,78,38,301,27,86,30,038,00,87,42,126,40*74
$GPGSV,4,4,13,88,16,160,34*4C
{"class":"SKY","time":"2021-02-23T18:04:49.000Z","xdop":0.57,"ydop":0.63,"vdop":99.99,"tdop":0.30,"hdop":99.99,"gdop":0.30,"pdop":99.99,"nSat":15,"uSat":10,"satellites":[{"PRN":4,"el":48.0,"az":216.0,"ss":29.0,"used":true,"gnssid":0,"svid":4,"health":1},{"PRN":7,"el":24.0,"az":303.0,"ss":20.0,"used":true,"gnssid":0,"svid":7,"health":1},{"PRN":8,"el":32.0,"az":195.0,"ss":36.0,"used":true,"gnssid":0,"svid":8,"health":1},{"PRN":9,"az":0.0,"ss":17.0,"used":false,"gnssid":0,"svid":9},{"PRN":14,"az":0.0,"ss":0.0,"used":false,"gnssid":0,"svid":14},{"PRN":16,"el":64.0,"az":46.0,"ss":31.0,"used":true,"gnssid":0,"svid":16,"health":1},{"PRN":26,"el":36.0,"az":67.0,"ss":38.0,"used":true,"gnssid":0,"svid":26,"health":1},{"PRN":27,"el":63.0,"az":154.0,"ss":41.0,"used":true,"gnssid":0,"svid":27,"health":1},{"PRN":67,"el":21.0,"az":229.0,"ss":10.0,"used":false,"gnssid":6,"svid":3,"health":1},{"PRN":76,"el":20.0,"az":84.0,"ss":28.0,"used":true,"gnssid":6,"svid":12,"health":1},{"PRN":77,"el":62.0,"az":35.0,"ss":16.0,"used":false,"gnssid":6,"svid":13,"health":1},{"PRN":78,"el":38.0,"az":301.0,"ss":27.0,"used":true,"gnssid":6,"svid":14,"health":1},{"PRN":86,"el":30.0,"az":38.0,"ss":0.0,"used":false,"gnssid":6,"svid":22,"health":1},{"PRN":87,"el":42.0,"az":126.0,"ss":40.0,"used":true,"gnssid":6,"svid":23,"health":1},{"PRN":88,"el":16.0,"az":160.0,"ss":34.0,"used":true,"gnssid":6,"svid":24,"health":1}]}
$GPGSV,4,1,13,04,48,216,29,07,24,303,20,08,32,195,37,16,64,046,32*7D
$GPGSV,4,2,13,26,36,067,38,27,63,154,41,67,21,229,09,76,20,084,29*75
$GPGSV,4,3,13,77,62,035,15,78,38,301,27,86,30,038,00,87,42,126,40*77
$GPGSV,4,4,13,88,16,160,35*4D
{"class":"SKY","time":"2021-02-23T18:04:50.000Z","xdop":0.57,"ydop":0.63,"vdop":99.99,"tdop":0.32,"hdop":99.99,"gdop":0.32,"pdop":99.99,"nSat":15,"uSat":10,"satellites":[{"PRN":4,"el":48.0,"az":216.0,"ss":29.0,"used":true,"gnssid":0,"svid":4,"health":1},{"PRN":7,"el":24.0,"az":303.0,"ss":20.0,"used":true,"gnssid":0,"svid":7,"health":1},{"PRN":8,"el":32.0,"az":195.0,"ss":37.0,"used":true,"gnssid":0,"svid":8,"health":1},{"PRN":9,"az":0.0,"ss":20.0,"used":false,"gnssid":0,"svid":9},{"PRN":14,"az":0.0,"ss":0.0,"used":false,"gnssid":0,"svid":14},{"PRN":16,"el":64.0,"az":46.0,"ss":32.0,"used":true,"gnssid":0,"svid":16,"health":1},{"PRN":26,"el":36.0,"az":67.0,"ss":38.0,"used":true,"gnssid":0,"svid":26,"health":1},{"PRN":27,"el":63.0,"az":154.0,"ss":41.0,"used":true,"gnssid":0,"svid":27,"health":1},{"PRN":67,"el":21.0,"az":229.0,"ss":9.0,"used":false,"gnssid":6,"svid":3,"health":1},{"PRN":76,"el":20.0,"az":84.0,"ss":29.0,"used":true,"gnssid":6,"svid":12,"health":1},{"PRN":77,"el":62.0,"az":35.0,"ss":15.0,"used":false,"gnssid":6,"svid":13,"health":1},{"PRN":78,"el":38.0,"az":301.0,"ss":27.0,"used":true,"gnssid":6,"svid":14,"health":1},{"PRN":86,"el":30.0,"az":38.0,"ss":0.0,"used":false,"gnssid":6,"svid":22,"health":1},{"PRN":87,"el":42.0,"az":126.0,"ss":40.0,"used":true,"gnssid":6,"svid":23,"health":1},{"PRN":88,"el":16.0,"az":160.0,"ss":35.0,"used":true,"gnssid":6,"svid":24,"health":1}]}
$GPGSV,4,1,13,04,48,216,29,07,24,303,21,08,32,195,37,16,64,046,32*7C
$GPGSV,4,2,13,26,36,067,38,27,63,154,41,67,21,229,09,76,20,084,30*7D
$GPGSV,4,3,13,77,62,035,15,78,38,301,27,86,30,038,00,87,42,126,39*79
$GPGSV,4,4,13,88,16,160,35*4D
{"class":"SKY","time":"2021-02-23T18:04:51.000Z","xdop":0.57,"ydop":0.63,"vdop":99.99,"tdop":0.32,"hdop":99.99,"gdop":0.32,"pdop":99.99,"nSat":16,"uSat":10,"satellites":[{"PRN":4,"el":48.0,"az":216.0,"ss":29.0,"used":true,"gnssid":0,"svid":4,"health":1},{"PRN":7,"el":24.0,"az":303.0,"ss":21.0,"used":true,"gnssid":0,"svid":7,"health":1},{"PRN":8,"el":32.0,"az":195.0,"ss":37.0,"used":true,"gnssid":0,"svid":8,"health":1},{"PRN":9,"az":0.0,"ss":21.0,"used":false,"gnssid":0,"svid":9},{"PRN":14,"az":0.0,"ss":0.0,"used":false,"gnssid":0,"svid":14},{"PRN":16,"el":64.0,"az":46.0,"ss":32.0,"used":true,"gnssid":0,"svid":16,"health":1},{"PRN":18,"az":0.0,"ss":0.0,"used":false,"gnssid":0,"svid":18},{"PRN":26,"el":36.0,"az":67.0,"ss":38.0,"used":true,"gnssid":0,"svid":26,"health":1},{"PRN":27,"el":63.0,"az":154.0,"ss":41.0,"used":true,"gnssid":0,"svid":27,"health":1},{"PRN":67,"el":21.0,"az":229.0,"ss":9.0,"used":false,"gnssid":6,"svid":3,"health":1},{"PRN":76,"el":20.0,"az":84.0,"ss":30.0,"used":true,"gnssid":6,"svid":12,"health":1},{"PRN":77,"el":62.0,"az":35.0,"ss":15.0,"used":false,"gnssid":6,"svid":13,"health":1},{"PRN":78,"el":38.0,"az":301.0,"ss":27.0,"used":true,"gnssid":6,"svid":14,"health":1},{"PRN":86,"el":30.0,"az":38.0,"ss":0.0,"used":false,"gnssid":6,"svid":22,"health":1},{"PRN":87,"el":42.0,"az":126.0,"ss":39.0,"used":true,"gnssid":6,"svid":23,"health":1},{"PRN":88,"el":16.0,"az":160.0,"ss":35.0,"used":true,"gnssid":6,"svid":24,"health":1}]}
$GPGSV,4,1,13,04,48,216,29,07,24,303,21,08,32,195,37,16,64,046,33*7D
$GPGSV,4,2,13,26,36,067,39,27,63,154,41,67,21,229,12,76,20,084,31*77
$GPGSV,4,3,13,77,62,035,13,78,38,301,27,86,30,038,00,87,42,126,39*7F
$GPGSV,4,4,13,88,16,160,35*4D
{"class":"SKY","time":"2021-02-23T18:04:52.000Z","xdop":0.57,"ydop":0.63,"vdop":99.99,"tdop":0.32,"hdop":99.99,"gdop":0.32,"pdop":99.99,"nSat":16,"uSat":10,"satellites":[{"PRN":4,"el":48.0,"az":216.0,"ss":29.0,"used":true,"gnssid":0,"svid":4,"health":1},{"PRN":7,"el":24.0,"az":303.0,"ss":21.0,"used":true,"gnssid":0,"svid":7,"health":1},{"PRN":8,"el":32.0,"az":195.0,"ss":37.0,"used":true,"gnssid":0,"svid":8,"health":1},{"PRN":9,"az":0.0,"ss":20.0,"used":false,"gnssid":0,"svid":9},{"PRN":14,"az":0.0,"ss":0.0,"used":false,"gnssid":0,"svid":14},{"PRN":16,"el":64.0,"az":46.0,"ss":33.0,"used":true,"gnssid":0,"svid":16,"health":1},{"PRN":18,"az":0.0,"ss":27.0,"used":false,"gnssid":0,"svid":18},{"PRN":26,"el":36.0,"az":67.0,"ss":39.0,"used":true,"gnssid":0,"svid":26,"health":1},{"PRN":27,"el":63.0,"az":154.0,"ss":41.0,"used":true,"gnssid":0,"svid":27,"health":1},{"PRN":67,"el":21.0,"az":229.0,"ss":12.0,"used":false,"gnssid":6,"svid":3,"health":1},{"PRN":76,"el":20.0,"az":84.0,"ss":31.0,"used":true,"gnssid":6,"svid":12,"health":1},{"PRN":77,"el":62.0,"az":35.0,"ss":13.0,"used":false,"gnssid":6,"svid":13,"health":1},{"PRN":78,"el":38.0,"az":301.0,"ss":27.0,"used":true,"gnssid":6,"svid":14,"health":1},{"PRN":86,"el":30.0,"az":38.0,"ss":0.0,"used":false,"gnssid":6,"svid":22,"health":1},{"PRN":87,"el":42.0,"az":126.0,"ss":39.0,"used":true,"gnssid":6,"svid":23,"health":1},{"PRN":88,"el":16.0,"az":160.0,"ss":35.0,"used":true,"gnssid":6,"svid":24,"health":1}]}
$GPGSV,4,1,13,04,48,216,29,07,24,303,22,08,32,195,38,16,64,046,33*71
$GPGSV,4,2,13,26,36,067,39,27,63,154,41,67,21,229,13,76,20,084,31*76
$GPGSV,4,3,13,77,62,035,14,78,38,301,27,86,30,038,00,87,42,126,39*78
$GPGSV,4,4,13,88,16,160,35*4D
{"class":"SKY","time":"2021-02-23T18:04:53.000Z","xdop":0.57,"ydop":0.63,"vdop":99.99,"tdop":0.32,"hdop":99.99,"gdop":0.32,"pdop":99.99,"nSat":16,"uSat":10,"satellites":[{"PRN":4,"el":48.0,"az":216.0,"ss":29.0,"used":true,"gnssid":0,"svid":4,"health":1},{"PRN":7,"el":24.0,"az":303.0,"ss":22.0,"used":true,"gnssid":0,"svid":7,"health":1},{"PRN":8,"el":32.0,"az":195.0,"ss":38.0,"used":true,"gnssid":0,"svid":8,"health":1},{"PRN":9,"az":0.0,"ss":19.0,"used":false,"gnssid":0,"svid":9},{"PRN":14,"az":0.0,"ss":0.0,"used":false,"gnssid":0,"svid":14},{"PRN":16,"el":64.0,"az":46.0,"ss":33.0,"used":true,"gnssid":0,"svid":16,"health":1},{"PRN":18,"az":0.0,"ss":27.0,"used":false,"gnssid":0,"svid":18},{"PRN":26,"el":36.0,"az":67.0,"ss":39.0,"used":true,"gnssid":0,"svid":26,"health":1},{"PRN":27,"el":63.0,"az":154.0,"ss":41.0,"used":true,"gnssid":0,"svid":27,"health":1},{"PRN":67,"el":21.0,"az":229.0,"ss":13.0,"used":false,"gnssid":6,"svid":3,"health":1},{"PRN":76,"el":20.0,"az":84.0,"ss":31.0,"used":true,"gnssid":6,"svid":12,"health":1},{"PRN":77,"el":62.0,"az":35.0,"ss":14.0,"used":false,"gnssid":6,"svid":13,"health":1},{"PRN":78,"el":38.0,"az":301.0,"ss":27.0,"used":true,"gnssid":6,"svid":14,"health":1},{"PRN":86,"el":30.0,"az":38.0,"ss":0.0,"used":false,"gnssid":6,"svid":22,"health":1},{"PRN":87,"el":42.0,"az":126.0,"ss":39.0,"used":true,"gnssid":6,"svid":23,"health":1},{"PRN":88,"el":16.0,"az":160.0,"ss":35.0,"used":true,"gnssid":6,"svid":24,"health":1}]}
$GPGSV,4,1,13,04,48,216,29,07,24,303,21,08,32,195,38,16,64,046,34*75
$GPGSV,4,2,13,26,36,067,39,27,63,154,42,67,21,229,14,76,20,084,32*71
$GPGSV,4,3,13,77,62,035,15,78,38,301,27,86,30,038,00,87,42,126,39*79
$GPGSV,4,4,13,88,16,160,35*4D
{"class":"SKY","time":"2021-02-23T18:04:54.000Z","xdop":0.52,"ydop":0.61,"vdop":99.99,"tdop":0.32,"hdop":99.99,"gdop":0.32,"pdop":99.99,"nSat":16,"uSat":11,"satellites":[{"PRN":4,"el":48.0,"az":216.0,"ss":29.0,"used":true,"gnssid":0,"svid":4,"health":1},{"PRN":7,"el":24.0,"az":303.0,"ss":21.0,"used":true,"gnssid":0,"svid":7,"health":1},{"PRN":8,"el":32.0,"az":195.0,"ss":38.0,"used":true,"gnssid":0,"svid":8,"health":1},{"PRN":9,"az":0.0,"ss":19.0,"used":false,"gnssid":0,"svid":9},{"PRN":14,"az":0.0,"ss":0.0,"used":false,"gnssid":0,"svid":14},{"PRN":16,"el":64.0,"az":46.0,"ss":34.0,"used":true,"gnssid":0,"svid":16,"health":1},{"PRN":18,"az":0.0,"ss":29.0,"used":false,"gnssid":0,"svid":18},{"PRN":26,"el":36.0,"az":67.0,"ss":39.0,"used":true,"gnssid":0,"svid":26,"health":1},{"PRN":27,"el":63.0,"az":154.0,"ss":42.0,"used":true,"gnssid":0,"svid":27,"health":1},{"PRN":67,"el":21.0,"az":229.0,"ss":14.0,"used":true,"gnssid":6,"svid":3,"health":1},{"PRN":76,"el":20.0,"az":84.0,"ss":32.0,"used":true,"gnssid":6,"svid":12,"health":1},{"PRN":77,"el":62.0,"az":35.0,"ss":15.0,"used":false,"gnssid":6,"svid":13,"health":1},{"PRN":78,"el":38.0,"az":301.0,"ss":27.0,"used":true,"gnssid":6,"svid":14,"health":1},{"PRN":86,"el":30.0,"az":38.0,"ss":0.0,"used":false,"gnssid":6,"svid":22,"health":1},{"PRN":87,"el":42.0,"az":126.0,"ss":39.0,"used":true,"gnssid":6,"svid":23,"health":1},{"PRN":88,"el":16.0,"az":160.0,"ss":35.0,"used":true,"gnssid":6,"svid":24,"health":1}]}
$GPGSV,4,1,13,04,48,216,28,07,24,303,22,08,32,195,38,16,64,046,34*77
$GPGSV,4,2,13,26,36,067,39,27,63,154,42,67,21,229,15,76,20,084,32*70
$GPGSV,4,3,13,77,62,035,16,78,38,301,27,86,30,038,00,87,42,126,39*7A
$GPGSV,4,4,13,88,16,160,35*4D
{"class":"SKY","time":"2021-02-23T18:04:55.000Z","xdop":0.52,"ydop":0.61,"vdop":99.99,"tdop":0.30,"hdop":99.99,"gdop":0.30,"pdop":99.99,"nSat":16,"uSat":11,"satellites":[{"PRN":4,"el":48.0,"az":216.0,"ss":28.0,"used":true,"gnssid":0,"svid":4,"health":1},{"PRN":7,"el":24.0,"az":303.0,"ss":22.0,"used":true,"gnssid":0,"svid":7,"health":1},{"PRN":8,"el":32.0,"az":195.0,"ss":38.0,"used":true,"gnssid":0,"svid":8,"health":1},{"PRN":9,"az":0.0,"ss":18.0,"used":false,"gnssid":0,"svid":9},{"PRN":14,"az":0.0,"ss":0.0,"used":false,"gnssid":0,"svid":14},{"PRN":16,"el":64.0,"az":46.0,"ss":34.0,"used":true,"gnssid":0,"svid":16,"health":1},{"PRN":18,"az":0.0,"ss":30.0,"used":false,"gnssid":0,"svid":18},{"PRN":26,"el":36.0,"az":67.0,"ss":39.0,"used":true,"gnssid":0,"svid":26,"health":1},{"PRN":27,"el":63.0,"az":154.0,"ss":42.0,"used":true,"gnssid":0,"svid":27,"health":1},{"PRN":67,"el":21.0,"az":229.0,"ss":15.0,"used":true,"gnssid":6,"svid":3,"health":1},{"PRN":76,"el":20.0,"az":84.0,"ss":32.0,"used":true,"gnssid":6,"svid":12,"health":1},{"PRN":77,"el":62.0,"az":35.0,"ss":16.0,"used":false,"gnssid":6,"svid":13,"health":1},{"PRN":78,"el":38.0,"az":301.0,"ss":27.0,"used":true,"gnssid":6,"svid":14,"health":1},{"PRN":86,"el":30.0,"az":38.0,"ss":0.0,"used":false,"gnssid":6,"svid":22,"health":1},{"PRN":87,"el":42.0,"az":126.0,"ss":39.0,"used":true,"gnssid":6,"svid":23,"health":1},{"PRN":88,"el":16.0,"az":160.0,"ss":35.0,"used":true,"gnssid":6,"svid":24,"health":1}]}
$GPGSV,4,1,13,04,48,216,27,07,24,303,22,08,32,195,39,16,64,046,34*79
$GPGSV,4,2,13,26,36,067,39,27,63,154,42,67,21,229,16,76,20,084,32*73
$GPGSV,4,3,13,77,62,035,16,78,38,301,27,86,30,038,00,87,42,126,39*7A
$GPGSV,4,4,13,88,16,160,35*4D
{"class":"SKY","time":"2021-02-23T18:04:56.000Z","xdop":0.52,"ydop":0.61,"vdop":99.99,"tdop":0.30,"hdop":99.99,"gdop":0.30,"pdop":99.99,"nSat":16,"uSat":11,"satellites":[{"PRN":4,"el":48.0,"az":216.0,"ss":27.0,"used":true,"gnssid":0,"svid":4,"health":1},{"PRN":7,"el":24.0,"az":303.0,"ss":22.0,"used":true,"gnssid":0,"svid":7,"health":1},{"PRN":8,"el":32.0,"az":195.0,"ss":39.0,"used":true,"gnssid":0,"svid":8,"health":1},{"PRN":9,"az":0.0,"ss":17.0,"used":false,"gnssid":0,"svid":9},{"PRN":14,"az":0.0,"ss":0.0,"used":false,"gnssid":0,"svid":14},{"PRN":16,"el":64.0,"az":46.0,"ss":34.0,"used":true,"gnssid":0,"svid":16,"health":1},{"PRN":18,"az":0.0,"ss":31.0,"used":false,"gnssid":0,"svid":18},{"PRN":26,"el":36.0,"az":67.0,"ss":39.0,"used":true,"gnssid":0,"svid":26,"health":1},{"PRN":27,"el":63.0,"az":154.0,"ss":42.0,"used":true,"gnssid":0,"svid":27,"health":1},{"PRN":67,"el":21.0,"az":229.0,"ss":16.0,"used":true,"gnssid":6,"svid":3,"health":1},{"PRN":76,"el":20.0,"az":84.0,"ss":32.0,"used":true,"gnssid":6,"svid":12,"health":1},{"PRN":77,"el":62.0,"az":35.0,"ss":16.0,"used":false,"gnssid":6,"svid":13,"health":1},{"PRN":78,"el":38.0,"az":301.0,"ss":27.0,"used":true,"gnssid":6,"svid":14,"health":1},{"PRN":86,"el":30.0,"az":38.0,"ss":0.0,"used":false,"gnssid":6,"svid":22,"health":1},{"PRN":87,"el":42.0,"az":126.0,"ss":39.0,"used":true,"gnssid":6,"svid":23,"health":1},{"PRN":88,"el":16.0,"az":160.0,"ss":35.0,"used":true,"gnssid":6,"svid":24,"health":1}]}
$GPGSV,4,1,13,04,48,216,25,07,24,303,22,08,32,195,39,16,64,047,34*7A
$GPGSV,4,2,13,26,36,067,39,27,63,154,42,67,21,229,15,76,20,084,32*70
$GPGSV,4,3,13,77,62,035,17,78,38,301,26,86,30,038,00,87,42,126,39*7A
$GPGSV,4,4,13,88,16,160,35*4D
{"class":"SKY","time":"2021-02-23T18:04:57.000Z","xdop":0.54,"ydop":0.64,"vdop":99.99,"tdop":0.30,"hdop":99.99,"gdop":0.30,"pdop":99.99,"nSat":16,"uSat":10,"satellites":[{"PRN":4,"el":48.0,"az":216.0,"ss":25.0,"used":false,"gnssid":0,"svid":4,"health":1},{"PRN":7,"el":24.0,"az":303.0,"ss":22.0,"used":true,"gnssid":0,"svid":7,"health":1},{"PRN":8,"el":32.0,"az":195.0,"ss":39.0,"used":true,"gnssid":0,"svid":8,"health":1},{"PRN":9,"az":0.0,"ss":17.0,"used":false,"gnssid":0,"svid":9},{"PRN":14,"az":0.0,"ss":0.0,"used":false,"gnssid":0,"svid":14},{"PRN":16,"el":64.0,"az":47.0,"ss":34.0,"used":true,"gnssid":0,"svid":16,"health":1},{"PRN":18,"az":0.0,"ss":31.0,"used":false,"gnssid":0,"svid":18},{"PRN":26,"el":36.0,"az":67.0,"ss":39.0,"used":true,"gnssid":0,"svid":26,"health":1},{"PRN":27,"el":63.0,"az":154.0,"ss":42.0,"used":true,"gnssid":0,"svid":27,"health":1},{"PRN":67,"el":21.0,"az":229.0,"ss":15.0,"used":true,"gnssid":6,"svid":3,"health":1},{"PRN":76,"el":20.0,"az":84.0,"ss":32.0,"used":true,"gnssid":6,"svid":12,"health":1},{"PRN":77,"el":62.0,"az":35.0,"ss":17.0,"used":false,"gnssid":6,"svid":13,"health":1},{"PRN":78,"el":38.0,"az":301.0,"ss":26.0,"used":true,"gnssid":6,"svid":14,"health":1},{"PRN":86,"el":30.0,"az":38.0,"ss":0.0,"used":false,"gnssid":6,"svid":22,"health":1},{"PRN":87,"el":42.0,"az":126.0,"ss":39.0,"used":true,"gnssid":6,"svid":23,"health":1},{"PRN":88,"el":16.0,"az":160.0,"ss":35.0,"used":true,"gnssid":6,"svid":24,"health":1}]}
$GPGSV,4,1,13,04,48,216,21,07,24,303,21,08,32,195,39,16,64,047,35*7C
$GPGSV,4,2,13,26,36,067,38,27,63,154,42,67,21,229,15,76,20,084,32*71
$GPGSV,4,3,13,77,62,035,17,78,38,301,26,86,30,038,00,87,42,126,39*7A
$GPGSV,4,4,13,88,16,160,35*4D
{"class":"SKY","time":"2021-02-23T18:04:58.000Z","xdop":0.54,"ydop":0.64,"vdop":99.99,"tdop":0.32,"hdop":99.99,"gdop":0.32,"pdop":99.99,"nSat":16,"uSat":10,"satellites":[{"PRN":4,"el":48.0,"az":216.0,"ss":21.0,"used":false,"gnssid":0,"svid":4,"health":1},{"PRN":7,"el":24.0,"az":303.0,"ss":21.0,"used":true,"gnssid":0,"svid":7,"health":1},{"PRN":8,"el":32.0,"az":195.0,"ss":39.0,"used":true,"gnssid":0,"svid":8,"health":1},{"PRN":9,"az":0.0,"ss":18.0,"used":false,"gnssid":0,"svid":9},{"PRN":14,"az":0.0,"ss":0.0,"used":false,"gnssid":0,"svid":14},{"PRN":16,"el":64.0,"az":47.0,"ss":35.0,"used":true,"gnssid":0,"svid":16,"health":1},{"PRN":18,"az":0.0,"ss":31.0,"used":false,"gnssid":0,"svid":18},{"PRN":26,"el":36.0,"az":67.0,"ss":38.0,"used":true,"gnssid":0,"svid":26,"health":1},{"PRN":27,"el":63.0,"az":154.0,"ss":42.0,"used":true,"gnssid":0,"svid":27,"health":1},{"PRN":67,"el":21.0,"az":229.0,"ss":15.0,"used":true,"gnssid":6,"svid":3,"health":1},{"PRN":76,"el":20.0,"az":84.0,"ss":32.0,"used":true,"gnssid":6,"svid":12,"health":1},{"PRN":77,"el":62.0,"az":35.0,"ss":17.0,"used":false,"gnssid":6,"svid":13,"health":1},{"PRN":78,"el":38.0,"az":301.0,"ss":26.0,"used":true,"gnssid":6,"svid":14,"health":1},{"PRN":86,"el":30.0,"az":38.0,"ss":0.0,"used":false,"gnssid":6,"svid":22,"health":1},{"PRN":87,"el":42.0,"az":126.0,"ss":39.0,"used":true,"gnssid":6,"svid":23,"health":1},{"PRN":88,"el":16.0,"az":160.0,"ss":35.0,"used":true,"gnssid":6,"svid":24,"health":1}]}
$GPGSV,4,1,13,04,48,216,19,07,24,303,21,08,32,195,39,16,64,047,35*77
$GPGSV,4,2,13,26,36,067,39,27,63,154,42,67,21,229,15,76,20,084,32*70
$GPGSV,4,3,13,77,62,035,17,78,38,301,26,86,30,038,00,87,42,126,39*7A
$GPGSV,4,4,13,88,16,160,35*4D
{"class":"SKY","time":"2021-02-23T18:04:59.000Z","xdop":0.54,"ydop":0.64,"vdop":99.99,"tdop":0.32,"hdop":99.99,"gdop":0.32,"pdop":99.99,"nSat":16,"uSat":10,"satellites":[{"PRN":4,"el":48.0,"az":216.0,"ss":19.0,"used":false,"gnssid":0,"svid":4,"health":1},{"PRN":7,"el":24.0,"az":303.0,"ss":21.0,"used":true,"gnssid":0,"svid":7,"health":1},{"PRN":8,"el":32.0,"az":195.0,"ss":39.0,"used":true,"gnssid":0,"svid":8,"health":1},{"PRN":9,"az":0.0,"ss":20.0,"used":false,"gnssid":0,"svid":9},{"PRN":14,"az":0.0,"ss":0.0,"used":false,"gnssid":0,"svid":14},{"PRN":16,"el":64.0,"az":47.0,"ss":35.0,"used":true,"gnssid":0,"svid":16,"health":1},{"PRN":18,"az":0.0,"ss":32.0,"used":false,"gnssid":0,"svid":18},{"PRN":26,"el":36.0,"az":67.0,"ss":39.0,"used":true,"gnssid":0,"svid":26,"health":1},{"PRN":27,"el":63.0,"az":154.0,"ss":42.0,"used":true,"gnssid":0,"svid":27,"health":1},{"PRN":67,"el":21.0,"az":229.0,"ss":15.0,"used":true,"gnssid":6,"svid":3,"health":1},{"PRN":76,"el":20.0,"az":84.0,"ss":32.0,"used":true,"gnssid":6,"svid":12,"health":1},{"PRN":77,"el":62.0,"az":35.0,"ss":17.0,"used":false,"gnssid":6,"svid":13,"health":1},{"PRN":78,"el":38.0,"az":301.0,"ss":26.0,"used":true,"gnssid":6,"svid":14,"health":1},{"PRN":86,"el":30.0,"az":38.0,"ss":0.0,"used":false,"gnssid":6,"svid":22,"health":1},{"PRN":87,"el":42.0,"az":126.0,"ss":39.0,"used":true,"gnssid":6,"svid":23,"health":1},{"PRN":88,"el":16.0,"az":160.0,"ss":35.0,"used":true,"gnssid":6,"svid":24,"health":1}]}
$GPGSV,4,1,13,04,48,216,14,07,24,303,21,08,32,195,39,16,64,047,35*7A
$GPGSV,4,2,13,26,36,067,38,27,64,153,42,67,21,229,15,76,20,084,32*71
$GPGSV,4,3,13,77,62,035,17,78,38,301,26,86,30,038,21,87,42,126,38*78
$GPGSV,4,4,13,88,16,160,35*4D
{"class":"SKY","time":"2021-02-23T18:05:00.000Z","xdop":0.54,"ydop":0.64,"vdop":99.99,"tdop":0.32,"hdop":99.99,"gdop":0.32,"pdop":99.99,"nSat":16,"uSat":10,"satellites":[{"PRN":4,"el":48.0,"az":216.0,"ss":14.0,"used":false,"gnssid":0,"svid":4,"health":1},{"PRN":7,"el":24.0,"az":303.0,"ss":21.0,"used":true,"gnssid":0,"svid":7,"health":1},{"PRN":8,"el":32.0,"az":195.0,"ss":39.0,"used":true,"gnssid":0,"svid":8,"health":1},{"PRN":9,"az":0.0,"ss":22.0,"used":false,"gnssid":0,"svid":9},{"PRN":14,"az":0.0,"ss":0.0,"used":false,"gnssid":0,"svid":14},{"PRN":16,"el":64.0,"az":47.0,"ss":35.0,"used":true,"gnssid":0,"svid":16,"health":1},{"PRN":18,"az":0.0,"ss":32.0,"used":false,"gnssid":0,"svid":18},{"PRN":26,"el":36.0,"az":67.0,"ss":38.0,"used":true,"gnssid":0,"svid":26,"health":1},{"PRN":27,"el":64.0,"az":153.0,"ss":42.0,"used":true,"gnssid":0,"svid":27,"health":1},{"PRN":67,"el":21.0,"az":229.0,"ss":15.0,"used":true,"gnssid":6,"svid":3,"health":1},{"PRN":76,"el":20.0,"az":84.0,"ss":32.0,"used":true,"gnssid":6,"svid":12,"health":1},{"PRN":77,"el":62.0,"az":35.0,"ss":17.0,"used":false,"gnssid":6,"svid":13,"health":1},{"PRN":78,"el":38.0,"az":301.0,"ss":26.0,"used":true,"gnssid":6,"svid":14,"health":1},{"PRN":86,"el":30.0,"az":38.0,"ss":21.0,"used":false,"gnssid":6,"svid":22,"health":1},{"PRN":87,"el":42.0,"az":126.0,"ss":38.0,"used":true,"gnssid":6,"svid":23,"health":1},{"PRN":88,"el":16.0,"az":160.0,"ss":35.0,"used":true,"gnssid":6,"svid":24,"health":1}]}
$GPGSV,4,1,13,04,48,216,15,07,24,303,20,08,32,195,39,16,64,047,35*7A
$GPGSV,4,2,13,26,36,067,38,27,64,153,42,67,21,229,13,76,20,084,32*77
$GPGSV,4,3,13,77,62,035,17,78,38,301,26,86,30,038,21,87,42,126,38*78
$GPGSV,4,4,13,88,16,160,35*4D
{"class":"SKY","time":"2021-02-23T18:05:01.000Z","xdop":0.54,"ydop":0.64,"vdop":99.99,"tdop":0.32,"hdop":99.99,"gdop":0.32,"pdop":99.99,"nSat":16,"uSat":10,"satellites":[{"PRN":4,"el":48.0,"az":216.0,"ss":15.0,"used":false,"gnssid":0,"svid":4,"health":1},{"PRN":7,"el":24.0,"az":303.0,"ss":20.0,"used":true,"gnssid":0,"svid":7,"health":1},{"PRN":8,"el":32.0,"az":195.0,"ss":39.0,"used":true,"gnssid":0,"svid":8,"health":1},{"PRN":9,"az":0.0,"ss":23.0,"used":false,"gnssid":0,"svid":9},{"PRN":14,"az":0.0,"ss":0.0,"used":false,"gnssid":0,"svid":14},{"PRN":16,"el":64.0,"az":47.0,"ss":35.0,"used":true,"gnssid":0,"svid":16,"health":1},{"PRN":18,"az":0.0,"ss":32.0,"used":false,"gnssid":0,"svid":18},{"PRN":26,"el":36.0,"az":67.0,"ss":38.0,"used":true,"gnssid":0,"svid":26,"health":1},{"PRN":27,"el":64.0,"az":153.0,"ss":42.0,"used":true,"gnssid":0,"svid":27,"health":1},{"PRN":67,"el":21.0,"az":229.0,"ss":13.0,"used":true,"gnssid":6,"svid":3,"health":1},{"PRN":76,"el":20.0,"az":84.0,"ss":32.0,"used":true,"gnssid":6,"svid":12,"health":1},{"PRN":77,"el":62.0,"az":35.0,"ss":17.0,"used":false,"gnssid":6,"svid":13,"health":1},{"PRN":78,"el":38.0,"az":301.0,"ss":26.0,"used":true,"gnssid":6,"svid":14,"health":1},{"PRN":86,"el":30.0,"az":38.0,"ss":21.0,"used":false,"gnssid":6,"svid":22,"health":1},{"PRN":87,"el":42.0,"az":126.0,"ss":38.0,"used":true,"gnssid":6,"svid":23,"health":1},{"PRN":88,"el":16.0,"az":160.0,"ss":35.0,"used":true,"gnssid":6,"svid":24,"health":1}]}
$GPGSV,4,1,13,04,48,216,16,07,24,303,20,08,32,195,39,16,64,047,36*7A
$GPGSV,4,2,13,26,36,067,38,27,64,153,41,67,21,229,11,76,20,084,32*76
$GPGSV,4,3,13,77,62,035,16,78,38,301,26,86,30,038,21,87,42,126,38*79
$GPGSV,4,4,13,88,16,160,36*4E
{"class":"SKY","time":"2021-02-23T18:05:02.000Z","xdop":0.54,"ydop":0.64,"vdop":99.99,"tdop":0.32,"hdop":99.99,"gdop":0.32,"pdop":99.99,"nSat":16,"uSat":10,"satellites":[{"PRN":4,"el":48.0,"az":216.0,"ss":16.0,"used":false,"gnssid":0,"svid":4,"health":1},{"PRN":7,"el":24.0,"az":303.0,"ss":20.0,"used":true,"gnssid":0,"svid":7,"health":1},{"PRN":8,"el":32.0,"az":195.0,"ss":39.0,"used":true,"gnssid":0,"svid":8,"health":1},{"PRN":9,"az":0.0,"ss":24.0,"used":false,"gnssid":0,"svid":9},{"PRN":14,"az":0.0,"ss":0.0,"used":false,"gnssid":0,"svid":14},{"PRN":16,"el":64.0,"az":47.0,"ss":36.0,"used":true,"gnssid":0,"svid":16,"health":1},{"PRN":18,"az":0.0,"ss":32.0,"used":false,"gnssid":0,"svid":18},{"PRN":26,"el":36.0,"az":67.0,"ss":38.0,"used":true,"gnssid":0,"svid":26,"health":1},{"PRN":27,"el":64.0,"az":153.0,"ss":41.0,"used":true,"gnssid":0,"svid":27,"health":1},{"PRN":67,"el":21.0,"az":229.0,"ss":11.0,"used":true,"gnssid":6,"svid":3,"health":1},{"PRN":76,"el":20.0,"az":84.0,"ss":32.0,"used":true,"gnssid":6,"svid":12,"health":1},{"PRN":77,"el":62.0,"az":35.0,"ss":16.0,"used":false,"gnssid":6,"svid":13,"health":1},{"PRN":78,"el":38.0,"az":301.0,"ss":26.0,"used":true,"gnssid":6,"svid":14,"health":1},{"PRN":86,"el":30.0,"az":38.0,"ss":21.0,"used":false,"gnssid":6,"svid":22,"health":1},{"PRN":87,"el":42.0,"az":126.0,"ss":38.0,"used":true,"gnssid":6,"svid":23,"health":1},{"PRN":88,"el":16.0,"az":160.0,"ss":36.0,"used":true,"gnssid":6,"svid":24,"health":1}]}
$GPGSV,4,1,13,04,48,216,15,07,24,303,19,08,32,195,39,16,64,047,36*73
$GPGSV,4,2,13,26,36,067,38,27,64,153,41,67,21,229,10,76,20,084,32*77
$GPGSV,4,3,13,77,62,035,15,78,38,301,27,86,30,038,22,87,42,126,38*78
$GPGSV,4,4,13,88,16,160,36*4E
{"class":"SKY","time":"2021-02-23T18:05:03.000Z","xdop":0.60,"ydop":0.68,"vdop":99.99,"tdop":0.32,"hdop":99.99,"gdop":0.32,"pdop":99.99,"nSat":15,"uSat":9,"satellites":[{"PRN":4,"el":48.0,"az":216.0,"ss":15.0,"used":false,"gnssid":0,"svid":4,"health":1},{"PRN":7,"el":24.0,"az":303.0,"ss":19.0,"used":true,"gnssid":0,"svid":7,"health":1},{"PRN":8,"el":32.0,"az":195.0,"ss":39.0,"used":true,"gnssid":0,"svid":8,"health":1},{"PRN":9,"az":0.0,"ss":24.0,"used":false,"gnssid":0,"svid":9},{"PRN":16,"el":64.0,"az":47.0,"ss":36.0,"used":true,"gnssid":0,"svid":16,"health":1},{"PRN":18,"az":0.0,"ss":32.0,"used":false,"gnssid":0,"svid":18},{"PRN":26,"el":36.0,"az":67.0,"ss":38.0,"used":true,"gnssid":0,"svid":26,"health":1},{"PRN":27,"el":64.0,"az":153.0,"ss":41.0,"used":true,"gnssid":0,"svid":27,"health":1},{"PRN":67,"el":21.0,"az":229.0,"ss":10.0,"used":false,"gnssid":6,"svid":3,"health":1},{"PRN":76,"el":20.0,"az":84.0,"ss":32.0,"used":true,"gnssid":6,"svid":12,"health":1},{"PRN":77,"el":62.0,"az":35.0,"ss":15.0,"used":false,"gnssid":6,"svid":13,"health":1},{"PRN":78,"el":38.0,"az":301.0,"ss":27.0,"used":true,"gnssid":6,"svid":14,"health":1},{"PRN":86,"el":30.0,"az":38.0,"ss":22.0,"used":false,"gnssid":6,"svid":22,"health":1},{"PRN":87,"el":42.0,"az":126.0,"ss":38.0,"used":true,"gnssid":6,"svid":23,"health":1},{"PRN":88,"el":16.0,"az":160.0,"ss":36.0,"used":true,"gnssid":6,"svid":24,"health":1}]}
$GPGSV,4,1,13,04,48,216,13,07,24,303,18,08,32,195,39,16,64,047,36*74
$GPGSV,4,2,13,26,36,067,38,27,64,153,41,67,21,229,10,76,20,084,32*77
$GPGSV,4,3,13,77,62,035,15,78,38,301,27,86,30,038,22,87,42,126,38*78
$GPGSV,4,4,13,88,16,160,35*4D
{"class":"SKY","time":"2021-02-23T18:05:04.000Z","xdop":0.60,"ydop":0.68,"vdop":99.99,"tdop":0.33,"hdop":99.99,"gdop":0.33,"pdop":99.99,"nSat":15,"uSat":9,"satellites":[{"PRN":4,"el":48.0,"az":216.0,"ss":13.0,"used":false,"gnssid":0,"svid":4,"health":1},{"PRN":7,"el":24.0,"az":303.0,"ss":18.0,"used":true,"gnssid":0,"svid":7,"health":1},{"PRN":8,"el":32.0,"az":195.0,"ss":39.0,"used":true,"gnssid":0,"svid":8,"health":1},{"PRN":9,"az":0.0,"ss":24.0,"used":false,"gnssid":0,"svid":9},{"PRN":16,"el":64.0,"az":47.0,"ss":36.0,"used":true,"gnssid":0,"svid":16,"health":1},{"PRN":18,"az":0.0,"ss":32.0,"used":false,"gnssid":0,"svid":18},{"PRN":26,"el":36.0,"az":67.0,"ss":38.0,"used":true,"gnssid":0,"svid":26,"health":1},{"PRN":27,"el":64.0,"az":153.0,"ss":41.0,"used":true,"gnssid":0,"svid":27,"health":1},{"PRN":67,"el":21.0,"az":229.0,"ss":10.0,"used":false,"gnssid":6,"svid":3,"health":1},{"PRN":76,"el":20.0,"az":84.0,"ss":32.0,"used":true,"gnssid":6,"svid":12,"health":1},{"PRN":77,"el":62.0,"az":35.0,"ss":15.0,"used":false,"gnssid":6,"svid":13,"health":1},{"PRN":78,"el":38.0,"az":301.0,"ss":27.0,"used":true,"gnssid":6,"svid":14,"health":1},{"PRN":86,"el":30.0,"az":38.0,"ss":22.0,"used":false,"gnssid":6,"svid":22,"health":1},{"PRN":87,"el":42.0,"az":126.0,"ss":38.0,"used":true,"gnssid":6,"svid":23,"health":1},{"PRN":88,"el":16.0,"az":160.0,"ss":35.0,"used":true,"gnssid":6,"svid":24,"health":1}]}
$GPGSV,4,1,13,04,48,216,13,07,24,303,16,08,32,195,39,16,64,047,36*7A
$GPGSV,4,2,13,26,36,067,38,27,64,153,41,67,21,229,12,76,20,084,33*74
$GPGSV,4,3,13,77,62,035,14,78,38,301,27,86,30,038,21,87,42,126,38*7A
$GPGSV,4,4,13,88,16,160,36*4E
{"class":"SKY","time":"2021-02-23T18:05:05.000Z","xdop":0.54,"ydop":0.64,"vdop":99.99,"tdop":0.33,"hdop":99.99,"gdop":0.33,"pdop":99.99,"nSat":15,"uSat":10,"satellites":[{"PRN":4,"el":48.0,"az":216.0,"ss":13.0,"used":false,"gnssid":0,"svid":4,"health":1},{"PRN":7,"el":24.0,"az":303.0,"ss":16.0,"used":true,"gnssid":0,"svid":7,"health":1},{"PRN":8,"el":32.0,"az":195.0,"ss":39.0,"used":true,"gnssid":0,"svid":8,"health":1},{"PRN":9,"az":0.0,"ss":24.0,"used":false,"gnssid":0,"svid":9},{"PRN":16,"el":64.0,"az":47.0,"ss":36.0,"used":true,"gnssid":0,"svid":16,"health":1},{"PRN":18,"az":0.0,"ss":31.0,"used":false,"gnssid":0,"svid":18},{"PRN":26,"el":36.0,"az":67.0,"ss":38.0,"used":true,"gnssid":0,"svid":26,"health":1},{"PRN":27,"el":64.0,"az":153.0,"ss":41.0,"used":true,"gnssid":0,"svid":27,"health":1},{"PRN":67,"el":21.0,"az":229.0,"ss":12.0,"used":true,"gnssid":6,"svid":3,"health":1},{"PRN":76,"el":20.0,"az":84.0,"ss":33.0,"used":true,"gnssid":6,"svid":12,"health":1},{"PRN":77,"el":62.0,"az":35.0,"ss":14.0,"used":false,"gnssid":6,"svid":13,"health":1},{"PRN":78,"el":38.0,"az":301.0,"ss":27.0,"used":true,"gnssid":6,"svid":14,"health":1},{"PRN":86,"el":30.0,"az":38.0,"ss":21.0,"used":false,"gnssid":6,"svid":22,"health":1},{"PRN":87,"el":42.0,"az":126.0,"ss":38.0,"used":true,"gnssid":6,"svid":23,"health":1},{"PRN":88,"el":16.0,"az":160.0,"ss":36.0,"used":true,"gnssid":6,"svid":24,"health":1}]}
$GPGSV,4,1,13,04,48,216,16,07,24,303,15,08,32,195,39,16,64,047,37*7D
$GPGSV,4,2,13,26,36,067,38,27,64,153,41,67,21,229,14,76,20,084,33*72
$GPGSV,4,3,13,77,62,035,14,78,38,301,27,86,30,038,21,87,42,126,37*75
$GPGSV,4,4,13,88,16,160,35*4D
