$GPGSV,3,1,12,04,48,216,25,07,24,303,20,08,32,195,40,16,64,046,34*71
$GPGSV,3,2,12,26,36,067,36,27,63,154,41,67,22,229,25,76,20,084,29*70
$GPGSV,3,3,12,77,62,034,22,78,38,301,31,87,41,126,42,88,16,160,36*71
{"class":"SKY","time":"2021-02-23T18:04:29.000Z","gdop":2.19,"hdop":0.95,"pdop":1.89,"tdop":1.11,"xdop":0.59,"ydop":0.74,"vdop":1.64,"nSat":14,"uSat":10,"satellites":[{"PRN":4,"gnssid":0,"svid":4,"az":216.0,"el":48.0,"prRes":21.6,"qual":7,"ss":25.0,"used":true,"health":1},{"PRN":7,"gnssid":0,"svid":7,"az":303.0,"el":24.0,"prRes":30.3,"qual":4,"ss":20.0,"used":false,"health":1},{"PRN":8,"gnssid":0,"svid":8,"az":195.0,"el":32.0,"prRes":19.5,"qual":7,"ss":40.0,"used":true,"health":1},{"PRN":9,"gnssid":0,"svid":9,"az":0.0,"prRes":0.0,"qual":4,"ss":25.0,"used":false},{"PRN":16,"gnssid":0,"svid":16,"az":46.0,"el":64.0,"prRes":4.6,"qual":7,"ss":34.0,"used":true,"health":1},{"PRN":26,"gnssid":0,"svid":26,"az":67.0,"el":36.0,"prRes":6.7,"qual":7,"ss":36.0,"used":true,"health":1},{"PRN":27,"gnssid":0,"svid":27,"az":154.0,"el":63.0,"prRes":15.4,"qual":7,"ss":41.0,"used":true,"health":1},{"PRN":31,"gnssid":0,"svid":31,"az":0.0,"prRes":0.0,"qual":3,"ss":9.0,"used":false},{"PRN":67,"gnssid":6,"svid":3,"az":229.0,"el":22.0,"prRes":22.9,"qual":4,"ss":25.0,"used":true,"health":1},{"PRN":76,"gnssid":6,"svid":12,"az":84.0,"el":20.0,"prRes":8.4,"qual":7,"ss":29.0,"used":true,"health":1},{"PRN":77,"gnssid":6,"svid":13,"az":34.0,"el":62.0,"prRes":3.4,"qual":4,"ss":22.0,"used":false,"health":1},{"PRN":78,"gnssid":6,"svid":14,"az":301.0,"el":38.0,"prRes":30.1,"qual":7,"ss":31.0,"used":true,"health":1},{"PRN":87,"gnssid":6,"svid":23,"az":126.0,"el":41.0,"prRes":12.6,"qual":7,"ss":42.0,"used":true,"health":1},{"PRN":88,"gnssid":6,"svid":24,"az":160.0,"el":16.0,"prRes":16.0,"qual":7,"ss":36.0,"used":true,"health":1}]}
{"class":"SKY","time":"2021-02-23T18:04:29.000Z","gdop":0.32,"hdop":0.95,"pdop":1.89,"tdop":0.32,"xdop":0.59,"ydop":0.74,"vdop":1.64}
$GPGSV,3,1,12,04,48,216,23,07,24,303,20,08,32,195,40,16,64,046,34*77
$GPGSV,3,2,12,26,36,067,36,27,63,154,41,67,22,229,25,76,20,084,30*78
$GPGSV,3,3,12,77,62,034,22,78,38,301,31,87,41,126,42,88,16,160,36*71
{"class":"SKY","time":"2021-02-23T18:04:30.000Z","gdop":2.19,"hdop":0.95,"pdop":1.89,"tdop":1.11,"xdop":0.59,"ydop":0.74,"vdop":1.64,"nSat":14,"uSat":10,"satellites":[{"PRN":4,"gnssid":0,"svid":4,"az":216.0,"el":48.0,"prRes":21.6,"qual":7,"ss":23.0,"used":true,"health":1},{"PRN":7,"gnssid":0,"svid":7,"az":303.0,"el":24.0,"prRes":30.3,"qual":4,"ss":20.0,"used":false,"health":1},{"PRN":8,"gnssid":0,"svid":8,"az":195.0,"el":32.0,"prRes":19.5,"qual":7,"ss":40.0,"used":true,"health":1},{"PRN":9,"gnssid":0,"svid":9,"az":0.0,"prRes":0.0,"qual":4,"ss":25.0,"used":false},{"PRN":16,"gnssid":0,"svid":16,"az":46.0,"el":64.0,"prRes":4.6,"qual":7,"ss":34.0,"used":true,"health":1},{"PRN":26,"gnssid":0,"svid":26,"az":67.0,"el":36.0,"prRes":6.7,"qual":7,"ss":36.0,"used":true,"health":1},{"PRN":27,"gnssid":0,"svid":27,"az":154.0,"el":63.0,"prRes":15.4,"qual":7,"ss":41.0,"used":true,"health":1},{"PRN":31,"gnssid":0,"svid":31,"az":0.0,"prRes":0.0,"qual":3,"ss":8.0,"used":false},{"PRN":67,"gnssid":6,"svid":3,"az":229.0,"el":22.0,"prRes":22.9,"qual":4,"ss":25.0,"used":true,"health":1},{"PRN":76,"gnssid":6,"svid":12,"az":84.0,"el":20.0,"prRes":8.4,"qual":7,"ss":30.0,"used":true,"health":1},{"PRN":77,"gnssid":6,"svid":13,"az":34.0,"el":62.0,"prRes":3.4,"qual":4,"ss":22.0,"used":false,"health":1},{"PRN":78,"gnssid":6,"svid":14,"az":301.0,"el":38.0,"prRes":30.1,"qual":7,"ss":31.0,"used":true,"health":1},{"PRN":87,"gnssid":6,"svid":23,"az":126.0,"el":41.0,"prRes":12.6,"qual":7,"ss":42.0,"used":true,"health":1},{"PRN":88,"gnssid":6,"svid":24,"az":160.0,"el":16.0,"prRes":16.0,"qual":7,"ss":36.0,"used":true,"health":1}]}
{"class":"SKY","time":"2021-02-23T18:04:30.000Z","gdop":0.32,"hdop":0.95,"pdop":1.89,"tdop":0.32,"xdop":0.59,"ydop":0.74,"vdop":1.64}
$GPZDA,180430.00,23,02,2021,00,00*6A
$GPGGA,180430.00,4445.9264300,N,06848.3999060,W,7,10,0.95,43.16,M,-25.789,M,,*62
$GPRMC,180430.00,A,4445.9264300,N,6848.3999060,W,0.0000,,230221,-15.9,W*6D
$GPGSA,A,3,4,8,16,26,27,67,76,78,,,,,1.9,0.9,1.6*31
$GPGBS,180430.00,8.900,11.075,14.580,,,,*44
{"class":"TPV","status":7,"mode":3,"time":"2021-02-23T18:04:30.000Z","leapseconds":18,"ept":0.005,"lat":44.765440500,"lon":-68.806665100,"altHAE":13.6840,"altMSL":43.1560,"alt":43.1560,"epx":8.900,"epy":11.075,"epv":14.580,"magvar":-15.9,"speed":0.000,"climb":0.000,"eps":22.15,"epc":29.16,"ecefx":1639835.13,"ecefy":-4229206.51,"ecefz":4468888.59,"ecefpAcc":25.25,"geoidSep":-25.789,"eph":20.619,"sep":35.921}
{"class":"SKY","time":"2021-02-23T18:04:30.000Z","gdop":0.32,"hdop":0.95,"pdop":1.89,"tdop":0.32,"xdop":0.59,"ydop":0.74,"vdop":1.64}
$GPGSV,3,1,12,04,48,216,21,07,24,303,20,08,32,195,40,16,64,046,34*75
$GPGSV,3,2,12,26,36,067,36,27,63,154,41,67,21,229,25,76,20,084,30*7B
$GPGSV,3,3,12,77,62,034,22,78,38,301,32,87,41,126,42,88,16,160,36*72
{"class":"SKY","time":"2021-02-23T18:04:31.000Z","gdop":2.18,"hdop":0.95,"pdop":1.88,"tdop":1.10,"xdop":0.59,"ydop":0.74,"vdop":1.62,"nSat":14,"uSat":10,"satellites":[{"PRN":4,"gnssid":0,"svid":4,"az":216.0,"el":48.0,"prRes":21.6,"qual":4,"ss":21.0,"used":true,"health":1},{"PRN":7,"gnssid":0,"svid":7,"az":303.0,"el":24.0,"prRes":30.3,"qual":4,"ss":20.0,"used":false,"health":1},{"PRN":8,"gnssid":0,"svid":8,"az":195.0,"el":32.0,"prRes":19.5,"qual":7,"ss":40.0,"used":true,"health":1},{"PRN":9,"gnssid":0,"svid":9,"az":0.0,"prRes":0.0,"qual":4,"ss":25.0,"used":false},{"PRN":16,"gnssid":0,"svid":16,"az":46.0,"el":64.0,"prRes":4.6,"qual":7,"ss":34.0,"used":true,"health":1},{"PRN":26,"gnssid":0,"svid":26,"az":67.0,"el":36.0,"prRes":6.7,"qual":7,"ss":36.0,"used":true,"health":1},{"PRN":27,"gnssid":0,"svid":27,"az":154.0,"el":63.0,"prRes":15.4,"qual":7,"ss":41.0,"used":true,"health":1},{"PRN":31,"gnssid":0,"svid":31,"az":0.0,"prRes":0.0,"qual":3,"ss":7.0,"used":false},{"PRN":67,"gnssid":6,"svid":3,"az":229.0,"el":21.0,"prRes":22.9,"qual":4,"ss":25.0,"used":true,"health":1},{"PRN":76,"gnssid":6,"svid":12,"az":84.0,"el":20.0,"prRes":8.4,"qual":7,"ss":30.0,"used":true,"health":1},{"PRN":77,"gnssid":6,"svid":13,"az":34.0,"el":62.0,"prRes":3.4,"qual":4,"ss":22.0,"used":false,"health":1},{"PRN":78,"gnssid":6,"svid":14,"az":301.0,"el":38.0,"prRes":30.1,"qual":7,"ss":32.0,"used":true,"health":1},{"PRN":87,"gnssid":6,"svid":23,"az":126.0,"el":41.0,"prRes":12.6,"qual":7,"ss":42.0,"used":true,"health":1},{"PRN":88,"gnssid":6,"svid":24,"az":160.0,"el":16.0,"prRes":16.0,"qual":7,"ss":36.0,"used":true,"health":1}]}
{"class":"SKY","time":"2021-02-23T18:04:31.000Z","gdop":0.32,"hdop":0.95,"pdop":1.88,"tdop":0.32,"xdop":0.59,"ydop":0.74,"vdop":1.62}
$GPZDA,180431.00,23,02,2021,00,00*6B
$GPGGA,180431.00,4445.9264300,N,06848.3999060,W,7,10,0.95,43.16,M,-25.789,M,,*63
$GPRMC,180431.00,A,4445.9264300,N,6848.3999060,W,0.0000,,230221,-15.9,W*6C
$GPGSA,A,3,4,8,16,26,27,67,76,78,,,,,1.9,0.9,1.6*31
$GPGBS,180431.00,8.877,11.075,14.580,,,,*44
{"class":"TPV","status":7,"mode":3,"time":"2021-02-23T18:04:31.000Z","leapseconds":18,"ept":0.005,"lat":44.765440500,"lon":-68.806665100,"altHAE":13.6840,"altMSL":43.1560,"alt":43.1560,"epx":8.877,"epy":11.075,"epv":14.580,"magvar":-15.9,"speed":0.000,"climb":0.000,"eps":22.15,"epc":29.16,"ecefx":1639835.13,"ecefy":-4229206.51,"ecefz":4468888.59,"ecefpAcc":25.25,"geoidSep":-25.789,"eph":20.619,"sep":35.679}
{"class":"SKY","time":"2021-02-23T18:04:31.000Z","gdop":0.32,"hdop":0.95,"pdop":1.88,"tdop":0.32,"xdop":0.59,"ydop":0.74,"vdop":1.62}
$GPGSV,3,1,12,04,48,216,20,07,24,303,19,08,32,195,40,16,64,046,34*7E
$GPGSV,3,2,12,26,36,067,36,27,63,154,41,67,21,229,24,76,20,084,30*7A
$GPGSV,3,3,12,77,62,034,22,78,38,301,32,87,41,126,43,88,16,160,36*73
{"class":"SKY","time":"2021-02-23T18:04:32.000Z","gdop":2.18,"hdop":0.95,"pdop":1.88,"tdop":1.10,"xdop":0.59,"ydop":0.74,"vdop":1.62,"nSat":14,"uSat":10,"satellites":[{"PRN":4,"gnssid":0,"svid":4,"az":216.0,"el":48.0,"prRes":21.6,"qual":4,"ss":20.0,"used":true,"health":1},{"PRN":7,"gnssid":0,"svid":7,"az":303.0,"el":24.0,"prRes":30.3,"qual":4,"ss":19.0,"used":false,"health":1},{"PRN":8,"gnssid":0,"svid":8,"az":195.0,"el":32.0,"prRes":19.5,"qual":7,"ss":40.0,"used":true,"health":1},{"PRN":9,"gnssid":0,"svid":9,"az":0.0,"prRes":0.0,"qual":4,"ss":25.0,"used":false},{"PRN":16,"gnssid":0,"svid":16,"az":46.0,"el":64.0,"prRes":4.6,"qual":7,"ss":34.0,"used":true,"health":1},{"PRN":26,"gnssid":0,"svid":26,"az":67.0,"el":36.0,"prRes":6.7,"qual":7,"ss":36.0,"used":true,"health":1},{"PRN":27,"gnssid":0,"svid":27,"az":154.0,"el":63.0,"prRes":15.4,"qual":7,"ss":41.0,"used":true,"health":1},{"PRN":31,"gnssid":0,"svid":31,"az":0.0,"prRes":0.0,"qual":3,"ss":8.0,"used":false},{"PRN":67,"gnssid":6,"svid":3,"az":229.0,"el":21.0,"prRes":22.9,"qual":4,"ss":24.0,"used":true,"health":1},{"PRN":76,"gnssid":6,"svid":12,"az":84.0,"el":20.0,"prRes":8.4,"qual":7,"ss":30.0,"used":true,"health":1},{"PRN":77,"gnssid":6,"svid":13,"az":34.0,"el":62.0,"prRes":3.4,"qual":4,"ss":22.0,"used":false,"health":1},{"PRN":78,"gnssid":6,"svid":14,"az":301.0,"el":38.0,"prRes":30.1,"qual":7,"ss":32.0,"used":true,"health":1},{"PRN":87,"gnssid":6,"svid":23,"az":126.0,"el":41.0,"prRes":12.6,"qual":7,"ss":43.0,"used":true,"health":1},{"PRN":88,"gnssid":6,"svid":24,"az":160.0,"el":16.0,"prRes":16.0,"qual":7,"ss":36.0,"used":true,"health":1}]}
{"class":"SKY","time":"2021-02-23T18:04:32.000Z","gdop":0.32,"hdop":0.95,"pdop":1.88,"tdop":0.32,"xdop":0.59,"ydop":0.74,"vdop":1.62}
$GPZDA,180432.00,23,02,2021,00,00*68
$GPGGA,180432.00,4445.9264300,N,06848.3999060,W,7,10,0.95,43.16,M,-25.789,M,,*60
$GPRMC,180432.00,A,4445.9264300,N,6848.3999060,W,0.0000,,230221,-15.9,W*6F
$GPGSA,A,3,4,8,16,26,27,67,76,78,,,,,1.9,0.9,1.6*31
$GPGBS,180432.00,8.877,11.075,14.580,,,,*47
{"class":"TPV","status":7,"mode":3,"time":"2021-02-23T18:04:32.000Z","leapseconds":18,"ept":0.005,"lat":44.765440500,"lon":-68.806665100,"altHAE":13.6840,"altMSL":43.1560,"alt":43.1560,"epx":8.877,"epy":11.075,"epv":14.580,"magvar":-15.9,"speed":0.000,"climb":0.000,"eps":22.15,"epc":29.16,"ecefx":1639835.13,"ecefy":-4229206.51,"ecefz":4468888.59,"ecefpAcc":25.25,"geoidSep":-25.789,"eph":20.619,"sep":35.679}
{"class":"SKY","time":"2021-02-23T18:04:32.000Z","gdop":0.32,"hdop":0.95,"pdop":1.88,"tdop":0.32,"xdop":0.59,"ydop":0.74,"vdop":1.62}
$GPGSV,3,1,12,04,48,216,19,07,24,303,19,08,32,195,40,16,64,046,34*74
$GPGSV,3,2,12,26,36,067,37,27,63,154,41,67,21,229,23,76,20,084,30*7C
$GPGSV,3,3,12,77,62,034,23,78,38,301,32,87,41,126,43,88,16,160,36*72
{"class":"SKY","time":"2021-02-23T18:04:33.000Z","gdop":2.18,"hdop":0.95,"pdop":1.88,"tdop":1.10,"xdop":0.59,"ydop":0.74,"vdop":1.62,"nSat":14,"uSat":10,"satellites":[{"PRN":4,"gnssid":0,"svid":4,"az":216.0,"el":48.0,"prRes":21.6,"qual":4,"ss":19.0,"used":true,"health":1},{"PRN":7,"gnssid":0,"svid":7,"az":303.0,"el":24.0,"prRes":30.3,"qual":4,"ss":19.0,"used":false,"health":1},{"PRN":8,"gnssid":0,"svid":8,"az":195.0,"el":32.0,"prRes":19.5,"qual":7,"ss":40.0,"used":true,"health":1},{"PRN":9,"gnssid":0,"svid":9,"az":0.0,"prRes":0.0,"qual":4,"ss":25.0,"used":false},{"PRN":16,"gnssid":0,"svid":16,"az":46.0,"el":64.0,"prRes":4.6,"qual":7,"ss":34.0,"used":true,"health":1},{"PRN":26,"gnssid":0,"svid":26,"az":67.0,"el":36.0,"prRes":6.7,"qual":7,"ss":37.0,"used":true,"health":1},{"PRN":27,"gnssid":0,"svid":27,"az":154.0,"el":63.0,"prRes":15.4,"qual":7,"ss":41.0,"used":true,"health":1},{"PRN":31,"gnssid":0,"svid":31,"az":0.0,"prRes":0.0,"qual":3,"ss":8.0,"used":false},{"PRN":67,"gnssid":6,"svid":3,"az":229.0,"el":21.0,"prRes":22.9,"qual":4,"ss":23.0,"used":true,"health":1},{"PRN":76,"gnssid":6,"svid":12,"az":84.0,"el":20.0,"prRes":8.4,"qual":7,"ss":30.0,"used":true,"health":1},{"PRN":77,"gnssid":6,"svid":13,"az":34.0,"el":62.0,"prRes":3.4,"qual":4,"ss":23.0,"used":false,"health":1},{"PRN":78,"gnssid":6,"svid":14,"az":301.0,"el":38.0,"prRes":30.1,"qual":7,"ss":32.0,"used":true,"health":1},{"PRN":87,"gnssid":6,"svid":23,"az":126.0,"el":41.0,"prRes":12.6,"qual":7,"ss":43.0,"used":true,"health":1},{"PRN":88,"gnssid":6,"svid":24,"az":160.0,"el":16.0,"prRes":16.0,"qual":7,"ss":36.0,"used":true,"health":1}]}
{"class":"SKY","time":"2021-02-23T18:04:33.000Z","gdop":0.32,"hdop":0.95,"pdop":1.88,"tdop":0.32,"xdop":0.59,"ydop":0.74,"vdop":1.62}
$GPZDA,180433.00,23,02,2021,00,00*69
$GPGGA,180433.00,4445.9264300,N,06848.3999060,W,7,10,0.95,43.16,M,-25.789,M,,*61
$GPRMC,180433.00,A,4445.9264300,N,6848.3999060,W,0.0000,,230221,-15.9,W*6E
$GPGSA,A,3,4,8,16,26,27,67,76,78,,,,,1.9,0.9,1.6*31
$GPGBS,180433.00,8.877,11.075,14.580,,,,*46
{"class":"TPV","status":7,"mode":3,"time":"2021-02-23T18:04:33.000Z","leapseconds":18,"ept":0.005,"lat":44.765440500,"lon":-68.806665100,"altHAE":13.6840,"altMSL":43.1560,"alt":43.1560,"epx":8.877,"epy":11.075,"epv":14.580,"magvar":-15.9,"speed":0.000,"climb":0.000,"eps":22.15,"epc":29.16,"ecefx":1639835.13,"ecefy":-4229206.51,"ecefz":4468888.59,"ecefpAcc":25.25,"geoidSep":-25.789,"eph":20.619,"sep":35.679}
{"class":"SKY","time":"2021-02-23T18:04:33.000Z","gdop":0.32,"hdop":0.95,"pdop":1.88,"tdop":0.32,"xdop":0.59,"ydop":0.74,"vdop":1.62}
$GPGSV,3,1,12,04,48,216,20,07,24,303,19,08,32,195,40,16,64,046,34*7E
$GPGSV,3,2,12,26,36,067,37,27,63,154,41,67,21,229,22,76,20,084,30*7D
$GPGSV,3,3,12,77,62,034,22,78,38,301,32,87,41,126,42,88,16,160,35*71
{"class":"SKY","time":"2021-02-23T18:04:34.000Z","gdop":2.18,"hdop":0.95,"pdop":1.88,"tdop":1.10,"xdop":0.59,"ydop":0.74,"vdop":1.62,"nSat":14,"uSat":10,"satellites":[{"PRN":4,"gnssid":0,"svid":4,"az":216.0,"el":48.0,"prRes":21.6,"qual":4,"ss":20.0,"used":true,"health":1},{"PRN":7,"gnssid":0,"svid":7,"az":303.0,"el":24.0,"prRes":30.3,"qual":4,"ss":19.0,"used":false,"health":1},{"PRN":8,"gnssid":0,"svid":8,"az":195.0,"el":32.0,"prRes":19.5,"qual":7,"ss":40.0,"used":true,"health":1},{"PRN":9,"gnssid":0,"svid":9,"az":0.0,"prRes":0.0,"qual":4,"ss":24.0,"used":false},{"PRN":16,"gnssid":0,"svid":16,"az":46.0,"el":64.0,"prRes":4.6,"qual":7,"ss":34.0,"used":true,"health":1},{"PRN":26,"gnssid":0,"svid":26,"az":67.0,"el":36.0,"prRes":6.7,"qual":7,"ss":37.0,"used":true,"health":1},{"PRN":27,"gnssid":0,"svid":27,"az":154.0,"el":63.0,"prRes":15.4,"qual":7,"ss":41.0,"used":true,"health":1},{"PRN":31,"gnssid":0,"svid":31,"az":0.0,"prRes":0.0,"qual":3,"ss":9.0,"used":false},{"PRN":67,"gnssid":6,"svid":3,"az":229.0,"el":21.0,"prRes":22.9,"qual":4,"ss":22.0,"used":true,"health":1},{"PRN":76,"gnssid":6,"svid":12,"az":84.0,"el":20.0,"prRes":8.4,"qual":7,"ss":30.0,"used":true,"health":1},{"PRN":77,"gnssid":6,"svid":13,"az":34.0,"el":62.0,"prRes":3.4,"qual":4,"ss":22.0,"used":false,"health":1},{"PRN":78,"gnssid":6,"svid":14,"az":301.0,"el":38.0,"prRes":30.1,"qual":7,"ss":32.0,"used":true,"health":1},{"PRN":87,"gnssid":6,"svid":23,"az":126.0,"el":41.0,"prRes":12.6,"qual":7,"ss":42.0,"used":true,"health":1},{"PRN":88,"gnssid":6,"svid":24,"az":160.0,"el":16.0,"prRes":16.0,"qual":7,"ss":35.0,"used":true,"health":1}]}
{"class":"SKY","time":"2021-02-23T18:04:34.000Z","gdop":0.32,"hdop":0.95,"pdop":1.88,"tdop":0.32,"xdop":0.59,"ydop":0.74,"vdop":1.62}
$GPZDA,180434.00,23,02,2021,00,00*6E
$GPGGA,180434.00,4445.9264300,N,06848.3999060,W,7,10,0.95,43.16,M,-25.789,M,,*66
$GPRMC,180434.00,A,4445.9264300,N,6848.3999060,W,0.0000,,230221,-15.9,W*69
$GPGSA,A,3,4,8,16,26,27,67,76,78,,,,,1.9,0.9,1.6*31
$GPGBS,180434.00,8.877,11.075,14.580,,,,*41
{"class":"TPV","status":7,"mode":3,"time":"2021-02-23T18:04:34.000Z","leapseconds":18,"ept":0.005,"lat":44.765440500,"lon":-68.806665100,"altHAE":13.6840,"altMSL":43.1560,"alt":43.1560,"epx":8.877,"epy":11.075,"epv":14.580,"magvar":-15.9,"speed":0.000,"climb":0.000,"eps":22.15,"epc":29.16,"ecefx":1639835.13,"ecefy":-4229206.51,"ecefz":4468888.59,"ecefpAcc":25.25,"geoidSep":-25.789,"eph":20.619,"sep":35.679}
{"class":"SKY","time":"2021-02-23T18:04:34.000Z","gdop":0.32,"hdop":0.95,"pdop":1.88,"tdop":0.32,"xdop":0.59,"ydop":0.74,"vdop":1.62}
$GPGSV,3,1,12,04,48,216,21,07,24,303,18,08,32,195,40,16,64,046,34*7E
$GPGSV,3,2,12,26,36,067,37,27,63,154,41,67,21,229,20,76,20,084,29*77
$GPGSV,3,3,12,77,62,034,21,78,38,301,30,87,41,126,40,88,16,160,33*74
{"class":"SKY","time":"2021-02-23T18:04:35.000Z","gdop":2.55,"hdop":1.36,"pdop":2.18,"tdop":1.33,"xdop":0.85,"ydop":1.06,"vdop":1.70,"nSat":14,"uSat":9,"satellites":[{"PRN":4,"gnssid":0,"svid":4,"az":216.0,"el":48.0,"prRes":21.6,"qual":4,"ss":21.0,"used":true,"health":1},{"PRN":7,"gnssid":0,"svid":7,"az":303.0,"el":24.0,"prRes":30.3,"qual":4,"ss":18.0,"used":false,"health":1},{"PRN":8,"gnssid":0,"svid":8,"az":195.0,"el":32.0,"prRes":19.5,"qual":7,"ss":40.0,"used":true,"health":1},{"PRN":9,"gnssid":0,"svid":9,"az":0.0,"prRes":0.0,"qual":4,"ss":25.0,"used":false},{"PRN":16,"gnssid":0,"svid":16,"az":46.0,"el":64.0,"prRes":4.6,"qual":7,"ss":34.0,"used":true,"health":1},{"PRN":26,"gnssid":0,"svid":26,"az":67.0,"el":36.0,"prRes":6.7,"qual":7,"ss":37.0,"used":true,"health":1},{"PRN":27,"gnssid":0,"svid":27,"az":154.0,"el":63.0,"prRes":15.4,"qual":7,"ss":41.0,"used":true,"health":1},{"PRN":31,"gnssid":0,"svid":31,"az":0.0,"prRes":0.0,"qual":3,"ss":8.0,"used":false},{"PRN":67,"gnssid":6,"svid":3,"az":229.0,"el":21.0,"prRes":22.9,"qual":4,"ss":20.0,"used":true,"health":1},{"PRN":76,"gnssid":6,"svid":12,"az":84.0,"el":20.0,"prRes":8.4,"qual":7,"ss":29.0,"used":true,"health":1},{"PRN":77,"gnssid":6,"svid":13,"az":34.0,"el":62.0,"prRes":3.4,"qual":4,"ss":21.0,"used":false,"health":1},{"PRN":78,"gnssid":6,"svid":14,"az":301.0,"el":38.0,"prRes":30.1,"qual":4,"ss":30.0,"used":false,"health":1},{"PRN":87,"gnssid":6,"svid":23,"az":126.0,"el":41.0,"prRes":12.6,"qual":7,"ss":40.0,"used":true,"health":1},{"PRN":88,"gnssid":6,"svid":24,"az":160.0,"el":16.0,"prRes":16.0,"qual":7,"ss":33.0,"used":true,"health":1}]}
{"class":"SKY","time":"2021-02-23T18:04:35.000Z","gdop":0.33,"hdop":1.36,"pdop":2.18,"tdop":0.33,"xdop":0.85,"ydop":1.06,"vdop":1.70}
$GPZDA,180435.00,23,02,2021,00,00*6F
$GPGGA,180435.00,4445.9264300,N,06848.3999060,W,7,09,1.36,43.16,M,-25.789,M,,*67
$GPRMC,180435.00,A,4445.9264300,N,6848.3999060,W,0.0000,,230221,-15.9,W*68
$GPGSA,A,3,4,8,16,26,27,67,76,,,,,,2.2,1.4,1.7*3B
$GPGBS,180435.00,12.696,15.960,14.580,,,,*73
{"class":"TPV","status":7,"mode":3,"time":"2021-02-23T18:04:35.000Z","leapseconds":18,"ept":0.005,"lat":44.765440500,"lon":-68.806665100,"altHAE":13.6840,"altMSL":43.1560,"alt":43.1560,"epx":12.696,"epy":15.960,"epv":14.580,"magvar":-15.9,"speed":0.000,"climb":0.000,"eps":27.04,"epc":29.16,"ecefx":1639835.13,"ecefy":-4229206.51,"ecefz":4468888.59,"ecefpAcc":25.25,"geoidSep":-25.789,"eph":20.619,"sep":41.402}
{"class":"SKY","time":"2021-02-23T18:04:35.000Z","gdop":0.33,"hdop":1.36,"pdop":2.18,"tdop":0.33,"xdop":0.85,"ydop":1.06,"vdop":1.70}
$GPGSV,3,1,12,04,48,216,22,07,24,303,17,08,32,195,39,16,64,046,34*7C
$GPGSV,3,2,12,26,36,067,37,27,63,154,41,67,21,229,17,76,20,084,28*72
$GPGSV,3,3,12,77,62,034,20,78,38,301,30,87,41,126,41,88,16,160,33*74
{"class":"SKY","time":"2021-02-23T18:04:36.000Z","gdop":2.18,"hdop":0.95,"pdop":1.88,"tdop":1.10,"xdop":0.59,"ydop":0.74,"vdop":1.62,"nSat":13,"uSat":10,"satellites":[{"PRN":4,"gnssid":0,"svid":4,"az":216.0,"el":48.0,"prRes":21.6,"qual":4,"ss":22.0,"used":true,"health":1},{"PRN":7,"gnssid":0,"svid":7,"az":303.0,"el":24.0,"prRes":30.3,"qual":4,"ss":17.0,"used":false,"health":1},{"PRN":8,"gnssid":0,"svid":8,"az":195.0,"el":32.0,"prRes":19.5,"qual":7,"ss":39.0,"used":true,"health":1},{"PRN":9,"gnssid":0,"svid":9,"az":0.0,"prRes":0.0,"qual":4,"ss":24.0,"used":false},{"PRN":16,"gnssid":0,"svid":16,"az":46.0,"el":64.0,"prRes":4.6,"qual":7,"ss":34.0,"used":true,"health":1},{"PRN":26,"gnssid":0,"svid":26,"az":67.0,"el":36.0,"prRes":6.7,"qual":7,"ss":37.0,"used":true,"health":1},{"PRN":27,"gnssid":0,"svid":27,"az":154.0,"el":63.0,"prRes":15.4,"qual":7,"ss":41.0,"used":true,"health":1},{"PRN":67,"gnssid":6,"svid":3,"az":229.0,"el":21.0,"prRes":22.9,"qual":4,"ss":17.0,"used":true,"health":1},{"PRN":76,"gnssid":6,"svid":12,"az":84.0,"el":20.0,"prRes":8.4,"qual":7,"ss":28.0,"used":true,"health":1},{"PRN":77,"gnssid":6,"svid":13,"az":34.0,"el":62.0,"prRes":3.4,"qual":4,"ss":20.0,"used":false,"health":1},{"PRN":78,"gnssid":6,"svid":14,"az":301.0,"el":38.0,"prRes":30.1,"qual":6,"ss":30.0,"used":true,"health":1},{"PRN":87,"gnssid":6,"svid":23,"az":126.0,"el":41.0,"prRes":12.6,"qual":7,"ss":41.0,"used":true,"health":1},{"PRN":88,"gnssid":6,"svid":24,"az":160.0,"el":16.0,"prRes":16.0,"qual":7,"ss":33.0,"used":true,"health":1}]}
{"class":"SKY","time":"2021-02-23T18:04:36.000Z","gdop":0.32,"hdop":0.95,"pdop":1.88,"tdop":0.32,"xdop":0.59,"ydop":0.74,"vdop":1.62}
$GPZDA,180436.00,23,02,2021,00,00*6C
$GPGGA,180436.00,4445.9264300,N,06848.3999060,W,7,10,0.95,43.16,M,-25.789,M,,*64
$GPRMC,180436.00,A,4445.9264300,N,6848.3999060,W,0.0000,,230221,-15.9,W*6B
$GPGSA,A,3,4,8,16,26,27,67,76,78,87,,,,1.9,0.9,1.6*3E
$GPGBS,180436.00,8.877,11.075,14.580,,,,*43
{"class":"TPV","status":7,"mode":3,"time":"2021-02-23T18:04:36.000Z","leapseconds":18,"ept":0.005,"lat":44.765440500,"lon":-68.806665100,"altHAE":13.6840,"altMSL":43.1560,"alt":43.1560,"epx":8.877,"epy":11.075,"epv":14.580,"magvar":-15.9,"speed":0.000,"climb":0.000,"eps":27.04,"epc":29.16,"ecefx":1639835.13,"ecefy":-4229206.51,"ecefz":4468888.59,"ecefpAcc":25.25,"geoidSep":-25.789,"eph":20.619,"sep":35.679}
{"class":"SKY","time":"2021-02-23T18:04:36.000Z","gdop":0.32,"hdop":0.95,"pdop":1.88,"tdop":0.32,"xdop":0.59,"ydop":0.74,"vdop":1.62}
$GPGSV,3,1,12,04,48,216,23,07,24,303,16,08,32,195,39,16,64,046,33*7B
$GPGSV,3,2,12,26,36,067,37,27,63,154,41,67,21,229,16,76,20,084,28*73
$GPGSV,3,3,12,77,62,034,20,78,38,301,29,87,41,126,41,88,16,160,32*7D
{"class":"SKY","time":"2021-02-23T18:04:37.000Z","gdop":2.18,"hdop":0.95,"pdop":1.88,"tdop":1.10,"xdop":0.59,"ydop":0.74,"vdop":1.62,"nSat":13,"uSat":10,"satellites":[{"PRN":4,"gnssid":0,"svid":4,"az":216.0,"el":48.0,"prRes":21.6,"qual":4,"ss":23.0,"used":true,"health":1},{"PRN":7,"gnssid":0,"svid":7,"az":303.0,"el":24.0,"prRes":30.3,"qual":4,"ss":16.0,"used":false,"health":1},{"PRN":8,"gnssid":0,"svid":8,"az":195.0,"el":32.0,"prRes":19.5,"qual":7,"ss":39.0,"used":true,"health":1},{"PRN":9,"gnssid":0,"svid":9,"az":0.0,"prRes":0.0,"qual":4,"ss":23.0,"used":false},{"PRN":16,"gnssid":0,"svid":16,"az":46.0,"el":64.0,"prRes":4.6,"qual":7,"ss":33.0,"used":true,"health":1},{"PRN":26,"gnssid":0,"svid":26,"az":67.0,"el":36.0,"prRes":6.7,"qual":7,"ss":37.0,"used":true,"health":1},{"PRN":27,"gnssid":0,"svid":27,"az":154.0,"el":63.0,"prRes":15.4,"qual":7,"ss":41.0,"used":true,"health":1},{"PRN":67,"gnssid":6,"svid":3,"az":229.0,"el":21.0,"prRes":22.9,"qual":4,"ss":16.0,"used":true,"health":1},{"PRN":76,"gnssid":6,"svid":12,"az":84.0,"el":20.0,"prRes":8.4,"qual":7,"ss":28.0,"used":true,"health":1},{"PRN":77,"gnssid":6,"svid":13,"az":34.0,"el":62.0,"prRes":3.4,"qual":4,"ss":20.0,"used":false,"health":1},{"PRN":78,"gnssid":6,"svid":14,"az":301.0,"el":38.0,"prRes":30.1,"qual":6,"ss":29.0,"used":true,"health":1},{"PRN":87,"gnssid":6,"svid":23,"az":126.0,"el":41.0,"prRes":12.6,"qual":7,"ss":41.0,"used":true,"health":1},{"PRN":88,"gnssid":6,"svid":24,"az":160.0,"el":16.0,"prRes":16.0,"qual":7,"ss":32.0,"used":true,"health":1}]}
{"class":"SKY","time":"2021-02-23T18:04:37.000Z","gdop":0.32,"hdop":0.95,"pdop":1.88,"tdop":0.32,"xdop":0.59,"ydop":0.74,"vdop":1.62}
$GPZDA,180437.00,23,02,2021,00,00*6D
$GPGGA,180437.00,4445.9264300,N,06848.3999060,W,7,10,0.95,43.16,M,-25.789,M,,*65
$GPRMC,180437.00,A,4445.9264300,N,6848.3999060,W,0.0000,,230221,-15.9,W*6A
$GPGSA,A,3,4,8,16,26,27,67,76,78,87,,,,1.9,0.9,1.6*3E
$GPGBS,180437.00,8.877,11.075,14.580,,,,*42
{"class":"TPV","status":7,"mode":3,"time":"2021-02-23T18:04:37.000Z","leapseconds":18,"ept":0.005,"lat":44.765440500,"lon":-68.806665100,"altHAE":13.6840,"altMSL":43.1560,"alt":43.1560,"epx":8.877,"epy":11.075,"epv":14.580,"magvar":-15.9,"speed":0.000,"climb":0.000,"eps":22.15,"epc":29.16,"ecefx":1639835.13,"ecefy":-4229206.51,"ecefz":4468888.59,"ecefpAcc":25.25,"geoidSep":-25.789,"eph":20.619,"sep":35.679}
{"class":"SKY","time":"2021-02-23T18:04:37.000Z","gdop":0.32,"hdop":0.95,"pdop":1.88,"tdop":0.32,"xdop":0.59,"ydop":0.74,"vdop":1.62}
$GPGSV,3,1,12,04,48,216,24,07,24,303,16,08,32,195,39,16,64,046,33*7C
$GPGSV,3,2,12,26,36,067,36,27,63,154,40,67,21,229,17,76,20,084,29*73
$GPGSV,3,3,12,77,62,034,20,78,38,301,29,87,41,126,41,88,16,160,33*7C
{"class":"SKY","time":"2021-02-23T18:04:38.000Z","gdop":2.18,"hdop":0.95,"pdop":1.88,"tdop":1.10,"xdop":0.59,"ydop":0.74,"vdop":1.62,"nSat":13,"uSat":10,"satellites":[{"PRN":4,"gnssid":0,"svid":4,"az":216.0,"el":48.0,"prRes":21.6,"qual":4,"ss":24.0,"used":true,"health":1},{"PRN":7,"gnssid":0,"svid":7,"az":303.0,"el":24.0,"prRes":30.3,"qual":4,"ss":16.0,"used":false,"health":1},{"PRN":8,"gnssid":0,"svid":8,"az":195.0,"el":32.0,"prRes":19.5,"qual":7,"ss":39.0,"used":true,"health":1},{"PRN":9,"gnssid":0,"svid":9,"az":0.0,"prRes":0.0,"qual":4,"ss":23.0,"used":false},{"PRN":16,"gnssid":0,"svid":16,"az":46.0,"el":64.0,"prRes":4.6,"qual":7,"ss":33.0,"used":true,"health":1},{"PRN":26,"gnssid":0,"svid":26,"az":67.0,"el":36.0,"prRes":6.7,"qual":7,"ss":36.0,"used":true,"health":1},{"PRN":27,"gnssid":0,"svid":27,"az":154.0,"el":63.0,"prRes":15.4,"qual":7,"ss":40.0,"used":true,"health":1},{"PRN":67,"gnssid":6,"svid":3,"az":229.0,"el":21.0,"prRes":22.9,"qual":4,"ss":17.0,"used":true,"health":1},{"PRN":76,"gnssid":6,"svid":12,"az":84.0,"el":20.0,"prRes":8.4,"qual":7,"ss":29.0,"used":true,"health":1},{"PRN":77,"gnssid":6,"svid":13,"az":34.0,"el":62.0,"prRes":3.4,"qual":4,"ss":20.0,"used":false,"health":1},{"PRN":78,"gnssid":6,"svid":14,"az":301.0,"el":38.0,"prRes":30.1,"qual":6,"ss":29.0,"used":true,"health":1},{"PRN":87,"gnssid":6,"svid":23,"az":126.0,"el":41.0,"prRes":12.6,"qual":7,"ss":41.0,"used":true,"health":1},{"PRN":88,"gnssid":6,"svid":24,"az":160.0,"el":16.0,"prRes":16.0,"qual":7,"ss":33.0,"used":true,"health":1}]}
{"class":"SKY","time":"2021-02-23T18:04:38.000Z","gdop":0.32,"hdop":0.95,"pdop":1.88,"tdop":0.32,"xdop":0.59,"ydop":0.74,"vdop":1.62}
$GPZDA,180438.00,23,02,2021,00,00*62
$GPGGA,180438.00,4445.9264300,N,06848.3999060,W,7,10,0.95,43.16,M,-25.789,M,,*6A
$GPRMC,180438.00,A,4445.9264300,N,6848.3999060,W,0.0000,,230221,-15.9,W*65
$GPGSA,A,3,4,8,16,26,27,67,76,78,87,,,,1.9,0.9,1.6*3E
$GPGBS,180438.00,8.877,11.075,14.580,,,,*4D
{"class":"TPV","status":7,"mode":3,"time":"2021-02-23T18:04:38.000Z","leapseconds":18,"ept":0.005,"lat":44.765440500,"lon":-68.806665100,"altHAE":13.6840,"altMSL":43.1560,"alt":43.1560,"epx":8.877,"epy":11.075,"epv":14.580,"magvar":-15.9,"speed":0.000,"climb":0.000,"eps":22.15,"epc":29.16,"ecefx":1639835.13,"ecefy":-4229206.51,"ecefz":4468888.59,"ecefpAcc":25.25,"geoidSep":-25.789,"eph":20.619,"sep":35.679}
{"class":"SKY","time":"2021-02-23T18:04:38.000Z","gdop":0.32,"hdop":0.95,"pdop":1.88,"tdop":0.32,"xdop":0.59,"ydop":0.74,"vdop":1.62}
$GPGSV,3,1,12,04,48,216,25,07,24,303,16,08,32,195,39,16,64,046,33*7D
$GPGSV,3,2,12,26,36,067,37,27,63,154,40,67,21,229,17,76,20,084,30*7A
$GPGSV,3,3,12,77,62,035,21,78,38,301,28,87,41,126,41,88,16,160,33*7D
{"class":"SKY","time":"2021-02-23T18:04:39.000Z","gdop":2.18,"hdop":0.95,"pdop":1.88,"tdop":1.10,"xdop":0.59,"ydop":0.74,"vdop":1.62,"nSat":13,"uSat":10,"satellites":[{"PRN":4,"gnssid":0,"svid":4,"az":216.0,"el":48.0,"prRes":21.6,"qual":4,"ss":25.0,"used":true,"health":1},{"PRN":7,"gnssid":0,"svid":7,"az":303.0,"el":24.0,"prRes":30.3,"qual":4,"ss":16.0,"used":false,"health":1},{"PRN":8,"gnssid":0,"svid":8,"az":195.0,"el":32.0,"prRes":19.5,"qual":7,"ss":39.0,"used":true,"health":1},{"PRN":9,"gnssid":0,"svid":9,"az":0.0,"prRes":0.0,"qual":4,"ss":23.0,"used":false},{"PRN":16,"gnssid":0,"svid":16,"az":46.0,"el":64.0,"prRes":4.6,"qual":7,"ss":33.0,"used":true,"health":1},{"PRN":26,"gnssid":0,"svid":26,"az":67.0,"el":36.0,"prRes":6.7,"qual":7,"ss":37.0,"used":true,"health":1},{"PRN":27,"gnssid":0,"svid":27,"az":154.0,"el":63.0,"prRes":15.4,"qual":7,"ss":40.0,"used":true,"health":1},{"PRN":67,"gnssid":6,"svid":3,"az":229.0,"el":21.0,"prRes":22.9,"qual":4,"ss":17.0,"used":true,"health":1},{"PRN":76,"gnssid":6,"svid":12,"az":84.0,"el":20.0,"prRes":8.4,"qual":7,"ss":30.0,"used":true,"health":1},{"PRN":77,"gnssid":6,"svid":13,"az":35.0,"el":62.0,"prRes":3.5,"qual":4,"ss":21.0,"used":false,"health":1},{"PRN":78,"gnssid":6,"svid":14,"az":301.0,"el":38.0,"prRes":30.1,"qual":6,"ss":28.0,"used":true,"health":1},{"PRN":87,"gnssid":6,"svid":23,"az":126.0,"el":41.0,"prRes":12.6,"qual":7,"ss":41.0,"used":true,"health":1},{"PRN":88,"gnssid":6,"svid":24,"az":160.0,"el":16.0,"prRes":16.0,"qual":7,"ss":33.0,"used":true,"health":1}]}
{"class":"SKY","time":"2021-02-23T18:04:39.000Z","gdop":0.32,"hdop":0.95,"pdop":1.88,"tdop":0.32,"xdop":0.59,"ydop":0.74,"vdop":1.62}
$GPZDA,180439.00,23,02,2021,00,00*63
$GPGGA,180439.00,4445.9264300,N,06848.3999060,W,7,10,0.95,43.16,M,-25.789,M,,*6B
$GPRMC,180439.00,A,4445.9264300,N,6848.3999060,W,0.0000,,230221,-15.9,W*64
$GPGSA,A,3,4,8,16,26,27,67,76,78,87,,,,1.9,0.9,1.6*3E
$GPGBS,180439.00,8.877,11.075,14.580,,,,*4C
{"class":"TPV","status":7,"mode":3,"time":"2021-02-23T18:04:39.000Z","leapseconds":18,"ept":0.005,"lat":44.765440500,"lon":-68.806665100,"altHAE":13.6840,"altMSL":43.1560,"alt":43.1560,"epx":8.877,"epy":11.075,"epv":14.580,"magvar":-15.9,"speed":0.000,"climb":0.000,"eps":22.15,"epc":29.16,"ecefx":1639835.13,"ecefy":-4229206.51,"ecefz":4468888.59,"ecefpAcc":25.25,"geoidSep":-25.789,"eph":20.619,"sep":35.679}
{"class":"SKY","time":"2021-02-23T18:04:39.000Z","gdop":0.32,"hdop":0.95,"pdop":1.88,"tdop":0.32,"xdop":0.59,"ydop":0.74,"vdop":1.62}
$GPGSV,3,1,12,04,48,216,26,07,24,303,15,08,32,195,38,16,64,046,32*7D
$GPGSV,3,2,12,26,36,067,37,27,63,154,40,67,21,229,16,76,20,084,31*7A
$GPGSV,3,3,12,77,62,035,21,78,38,301,28,87,41,126,41,88,16,160,33*7D
{"class":"SKY","time":"2021-02-23T18:04:40.000Z","gdop":2.18,"hdop":0.95,"pdop":1.88,"tdop":1.10,"xdop":0.59,"ydop":0.74,"vdop":1.62,"nSat":13,"uSat":10,"satellites":[{"PRN":4,"gnssid":0,"svid":4,"az":216.0,"el":48.0,"prRes":21.6,"qual":4,"ss":26.0,"used":true,"health":1},{"PRN":7,"gnssid":0,"svid":7,"az":303.0,"el":24.0,"prRes":30.3,"qual":4,"ss":15.0,"used":false,"health":1},{"PRN":8,"gnssid":0,"svid":8,"az":195.0,"el":32.0,"prRes":19.5,"qual":7,"ss":38.0,"used":true,"health":1},{"PRN":9,"gnssid":0,"svid":9,"az":0.0,"prRes":0.0,"qual":4,"ss":22.0,"used":false},{"PRN":16,"gnssid":0,"svid":16,"az":46.0,"el":64.0,"prRes":4.6,"qual":7,"ss":32.0,"used":true,"health":1},{"PRN":26,"gnssid":0,"svid":26,"az":67.0,"el":36.0,"prRes":6.7,"qual":7,"ss":37.0,"used":true,"health":1},{"PRN":27,"gnssid":0,"svid":27,"az":154.0,"el":63.0,"prRes":15.4,"qual":7,"ss":40.0,"used":true,"health":1},{"PRN":67,"gnssid":6,"svid":3,"az":229.0,"el":21.0,"prRes":22.9,"qual":4,"ss":16.0,"used":true,"health":1},{"PRN":76,"gnssid":6,"svid":12,"az":84.0,"el":20.0,"prRes":8.4,"qual":7,"ss":31.0,"used":true,"health":1},{"PRN":77,"gnssid":6,"svid":13,"az":35.0,"el":62.0,"prRes":3.5,"qual":4,"ss":21.0,"used":false,"health":1},{"PRN":78,"gnssid":6,"svid":14,"az":301.0,"el":38.0,"prRes":30.1,"qual":6,"ss":28.0,"used":true,"health":1},{"PRN":87,"gnssid":6,"svid":23,"az":126.0,"el":41.0,"prRes":12.6,"qual":7,"ss":41.0,"used":true,"health":1},{"PRN":88,"gnssid":6,"svid":24,"az":160.0,"el":16.0,"prRes":16.0,"qual":7,"ss":33.0,"used":true,"health":1}]}
{"class":"SKY","time":"2021-02-23T18:04:40.000Z","gdop":0.32,"hdop":0.95,"pdop":1.88,"tdop":0.32,"xdop":0.59,"ydop":0.74,"vdop":1.62}
$GPZDA,180440.00,23,02,2021,00,00*6D
$GPGGA,180440.00,4445.9264300,N,06848.3999060,W,7,10,0.95,43.16,M,-25.789,M,,*65
$GPRMC,180440.00,A,4445.9264300,N,6848.3999060,W,0.0000,,230221,-15.9,W*6A
$GPGSA,A,3,4,8,16,26,27,67,76,78,87,,,,1.9,0.9,1.6*3E
$GPGBS,180440.00,8.877,11.075,14.580,,,,*42
{"class":"TPV","status":7,"mode":3,"time":"2021-02-23T18:04:40.000Z","leapseconds":18,"ept":0.005,"lat":44.765440500,"lon":-68.806665100,"altHAE":13.6840,"altMSL":43.1560,"alt":43.1560,"epx":8.877,"epy":11.075,"epv":14.580,"magvar":-15.9,"speed":0.000,"climb":0.000,"eps":22.15,"epc":29.16,"ecefx":1639835.13,"ecefy":-4229206.51,"ecefz":4468888.59,"ecefpAcc":25.25,"geoidSep":-25.789,"eph":20.619,"sep":35.679}
{"class":"SKY","time":"2021-02-23T18:04:40.000Z","gdop":0.32,"hdop":0.95,"pdop":1.88,"tdop":0.32,"xdop":0.59,"ydop":0.74,"vdop":1.62}
$GPGSV,3,1,12,04,48,216,27,07,24,303,16,08,32,195,38,16,64,046,32*7F
$GPGSV,3,2,12,26,36,067,37,27,63,154,41,67,21,229,16,76,20,084,31*7B
$GPGSV,3,3,12,77,62,035,20,78,38,301,28,87,41,126,41,88,16,160,33*7C
{"class":"SKY","time":"2021-02-23T18:04:41.000Z","gdop":2.18,"hdop":0.95,"pdop":1.88,"tdop":1.10,"xdop":0.59,"ydop":0.74,"vdop":1.62,"nSat":13,"uSat":10,"satellites":[{"PRN":4,"gnssid":0,"svid":4,"az":216.0,"el":48.0,"prRes":21.6,"qual":4,"ss":27.0,"used":true,"health":1},{"PRN":7,"gnssid":0,"svid":7,"az":303.0,"el":24.0,"prRes":30.3,"qual":4,"ss":16.0,"used":false,"health":1},{"PRN":8,"gnssid":0,"svid":8,"az":195.0,"el":32.0,"prRes":19.5,"qual":7,"ss":38.0,"used":true,"health":1},{"PRN":9,"gnssid":0,"svid":9,"az":0.0,"prRes":0.0,"qual":4,"ss":21.0,"used":false},{"PRN":16,"gnssid":0,"svid":16,"az":46.0,"el":64.0,"prRes":4.6,"qual":7,"ss":32.0,"used":true,"health":1},{"PRN":26,"gnssid":0,"svid":26,"az":67.0,"el":36.0,"prRes":6.7,"qual":7,"ss":37.0,"used":true,"health":1},{"PRN":27,"gnssid":0,"svid":27,"az":154.0,"el":63.0,"prRes":15.4,"qual":7,"ss":41.0,"used":true,"health":1},{"PRN":67,"gnssid":6,"svid":3,"az":229.0,"el":21.0,"prRes":22.9,"qual":4,"ss":16.0,"used":true,"health":1},{"PRN":76,"gnssid":6,"svid":12,"az":84.0,"el":20.0,"prRes":8.4,"qual":7,"ss":31.0,"used":true,"health":1},{"PRN":77,"gnssid":6,"svid":13,"az":35.0,"el":62.0,"prRes":3.5,"qual":4,"ss":20.0,"used":false,"health":1},{"PRN":78,"gnssid":6,"svid":14,"az":301.0,"el":38.0,"prRes":30.1,"qual":6,"ss":28.0,"used":true,"health":1},{"PRN":87,"gnssid":6,"svid":23,"az":126.0,"el":41.0,"prRes":12.6,"qual":7,"ss":41.0,"used":true,"health":1},{"PRN":88,"gnssid":6,"svid":24,"az":160.0,"el":16.0,"prRes":16.0,"qual":7,"ss":33.0,"used":true,"health":1}]}
{"class":"SKY","time":"2021-02-23T18:04:41.000Z","gdop":0.32,"hdop":0.95,"pdop":1.88,"tdop":0.32,"xdop":0.59,"ydop":0.74,"vdop":1.62}
$GPZDA,180441.00,23,02,2021,00,00*6C
$GPGGA,180441.00,4445.9264300,N,06848.3999060,W,7,10,0.95,43.16,M,-25.789,M,,*64
$GPRMC,180441.00,A,4445.9264300,N,6848.3999060,W,0.0000,,230221,-15.9,W*6B
$GPGSA,A,3,4,8,16,26,27,67,76,78,87,,,,1.9,0.9,1.6*3E
$GPGBS,180441.00,8.877,11.075,14.580,,,,*43
{"class":"TPV","status":7,"mode":3,"time":"2021-02-23T18:04:41.000Z","leapseconds":18,"ept":0.005,"lat":44.765440500,"lon":-68.806665100,"altHAE":13.6840,"altMSL":43.1560,"alt":43.1560,"epx":8.877,"epy":11.075,"epv":14.580,"magvar":-15.9,"speed":0.000,"climb":0.000,"eps":22.15,"epc":29.16,"ecefx":1639835.13,"ecefy":-4229206.51,"ecefz":4468888.59,"ecefpAcc":25.25,"geoidSep":-25.789,"eph":20.619,"sep":35.679}
{"class":"SKY","time":"2021-02-23T18:04:41.000Z","gdop":0.32,"hdop":0.95,"pdop":1.88,"tdop":0.32,"xdop":0.59,"ydop":0.74,"vdop":1.62}
$GPGSV,3,1,12,04,48,216,28,07,24,303,15,08,32,195,37,16,64,046,31*7F
$GPGSV,3,2,12,26,36,067,37,27,63,154,41,67,21,229,15,76,20,084,31*78
$GPGSV,3,3,12,77,62,035,20,78,38,301,27,87,41,126,41,88,16,160,34*74
{"class":"SKY","time":"2021-02-23T18:04:42.000Z","gdop":2.18,"hdop":0.95,"pdop":1.88,"tdop":1.10,"xdop":0.59,"ydop":0.74,"vdop":1.62,"nSat":13,"uSat":10,"satellites":[{"PRN":4,"gnssid":0,"svid":4,"az":216.0,"el":48.0,"prRes":21.6,"qual":5,"ss":28.0,"used":true,"health":1},{"PRN":7,"gnssid":0,"svid":7,"az":303.0,"el":24.0,"prRes":30.3,"qual":4,"ss":15.0,"used":false,"health":1},{"PRN":8,"gnssid":0,"svid":8,"az":195.0,"el":32.0,"prRes":19.5,"qual":7,"ss":37.0,"used":true,"health":1},{"PRN":9,"gnssid":0,"svid":9,"az":0.0,"prRes":0.0,"qual":4,"ss":19.0,"used":false},{"PRN":16,"gnssid":0,"svid":16,"az":46.0,"el":64.0,"prRes":4.6,"qual":7,"ss":31.0,"used":true,"health":1},{"PRN":26,"gnssid":0,"svid":26,"az":67.0,"el":36.0,"prRes":6.7,"qual":7,"ss":37.0,"used":true,"health":1},{"PRN":27,"gnssid":0,"svid":27,"az":154.0,"el":63.0,"prRes":15.4,"qual":7,"ss":41.0,"used":true,"health":1},{"PRN":67,"gnssid":6,"svid":3,"az":229.0,"el":21.0,"prRes":22.9,"qual":4,"ss":15.0,"used":true,"health":1},{"PRN":76,"gnssid":6,"svid":12,"az":84.0,"el":20.0,"prRes":8.4,"qual":7,"ss":31.0,"used":true,"health":1},{"PRN":77,"gnssid":6,"svid":13,"az":35.0,"el":62.0,"prRes":3.5,"qual":4,"ss":20.0,"used":false,"health":1},{"PRN":78,"gnssid":6,"svid":14,"az":301.0,"el":38.0,"prRes":30.1,"qual":6,"ss":27.0,"used":true,"health":1},{"PRN":87,"gnssid":6,"svid":23,"az":126.0,"el":41.0,"prRes":12.6,"qual":7,"ss":41.0,"used":true,"health":1},{"PRN":88,"gnssid":6,"svid":24,"az":160.0,"el":16.0,"prRes":16.0,"qual":7,"ss":34.0,"used":true,"health":1}]}
{"class":"SKY","time":"2021-02-23T18:04:42.000Z","gdop":0.32,"hdop":0.95,"pdop":1.88,"tdop":0.32,"xdop":0.59,"ydop":0.74,"vdop":1.62}
$GPZDA,180442.00,23,02,2021,00,00*6F
$GPGGA,180442.00,4445.9264300,N,06848.3999060,W,7,10,0.95,43.16,M,-25.789,M,,*67
$GPRMC,180442.00,A,4445.9264300,N,6848.3999060,W,0.0000,,230221,-15.9,W*68
$GPGSA,A,3,4,8,16,26,27,67,76,78,87,,,,1.9,0.9,1.6*3E
$GPGBS,180442.00,8.877,11.075,14.580,,,,*40
{"class":"TPV","status":7,"mode":3,"time":"2021-02-23T18:04:42.000Z","leapseconds":18,"ept":0.005,"lat":44.765440500,"lon":-68.806665100,"altHAE":13.6840,"altMSL":43.1560,"alt":43.1560,"epx":8.877,"epy":11.075,"epv":14.580,"magvar":-15.9,"speed":0.000,"climb":0.000,"eps":22.15,"epc":29.16,"ecefx":1639835.13,"ecefy":-4229206.51,"ecefz":4468888.59,"ecefpAcc":25.25,"geoidSep":-25.789,"eph":20.619,"sep":35.679}
{"class":"SKY","time":"2021-02-23T18:04:42.000Z","gdop":0.32,"hdop":0.95,"pdop":1.88,"tdop":0.32,"xdop":0.59,"ydop":0.74,"vdop":1.62}
$GPGSV,3,1,12,04,48,216,28,07,24,303,16,08,32,195,37,16,64,046,31*7C
$GPGSV,3,2,12,26,36,067,37,27,63,154,41,67,21,229,14,76,20,084,30*78
$GPGSV,3,3,12,77,62,035,19,78,38,301,27,87,41,126,41,88,16,160,34*7E
{"class":"SKY","time":"2021-02-23T18:04:43.000Z","gdop":1.94,"hdop":0.80,"pdop":1.70,"tdop":0.93,"xdop":0.52,"ydop":0.61,"vdop":1.50,"nSat":13,"uSat":11,"satellites":[{"PRN":4,"gnssid":0,"svid":4,"az":216.0,"el":48.0,"prRes":21.6,"qual":6,"ss":28.0,"used":true,"health":1},{"PRN":7,"gnssid":0,"svid":7,"az":303.0,"el":24.0,"prRes":30.3,"qual":4,"ss":16.0,"used":true,"health":1},{"PRN":8,"gnssid":0,"svid":8,"az":195.0,"el":32.0,"prRes":19.5,"qual":7,"ss":37.0,"used":true,"health":1},{"PRN":9,"gnssid":0,"svid":9,"az":0.0,"prRes":0.0,"qual":4,"ss":17.0,"used":false},{"PRN":16,"gnssid":0,"svid":16,"az":46.0,"el":64.0,"prRes":4.6,"qual":7,"ss":31.0,"used":true,"health":1},{"PRN":26,"gnssid":0,"svid":26,"az":67.0,"el":36.0,"prRes":6.7,"qual":7,"ss":37.0,"used":true,"health":1},{"PRN":27,"gnssid":0,"svid":27,"az":154.0,"el":63.0,"prRes":15.4,"qual":7,"ss":41.0,"used":true,"health":1},{"PRN":67,"gnssid":6,"svid":3,"az":229.0,"el":21.0,"prRes":22.9,"qual":4,"ss":14.0,"used":true,"health":1},{"PRN":76,"gnssid":6,"svid":12,"az":84.0,"el":20.0,"prRes":8.4,"qual":7,"ss":30.0,"used":true,"health":1},{"PRN":77,"gnssid":6,"svid":13,"az":35.0,"el":62.0,"prRes":3.5,"qual":4,"ss":19.0,"used":false,"health":1},{"PRN":78,"gnssid":6,"svid":14,"az":301.0,"el":38.0,"prRes":30.1,"qual":7,"ss":27.0,"used":true,"health":1},{"PRN":87,"gnssid":6,"svid":23,"az":126.0,"el":41.0,"prRes":12.6,"qual":7,"ss":41.0,"used":true,"health":1},{"PRN":88,"gnssid":6,"svid":24,"az":160.0,"el":16.0,"prRes":16.0,"qual":7,"ss":34.0,"used":true,"health":1}]}
{"class":"SKY","time":"2021-02-23T18:04:43.000Z","gdop":0.30,"hdop":0.80,"pdop":1.70,"tdop":0.30,"xdop":0.52,"ydop":0.61,"vdop":1.50}
$GPZDA,180443.00,23,02,2021,00,00*6E
$GPGGA,180443.00,4445.9264300,N,06848.3999060,W,7,11,0.80,43.16,M,-25.789,M,,*63
$GPRMC,180443.00,A,4445.9264300,N,6848.3999060,W,0.0000,,230221,-15.9,W*69
$GPGSA,A,3,4,7,8,16,26,27,67,76,78,87,,,1.7,0.8,1.5*05
$GPGBS,180443.00,7.743,9.216,14.580,,,,*78
{"class":"TPV","status":7,"mode":3,"time":"2021-02-23T18:04:43.000Z","leapseconds":18,"ept":0.005,"lat":44.765440500,"lon":-68.806665100,"altHAE":13.6840,"altMSL":43.1560,"alt":43.1560,"epx":7.743,"epy":9.216,"epv":14.580,"magvar":-15.9,"speed":0.000,"climb":0.000,"eps":20.29,"epc":29.16,"ecefx":1639835.13,"ecefy":-4229206.51,"ecefz":4468888.59,"ecefpAcc":25.25,"geoidSep":-25.789,"eph":20.619,"sep":32.280}
{"class":"SKY","time":"2021-02-23T18:04:43.000Z","gdop":0.30,"hdop":0.80,"pdop":1.70,"tdop":0.30,"xdop":0.52,"ydop":0.61,"vdop":1.50}
$GPGSV,3,1,12,04,48,216,28,07,24,303,17,08,32,195,36,16,64,046,30*7D
$GPGSV,3,2,12,26,36,067,37,27,63,154,41,67,21,229,15,76,20,084,30*79
$GPGSV,3,3,12,77,62,035,19,78,38,301,27,87,41,126,41,88,16,160,34*7E
{"class":"SKY","time":"2021-02-23T18:04:44.000Z","gdop":1.94,"hdop":0.80,"pdop":1.70,"tdop":0.93,"xdop":0.52,"ydop":0.61,"vdop":1.50,"nSat":13,"uSat":11,"satellites":[{"PRN":4,"gnssid":0,"svid":4,"az":216.0,"el":48.0,"prRes":21.6,"qual":6,"ss":28.0,"used":true,"health":1},{"PRN":7,"gnssid":0,"svid":7,"az":303.0,"el":24.0,"prRes":30.3,"qual":4,"ss":17.0,"used":true,"health":1},{"PRN":8,"gnssid":0,"svid":8,"az":195.0,"el":32.0,"prRes":19.5,"qual":7,"ss":36.0,"used":true,"health":1},{"PRN":9,"gnssid":0,"svid":9,"az":0.0,"prRes":0.0,"qual":4,"ss":14.0,"used":false},{"PRN":16,"gnssid":0,"svid":16,"az":46.0,"el":64.0,"prRes":4.6,"qual":7,"ss":30.0,"used":true,"health":1},{"PRN":26,"gnssid":0,"svid":26,"az":67.0,"el":36.0,"prRes":6.7,"qual":7,"ss":37.0,"used":true,"health":1},{"PRN":27,"gnssid":0,"svid":27,"az":154.0,"el":63.0,"prRes":15.4,"qual":7,"ss":41.0,"used":true,"health":1},{"PRN":67,"gnssid":6,"svid":3,"az":229.0,"el":21.0,"prRes":22.9,"qual":4,"ss":15.0,"used":true,"health":1},{"PRN":76,"gnssid":6,"svid":12,"az":84.0,"el":20.0,"prRes":8.4,"qual":7,"ss":30.0,"used":true,"health":1},{"PRN":77,"gnssid":6,"svid":13,"az":35.0,"el":62.0,"prRes":3.5,"qual":4,"ss":19.0,"used":false,"health":1},{"PRN":78,"gnssid":6,"svid":14,"az":301.0,"el":38.0,"prRes":30.1,"qual":7,"ss":27.0,"used":true,"health":1},{"PRN":87,"gnssid":6,"svid":23,"az":126.0,"el":41.0,"prRes":12.6,"qual":7,"ss":41.0,"used":true,"health":1},{"PRN":88,"gnssid":6,"svid":24,"az":160.0,"el":16.0,"prRes":16.0,"qual":7,"ss":34.0,"used":true,"health":1}]}
{"class":"SKY","time":"2021-02-23T18:04:44.000Z","gdop":0.30,"hdop":0.80,"pdop":1.70,"tdop":0.30,"xdop":0.52,"ydop":0.61,"vdop":1.50}
$GPZDA,180444.00,23,02,2021,00,00*69
$GPGGA,180444.00,4445.9264300,N,06848.3999060,W,7,11,0.80,43.16,M,-25.789,M,,*64
$GPRMC,180444.00,A,4445.9264300,N,6848.3999060,W,0.0000,,230221,-15.9,W*6E
$GPGSA,A,3,4,7,8,16,26,27,67,76,78,87,,,1.7,0.8,1.5*05
$GPGBS,180444.00,7.743,9.216,14.580,,,,*7F
{"class":"TPV","status":7,"mode":3,"time":"2021-02-23T18:04:44.000Z","leapseconds":18,"ept":0.005,"lat":44.765440500,"lon":-68.806665100,"altHAE":13.6840,"altMSL":43.1560,"alt":43.1560,"epx":7.743,"epy":9.216,"epv":14.580,"magvar":-15.9,"speed":0.000,"climb":0.000,"eps":18.43,"epc":29.16,"ecefx":1639835.13,"ecefy":-4229206.51,"ecefz":4468888.59,"ecefpAcc":25.25,"geoidSep":-25.789,"eph":20.619,"sep":32.280}
{"class":"SKY","time":"2021-02-23T18:04:44.000Z","gdop":0.30,"hdop":0.80,"pdop":1.70,"tdop":0.30,"xdop":0.52,"ydop":0.61,"vdop":1.50}
$GPGSV,3,1,12,04,48,216,28,07,24,303,18,08,32,195,36,16,64,046,30*72
$GPGSV,3,2,12,26,36,067,37,27,63,154,41,67,21,229,13,76,20,084,29*77
$GPGSV,3,3,12,77,62,035,19,78,38,301,26,87,41,126,41,88,16,160,34*7F
{"class":"SKY","time":"2021-02-23T18:04:45.000Z","gdop":1.94,"hdop":0.80,"pdop":1.70,"tdop":0.93,"xdop":0.52,"ydop":0.61,"vdop":1.50,"nSat":13,"uSat":11,"satellites":[{"PRN":4,"gnssid":0,"svid":4,"az":216.0,"el":48.0,"prRes":21.6,"qual":6,"ss":28.0,"used":true,"health":1},{"PRN":7,"gnssid":0,"svid":7,"az":303.0,"el":24.0,"prRes":30.3,"qual":4,"ss":18.0,"used":true,"health":1},{"PRN":8,"gnssid":0,"svid":8,"az":195.0,"el":32.0,"prRes":19.5,"qual":7,"ss":36.0,"used":true,"health":1},{"PRN":9,"gnssid":0,"svid":9,"az":0.0,"prRes":0.0,"qual":3,"ss":10.0,"used":false},{"PRN":16,"gnssid":0,"svid":16,"az":46.0,"el":64.0,"prRes":4.6,"qual":7,"ss":30.0,"used":true,"health":1},{"PRN":26,"gnssid":0,"svid":26,"az":67.0,"el":36.0,"prRes":6.7,"qual":7,"ss":37.0,"used":true,"health":1},{"PRN":27,"gnssid":0,"svid":27,"az":154.0,"el":63.0,"prRes":15.4,"qual":7,"ss":41.0,"used":true,"health":1},{"PRN":67,"gnssid":6,"svid":3,"az":229.0,"el":21.0,"prRes":22.9,"qual":4,"ss":13.0,"used":true,"health":1},{"PRN":76,"gnssid":6,"svid":12,"az":84.0,"el":20.0,"prRes":8.4,"qual":7,"ss":29.0,"used":true,"health":1},{"PRN":77,"gnssid":6,"svid":13,"az":35.0,"el":62.0,"prRes":3.5,"qual":4,"ss":19.0,"used":false,"health":1},{"PRN":78,"gnssid":6,"svid":14,"az":301.0,"el":38.0,"prRes":30.1,"qual":7,"ss":26.0,"used":true,"health":1},{"PRN":87,"gnssid":6,"svid":23,"az":126.0,"el":41.0,"prRes":12.6,"qual":7,"ss":41.0,"used":true,"health":1},{"PRN":88,"gnssid":6,"svid":24,"az":160.0,"el":16.0,"prRes":16.0,"qual":7,"ss":34.0,"used":true,"health":1}]}
{"class":"SKY","time":"2021-02-23T18:04:45.000Z","gdop":0.30,"hdop":0.80,"pdop":1.70,"tdop":0.30,"xdop":0.52,"ydop":0.61,"vdop":1.50}
$GPZDA,180445.00,23,02,2021,00,00*68
$GPGGA,180445.00,4445.9264300,N,06848.3999060,W,7,11,0.80,43.16,M,-25.789,M,,*65
$GPRMC,180445.00,A,4445.9264300,N,6848.3999060,W,0.0000,,230221,-15.9,W*6F
$GPGSA,A,3,4,7,8,16,26,27,67,76,78,87,,,1.7,0.8,1.5*05
$GPGBS,180445.00,7.743,9.216,14.580,,,,*7E
{"class":"TPV","status":7,"mode":3,"time":"2021-02-23T18:04:45.000Z","leapseconds":18,"ept":0.005,"lat":44.765440500,"lon":-68.806665100,"altHAE":13.6840,"altMSL":43.1560,"alt":43.1560,"epx":7.743,"epy":9.216,"epv":14.580,"magvar":-15.9,"speed":0.000,"climb":0.000,"eps":18.43,"epc":29.16,"ecefx":1639835.13,"ecefy":-4229206.51,"ecefz":4468888.59,"ecefpAcc":25.25,"geoidSep":-25.789,"eph":20.619,"sep":32.280}
{"class":"SKY","time":"2021-02-23T18:04:45.000Z","gdop":0.30,"hdop":0.80,"pdop":1.70,"tdop":0.30,"xdop":0.52,"ydop":0.61,"vdop":1.50}
$GPGSV,3,1,12,04,48,216,29,07,24,303,19,08,32,195,36,16,64,046,30*72
$GPGSV,3,2,12,26,36,067,37,27,63,154,42,67,21,229,13,76,20,084,29*74
$GPGSV,3,3,12,77,62,035,18,78,38,301,26,87,41,126,41,88,16,160,34*7E
{"class":"SKY","time":"2021-02-23T18:04:46.000Z","gdop":1.94,"hdop":0.80,"pdop":1.70,"tdop":0.93,"xdop":0.52,"ydop":0.61,"vdop":1.50,"nSat":13,"uSat":11,"satellites":[{"PRN":4,"gnssid":0,"svid":4,"az":216.0,"el":48.0,"prRes":21.6,"qual":6,"ss":29.0,"used":true,"health":1},{"PRN":7,"gnssid":0,"svid":7,"az":303.0,"el":24.0,"prRes":30.3,"qual":4,"ss":19.0,"used":true,"health":1},{"PRN":8,"gnssid":0,"svid":8,"az":195.0,"el":32.0,"prRes":19.5,"qual":7,"ss":36.0,"used":true,"health":1},{"PRN":9,"gnssid":0,"svid":9,"az":0.0,"prRes":0.0,"qual":3,"ss":8.0,"used":false},{"PRN":16,"gnssid":0,"svid":16,"az":46.0,"el":64.0,"prRes":4.6,"qual":7,"ss":30.0,"used":true,"health":1},{"PRN":26,"gnssid":0,"svid":26,"az":67.0,"el":36.0,"prRes":6.7,"qual":7,"ss":37.0,"used":true,"health":1},{"PRN":27,"gnssid":0,"svid":27,"az":154.0,"el":63.0,"prRes":15.4,"qual":7,"ss":42.0,"used":true,"health":1},{"PRN":67,"gnssid":6,"svid":3,"az":229.0,"el":21.0,"prRes":22.9,"qual":4,"ss":13.0,"used":true,"health":1},{"PRN":76,"gnssid":6,"svid":12,"az":84.0,"el":20.0,"prRes":8.4,"qual":7,"ss":29.0,"used":true,"health":1},{"PRN":77,"gnssid":6,"svid":13,"az":35.0,"el":62.0,"prRes":3.5,"qual":4,"ss":18.0,"used":false,"health":1},{"PRN":78,"gnssid":6,"svid":14,"az":301.0,"el":38.0,"prRes":30.1,"qual":7,"ss":26.0,"used":true,"health":1},{"PRN":87,"gnssid":6,"svid":23,"az":126.0,"el":41.0,"prRes":12.6,"qual":7,"ss":41.0,"used":true,"health":1},{"PRN":88,"gnssid":6,"svid":24,"az":160.0,"el":16.0,"prRes":16.0,"qual":7,"ss":34.0,"used":true,"health":1}]}
{"class":"SKY","time":"2021-02-23T18:04:46.000Z","gdop":0.30,"hdop":0.80,"pdop":1.70,"tdop":0.30,"xdop":0.52,"ydop":0.61,"vdop":1.50}
$GPZDA,180446.00,23,02,2021,00,00*6B
$GPGGA,180446.00,4445.9264300,N,06848.3999060,W,7,11,0.80,43.16,M,-25.789,M,,*66
$GPRMC,180446.00,A,4445.9264300,N,6848.3999060,W,0.0000,,230221,-15.9,W*6C
$GPGSA,A,3,4,7,8,16,26,27,67,76,78,87,,,1.7,0.8,1.5*05
$GPGBS,180446.00,7.743,9.216,14.580,,,,*7D
{"class":"TPV","status":7,"mode":3,"time":"2021-02-23T18:04:46.000Z","leapseconds":18,"ept":0.005,"lat":44.765440500,"lon":-68.806665100,"altHAE":13.6840,"altMSL":43.1560,"alt":43.1560,"epx":7.743,"epy":9.216,"epv":14.580,"magvar":-15.9,"speed":0.000,"climb":0.000,"eps":18.43,"epc":29.16,"ecefx":1639835.13,"ecefy":-4229206.51,"ecefz":4468888.59,"ecefpAcc":25.25,"geoidSep":-25.789,"eph":20.619,"sep":32.280}
{"class":"SKY","time":"2021-02-23T18:04:46.000Z","gdop":0.30,"hdop":0.80,"pdop":1.70,"tdop":0.30,"xdop":0.52,"ydop":0.61,"vdop":1.50}
$GPGSV,3,1,12,04,48,216,29,07,24,303,19,08,32,195,36,16,64,046,30*72
$GPGSV,3,2,12,26,36,067,37,27,63,154,42,67,21,229,12,76,20,084,28*74
$GPGSV,3,3,12,77,62,035,18,78,38,301,27,87,41,126,41,88,16,160,34*7F
{"class":"SKY","time":"2021-02-23T18:04:47.000Z","gdop":1.94,"hdop":0.80,"pdop":1.70,"tdop":0.93,"xdop":0.52,"ydop":0.61,"vdop":1.50,"nSat":14,"uSat":11,"satellites":[{"PRN":4,"gnssid":0,"svid":4,"az":216.0,"el":48.0,"prRes":21.6,"qual":6,"ss":29.0,"used":true,"health":1},{"PRN":7,"gnssid":0,"svid":7,"az":303.0,"el":24.0,"prRes":30.3,"qual":4,"ss":19.0,"used":true,"health":1},{"PRN":8,"gnssid":0,"svid":8,"az":195.0,"el":32.0,"prRes":19.5,"qual":7,"ss":36.0,"used":true,"health":1},{"PRN":9,"gnssid":0,"svid":9,"az":0.0,"prRes":0.0,"qual":3,"ss":9.0,"used":false},{"PRN":14,"gnssid":0,"svid":14,"az":0.0,"prRes":0.0,"qual":1,"ss":0.0,"used":false},{"PRN":16,"gnssid":0,"svid":16,"az":46.0,"el":64.0,"prRes":4.6,"qual":7,"ss":30.0,"used":true,"health":1},{"PRN":26,"gnssid":0,"svid":26,"az":67.0,"el":36.0,"prRes":6.7,"qual":7,"ss":37.0,"used":true,"health":1},{"PRN":27,"gnssid":0,"svid":27,"az":154.0,"el":63.0,"prRes":15.4,"qual":7,"ss":42.0,"used":true,"health":1},{"PRN":67,"gnssid":6,"svid":3,"az":229.0,"el":21.0,"prRes":22.9,"qual":4,"ss":12.0,"used":true,"health":1},{"PRN":76,"gnssid":6,"svid":12,"az":84.0,"el":20.0,"prRes":8.4,"qual":7,"ss":28.0,"used":true,"health":1},{"PRN":77,"gnssid":6,"svid":13,"az":35.0,"el":62.0,"prRes":3.5,"qual":4,"ss":18.0,"used":false,"health":1},{"PRN":78,"gnssid":6,"svid":14,"az":301.0,"el":38.0,"prRes":30.1,"qual":5,"ss":27.0,"used":true,"health":1},{"PRN":87,"gnssid":6,"svid":23,"az":126.0,"el":41.0,"prRes":12.6,"qual":7,"ss":41.0,"used":true,"health":1},{"PRN":88,"gnssid":6,"svid":24,"az":160.0,"el":16.0,"prRes":16.0,"qual":7,"ss":34.0,"used":true,"health":1}]}
{"class":"SKY","time":"2021-02-23T18:04:47.000Z","gdop":0.30,"hdop":0.80,"pdop":1.70,"tdop":0.30,"xdop":0.52,"ydop":0.61,"vdop":1.50}
$GPZDA,180447.00,23,02,2021,00,00*6A
$GPGGA,180447.00,4445.9264300,N,06848.3999060,W,7,11,0.80,43.16,M,-25.789,M,,*67
$GPRMC,180447.00,A,4445.9264300,N,6848.3999060,W,0.0000,,230221,-15.9,W*6D
$GPGSA,A,3,4,7,8,16,26,27,67,76,78,,,,1.7,0.8,1.5*0A
$GPGBS,180447.00,7.743,9.216,14.580,,,,*7C
{"class":"TPV","status":7,"mode":3,"time":"2021-02-23T18:04:47.000Z","leapseconds":18,"ept":0.005,"lat":44.765440500,"lon":-68.806665100,"altHAE":13.6840,"altMSL":43.1560,"alt":43.1560,"epx":7.743,"epy":9.216,"epv":14.580,"magvar":-15.9,"speed":0.000,"climb":0.000,"eps":18.43,"epc":29.16,"ecefx":1639835.13,"ecefy":-4229206.51,"ecefz":4468888.59,"ecefpAcc":25.25,"geoidSep":-25.789,"eph":20.619,"sep":32.280}
{"class":"SKY","time":"2021-02-23T18:04:47.000Z","gdop":0.30,"hdop":0.80,"pdop":1.70,"tdop":0.30,"xdop":0.52,"ydop":0.61,"vdop":1.50}
$GPGSV,3,1,12,04,48,216,29,07,24,303,19,08,32,195,36,16,64,046,30*72
$GPGSV,3,2,12,26,36,067,38,27,63,154,42,67,21,229,11,76,20,084,28*78
$GPGSV,3,3,12,77,62,035,17,78,38,301,27,87,42,126,40,88,16,160,34*72
{"class":"SKY","time":"2021-02-23T18:04:48.000Z","gdop":1.94,"hdop":0.80,"pdop":1.70,"tdop":0.93,"xdop":0.52,"ydop":0.61,"vdop":1.49,"nSat":14,"uSat":11,"satellites":[{"PRN":4,"gnssid":0,"svid":4,"az":216.0,"el":48.0,"prRes":21.6,"qual":6,"ss":29.0,"used":true,"health":1},{"PRN":7,"gnssid":0,"svid":7,"az":303.0,"el":24.0,"prRes":30.3,"qual":4,"ss":19.0,"used":true,"health":1},{"PRN":8,"gnssid":0,"svid":8,"az":195.0,"el":32.0,"prRes":19.5,"qual":7,"ss":36.0,"used":true,"health":1},{"PRN":9,"gnssid":0,"svid":9,"az":0.0,"prRes":0.0,"qual":4,"ss":13.0,"used":false},{"PRN":14,"gnssid":0,"svid":14,"az":0.0,"prRes":0.0,"qual":1,"ss":0.0,"used":false},{"PRN":16,"gnssid":0,"svid":16,"az":46.0,"el":64.0,"prRes":4.6,"qual":7,"ss":30.0,"used":true,"health":1},{"PRN":26,"gnssid":0,"svid":26,"az":67.0,"el":36.0,"prRes":6.7,"qual":7,"ss":38.0,"used":true,"health":1},{"PRN":27,"gnssid":0,"svid":27,"az":154.0,"el":63.0,"prRes":15.4,"qual":7,"ss":42.0,"used":true,"health":1},{"PRN":67,"gnssid":6,"svid":3,"az":229.0,"el":21.0,"prRes":22.9,"qual":4,"ss":11.0,"used":true,"health":1},{"PRN":76,"gnssid":6,"svid":12,"az":84.0,"el":20.0,"prRes":8.4,"qual":7,"ss":28.0,"used":true,"health":1},{"PRN":77,"gnssid":6,"svid":13,"az":35.0,"el":62.0,"prRes":3.5,"qual":4,"ss":17.0,"used":false,"health":1},{"PRN":78,"gnssid":6,"svid":14,"az":301.0,"el":38.0,"prRes":30.1,"qual":7,"ss":27.0,"used":true,"health":1},{"PRN":87,"gnssid":6,"svid":23,"az":126.0,"el":42.0,"prRes":12.6,"qual":7,"ss":40.0,"used":true,"health":1},{"PRN":88,"gnssid":6,"svid":24,"az":160.0,"el":16.0,"prRes":16.0,"qual":7,"ss":34.0,"used":true,"health":1}]}
{"class":"SKY","time":"2021-02-23T18:04:48.000Z","gdop":0.30,"hdop":0.80,"pdop":1.70,"tdop":0.30,"xdop":0.52,"ydop":0.61,"vdop":1.49}
$GPZDA,180448.00,23,02,2021,00,00*65
$GPGGA,180448.00,4445.9264300,N,06848.3999060,W,7,11,0.80,43.16,M,-25.789,M,,*68
$GPRMC,180448.00,A,4445.9264300,N,6848.3999060,W,0.0000,,230221,-15.9,W*62
$GPGSA,A,3,4,7,8,16,26,27,67,76,78,,,,1.7,0.8,1.5*0A
$GPGBS,180448.00,7.757,9.217,14.580,,,,*77
{"class":"TPV","status":7,"mode":3,"time":"2021-02-23T18:04:48.000Z","leapseconds":18,"ept":0.005,"lat":44.765440500,"lon":-68.806665100,"altHAE":13.6840,"altMSL":43.1560,"alt":43.1560,"epx":7.757,"epy":9.217,"epv":14.580,"magvar":-15.9,"speed":0.000,"climb":0.000,"eps":18.43,"epc":29.16,"ecefx":1639835.13,"ecefy":-4229206.51,"ecefz":4468888.59,"ecefpAcc":25.25,"geoidSep":-25.789,"eph":20.619,"sep":32.221}
{"class":"SKY","time":"2021-02-23T18:04:48.000Z","gdop":0.30,"hdop":0.80,"pdop":1.70,"tdop":0.30,"xdop":0.52,"ydop":0.61,"vdop":1.49}
$GPGSV,4,1,13,04,48,216,29,07,24,303,20,08,32,195,36,16,64,046,31*7F
$GPGSV,4,2,13,26,36,067,38,27,63,154,41,67,21,229,10,76,20,084,28*7C
$GPGSV,4,3,13,77,62,035,16,78,38,301,27,86,30,038,00,87,42,126,40*74
$GPGSV,4,4,13,88,16,160,34*4C
{"class":"SKY","time":"2021-02-23T18:04:49.000Z","gdop":2.04,"hdop":0.85,"pdop":1.78,"tdop":1.00,"xdop":0.57,"ydop":0.63,"vdop":1.56,"nSat":15,"uSat":10,"satellites":[{"PRN":4,"gnssid":0,"svid":4,"az":216.0,"el":48.0,"prRes":21.6,"qual":7,"ss":29.0,"used":true,"health":1},{"PRN":7,"gnssid":0,"svid":7,"az":303.0,"el":24.0,"prRes":30.3,"qual":4,"ss":20.0,"used":true,"health":1},{"PRN":8,"gnssid":0,"svid":8,"az":195.0,"el":32.0,"prRes":19.5,"qual":7,"ss":36.0,"used":true,"health":1},{"PRN":9,"gnssid":0,"svid":9,"az":0.0,"prRes":0.0,"qual":4,"ss":17.0,"used":false},{"PRN":14,"gnssid":0,"svid":14,"az":0.0,"prRes":0.0,"qual":1,"ss":0.0,"used":false},{"PRN":16,"gnssid":0,"svid":16,"az":46.0,"el":64.0,"prRes":4.6,"qual":7,"ss":31.0,"used":true,"health":1},{"PRN":26,"gnssid":0,"svid":26,"az":67.0,"el":36.0,"prRes":6.7,"qual":7,"ss":38.0,"used":true,"health":1},{"PRN":27,"gnssid":0,"svid":27,"az":154.0,"el":63.0,"prRes":15.4,"qual":7,"ss":41.0,"used":true,"health":1},{"PRN":67,"gnssid":6,"svid":3,"az":229.0,"el":21.0,"prRes":22.9,"qual":3,"ss":10.0,"used":false,"health":1},{"PRN":76,"gnssid":6,"svid":12,"az":84.0,"el":20.0,"prRes":8.4,"qual":7,"ss":28.0,"used":true,"health":1},{"PRN":77,"gnssid":6,"svid":13,"az":35.0,"el":62.0,"prRes":3.5,"qual":4,"ss":16.0,"used":false,"health":1},{"PRN":78,"gnssid":6,"svid":14,"az":301.0,"el":38.0,"prRes":30.1,"qual":6,"ss":27.0,"used":true,"health":1},{"PRN":86,"gnssid":6,"svid":22,"az":38.0,"el":30.0,"prRes":3.8,"qual":0,"ss":0.0,"used":false,"health":1},{"PRN":87,"gnssid":6,"svid":23,"az":126.0,"el":42.0,"prRes":12.6,"qual":7,"ss":40.0,"used":true,"health":1},{"PRN":88,"gnssid":6,"svid":24,"az":160.0,"el":16.0,"prRes":16.0,"qual":7,"ss":34.0,"used":true,"health":1}]}
{"class":"SKY","time":"2021-02-23T18:04:49.000Z","gdop":0.32,"hdop":0.85,"pdop":1.78,"tdop":0.32,"xdop":0.57,"ydop":0.63,"vdop":1.56}
$GPZDA,180449.00,23,02,2021,00,00*64
$GPGGA,180449.00,4445.9264300,N,06848.3999060,W,7,10,0.85,43.16,M,-25.789,M,,*6D
$GPRMC,180449.00,A,4445.9264300,N,6848.3999060,W,0.0000,,230221,-15.9,W*63
$GPGSA,A,3,4,7,8,16,26,27,76,78,,,,,1.8,0.9,1.6*06
$GPGBS,180449.00,8.490,9.522,14.580,,,,*70
{"class":"TPV","status":7,"mode":3,"time":"2021-02-23T18:04:49.000Z","leapseconds":18,"ept":0.005,"lat":44.765440500,"lon":-68.806665100,"altHAE":13.6840,"altMSL":43.1560,"alt":43.1560,"epx":8.490,"epy":9.522,"epv":14.580,"magvar":-15.9,"speed":0.000,"climb":0.000,"eps":18.74,"epc":29.16,"ecefx":1639835.13,"ecefy":-4229206.51,"ecefz":4468888.59,"ecefpAcc":25.25,"geoidSep":-25.789,"eph":20.619,"sep":33.805}
{"class":"SKY","time":"2021-02-23T18:04:49.000Z","gdop":0.32,"hdop":0.85,"pdop":1.78,"tdop":0.32,"xdop":0.57,"ydop":0.63,"vdop":1.56}
$GPGSV,4,1,13,04,48,216,29,07,24,303,20,08,32,195,37,16,64,046,32*7D
$GPGSV,4,2,13,26,36,067,38,27,63,154,41,67,21,229,09,76,20,084,29*75
$GPGSV,4,3,13,77,62,035,15,78,38,301,27,86,30,038,00,87,42,126,40*77
$GPGSV,4,4,13,88,16,160,35*4D
{"class":"SKY","time":"2021-02-23T18:04:50.000Z","gdop":2.04,"hdop":0.85,"pdop":1.78,"tdop":1.00,"xdop":0.57,"ydop":0.63,"vdop":1.56,"nSat":15,"uSat":10,"satellites":[{"PRN":4,"gnssid":0,"svid":4,"az":216.0,"el":48.0,"prRes":21.6,"qual":7,"ss":29.0,"used":true,"health":1},{"PRN":7,"gnssid":0,"svid":7,"az":303.0,"el":24.0,"prRes":30.3,"qual":4,"ss":20.0,"used":true,"health":1},{"PRN":8,"gnssid":0,"svid":8,"az":195.0,"el":32.0,"prRes":19.5,"qual":7,"ss":37.0,"used":true,"health":1},{"PRN":9,"gnssid":0,"svid":9,"az":0.0,"prRes":0.0,"qual":4,"ss":20.0,"used":false},{"PRN":14,"gnssid":0,"svid":14,"az":0.0,"prRes":0.0,"qual":1,"ss":0.0,"used":false},{"PRN":16,"gnssid":0,"svid":16,"az":46.0,"el":64.0,"prRes":4.6,"qual":7,"ss":32.0,"used":true,"health":1},{"PRN":26,"gnssid":0,"svid":26,"az":67.0,"el":36.0,"prRes":6.7,"qual":7,"ss":38.0,"used":true,"health":1},{"PRN":27,"gnssid":0,"svid":27,"az":154.0,"el":63.0,"prRes":15.4,"qual":7,"ss":41.0,"used":true,"health":1},{"PRN":67,"gnssid":6,"svid":3,"az":229.0,"el":21.0,"prRes":22.9,"qual":3,"ss":9.0,"used":false,"health":1},{"PRN":76,"gnssid":6,"svid":12,"az":84.0,"el":20.0,"prRes":8.4,"qual":7,"ss":29.0,"used":true,"health":1},{"PRN":77,"gnssid":6,"svid":13,"az":35.0,"el":62.0,"prRes":3.5,"qual":4,"ss":15.0,"used":false,"health":1},{"PRN":78,"gnssid":6,"svid":14,"az":301.0,"el":38.0,"prRes":30.1,"qual":6,"ss":27.0,"used":true,"health":1},{"PRN":86,"gnssid":6,"svid":22,"az":38.0,"el":30.0,"prRes":3.8,"qual":1,"ss":0.0,"used":false,"health":1},{"PRN":87,"gnssid":6,"svid":23,"az":126.0,"el":42.0,"prRes":12.6,"qual":7,"ss":40.0,"used":true,"health":1},{"PRN":88,"gnssid":6,"svid":24,"az":160.0,"el":16.0,"prRes":16.0,"qual":7,"ss":35.0,"used":true,"health":1}]}
{"class":"SKY","time":"2021-02-23T18:04:50.000Z","gdop":0.32,"hdop":0.85,"pdop":1.78,"tdop":0.32,"xdop":0.57,"ydop":0.63,"vdop":1.56}
$GPZDA,180450.00,23,02,2021,00,00*6C
$GPGGA,180450.00,4445.9264300,N,06848.3999060,W,7,10,0.85,43.16,M,-25.789,M,,*65
$GPRMC,180450.00,A,4445.9264300,N,6848.3999060,W,0.0000,,230221,-15.9,W*6B
$GPGSA,A,3,4,7,8,16,26,27,76,78,,,,,1.8,0.9,1.6*06
$GPGBS,180450.00,8.490,9.522,14.580,,,,*78
