$GPZDA,085001.00,19,07,2017,00,00*61
$GPGGA,085001.00,3454.3735960,S,13836.4871940,E,2,00,,28.85,M,-1.662,M,,*4A
$GPRMC,085001.00,A,3454.3735960,S,13836.4871940,E,0.0311,31.472,190717,7.9,E*4D
$GPGSA,A,3,,,,,,,,,,,,,,,*1C
{"class":"TPV","status":2,"mode":3,"time":"2017-07-19T08:50:01.000Z","leapseconds":18,"ept":0.005,"lat":-34.906226600,"lon":138.608119900,"altHAE":25.3780,"altMSL":28.8490,"alt":28.8490,"epv":1.603,"track":31.4718,"magtrack":39.3946,"magvar":7.9,"speed":0.016,"climb":-0.230,"eps":0.17,"epc":16.02,"geoidSep":-1.662,"eph":1.133}
$GPZDA,085001.20,19,07,2017,00,00*63
$GPGGA,085001.20,3454.3736140,S,13836.4871940,E,2,00,,28.78,M,-1.662,M,,*43
$GPRMC,085001.20,A,3454.3736140,S,13836.4871940,E,0.0311,31.472,190717,7.9,E*46
$GPGSA,A,3,,,,,,,,,,,,,,,*1C
{"class":"TPV","status":2,"mode":3,"time":"2017-07-19T08:50:01.200Z","leapseconds":18,"ept":0.005,"lat":-34.906226900,"lon":138.608119900,"altHAE":25.3060,"altMSL":28.7770,"alt":28.7770,"epv":1.610,"track":31.4718,"magtrack":39.3946,"magvar":7.9,"speed":0.016,"climb":-0.360,"eps":0.17,"epc":16.06,"geoidSep":-1.662,"eph":1.138}
$GPGSV,7,1,25,01,02,083,00,05,19,284,38,07,33,094,39,08,12,141,26*73
$GPGSV,7,2,25,09,12,029,34,11,17,101,39,13,39,226,36,15,05,220,22*7B
$GPGSV,7,3,25,17,32,008,36,19,15,357,32,20,08,241,32,28,77,211,39*72
$GPGSV,7,4,25,30,63,135,41,42,49,011,32,50,49,011,32,193,15,357,33*44
$GPGSV,7,5,25,70,34,323,00,71,43,255,29,72,12,209,00,73,47,217,24*7E
$GPGSV,7,6,25,74,07,262,00,80,41,141,22,81,10,153,11,82,34,107,24*76
$GPGSV,7,7,25,83,26,045,27*45
{"class":"SKY","time":"2017-07-19T08:50:01.400Z","gdop":1.64,"hdop":0.71,"pdop":1.46,"tdop":0.73,"xdop":0.50,"ydop":0.51,"vdop":1.28,"nSat":28,"uSat":14,"satellites":[{"PRN":1,"gnssid":0,"svid":1,"az":83.0,"el":2.0,"prRes":8.3,"qual":0,"ss":0.0,"used":false,"health":1},{"PRN":4,"gnssid":0,"svid":4,"az":0.0,"prRes":0.0,"qual":1,"ss":0.0,"used":false,"health":2},{"PRN":5,"gnssid":0,"svid":5,"az":284.0,"el":19.0,"prRes":28.4,"qual":7,"ss":38.0,"used":true,"health":1},{"PRN":7,"gnssid":0,"svid":7,"az":94.0,"el":33.0,"prRes":9.4,"qual":7,"ss":39.0,"used":true,"health":1},{"PRN":8,"gnssid":0,"svid":8,"az":141.0,"el":12.0,"prRes":14.1,"qual":7,"ss":26.0,"used":true,"health":1},{"PRN":9,"gnssid":0,"svid":9,"az":29.0,"el":12.0,"prRes":2.9,"qual":7,"ss":34.0,"used":true,"health":1},{"PRN":11,"gnssid":0,"svid":11,"az":101.0,"el":17.0,"prRes":10.1,"qual":7,"ss":39.0,"used":true,"health":1},{"PRN":13,"gnssid":0,"svid":13,"az":226.0,"el":39.0,"prRes":22.6,"qual":7,"ss":36.0,"used":true,"health":1},{"PRN":15,"gnssid":0,"svid":15,"az":220.0,"el":5.0,"prRes":22.0,"qual":3,"ss":22.0,"used":false,"health":1},{"PRN":17,"gnssid":0,"svid":17,"az":8.0,"el":32.0,"prRes":0.8,"qual":7,"ss":36.0,"used":true,"health":1},{"PRN":19,"gnssid":0,"svid":19,"az":357.0,"el":15.0,"prRes":35.7,"qual":7,"ss":32.0,"used":true,"health":1},{"PRN":20,"gnssid":0,"svid":20,"az":241.0,"el":8.0,"prRes":24.1,"qual":7,"ss":32.0,"used":false,"health":1},{"PRN":28,"gnssid":0,"svid":28,"az":211.0,"el":77.0,"prRes":21.1,"qual":7,"ss":39.0,"used":true,"health":1},{"PRN":30,"gnssid":0,"svid":30,"az":135.0,"el":63.0,"prRes":13.5,"qual":7,"ss":41.0,"used":true,"health":1},{"PRN":42,"gnssid":1,"svid":129,"az":11.0,"el":49.0,"prRes":1.1,"qual":6,"ss":32.0,"used":false,"health":1},{"PRN":50,"gnssid":1,"svid":137,"az":11.0,"el":49.0,"prRes":1.1,"qual":6,"ss":32.0,"used":false,"health":1},{"PRN":193,"gnssid":5,"svid":1,"az":357.0,"el":15.0,"prRes":35.7,"qual":7,"ss":33.0,"used":true,"health":1},{"PRN":195,"gnssid":5,"svid":3,"az":0.0,"prRes":0.0,"qual":1,"ss":0.0,"used":false,"health":2},{"PRN":196,"gnssid":5,"svid":4,"az":0.0,"prRes":0.0,"qual":1,"ss":0.0,"used":false,"health":2},{"PRN":70,"gnssid":6,"svid":6,"az":323.0,"el":34.0,"prRes":32.3,"qual":1,"ss":0.0,"used":false,"health":1},{"PRN":71,"gnssid":6,"svid":7,"az":255.0,"el":43.0,"prRes":25.5,"qual":7,"ss":29.0,"used":true,"health":1},{"PRN":72,"gnssid":6,"svid":8,"az":209.0,"el":12.0,"prRes":20.9,"qual":1,"ss":0.0,"used":false,"health":1},{"PRN":73,"gnssid":6,"svid":9,"az":217.0,"el":47.0,"prRes":21.7,"qual":4,"ss":24.0,"used":false,"health":1},{"PRN":74,"gnssid":6,"svid":10,"az":262.0,"el":7.0,"prRes":26.2,"qual":1,"ss":0.0,"used":false,"health":1},{"PRN":80,"gnssid":6,"svid":16,"az":141.0,"el":41.0,"prRes":14.1,"qual":4,"ss":22.0,"used":true,"health":1},{"PRN":81,"gnssid":6,"svid":17,"az":153.0,"el":10.0,"prRes":15.3,"qual":4,"ss":11.0,"used":false,"health":1},{"PRN":82,"gnssid":6,"svid":18,"az":107.0,"el":34.0,"prRes":10.7,"qual":3,"ss":24.0,"used":false,"health":1},{"PRN":83,"gnssid":6,"svid":19,"az":45.0,"el":26.0,"prRes":4.5,"qual":6,"ss":27.0,"used":true,"health":1}]}
$GPZDA,085001.40,19,07,2017,00,00*65
$GPGGA,085001.40,3454.3736260,S,13836.4872120,E,2,14,0.71,28.73,M,-1.662,M,,*5F
$GPRMC,085001.40,A,3454.3736260,S,13836.4872120,E,0.0583,31.472,190717,7.9,E*41
$GPGSA,A,3,5,7,8,9,11,13,17,19,,,,,1.5,0.7,1.3*3C
$GPGBS,085001.40,1.866,1.908,1.616,,,,*40
{"class":"TPV","status":2,"mode":3,"time":"2017-07-19T08:50:01.400Z","leapseconds":18,"ept":0.005,"lat":-34.906227100,"lon":138.608120200,"altHAE":25.2580,"altMSL":28.7290,"alt":28.7290,"epx":1.866,"epy":1.908,"epv":1.616,"track":31.4718,"magtrack":39.3947,"magvar":7.9,"speed":0.030,"climb":-0.240,"eps":0.18,"epc":16.13,"geoidSep":-1.662,"eph":1.142,"sep":6.951}
{"class":"SKY","time":"2017-07-19T08:50:01.400Z","gdop":1.64,"hdop":0.71,"pdop":1.46,"tdop":0.73,"xdop":0.50,"ydop":0.51,"vdop":1.28}
$GPZDA,085001.60,19,07,2017,00,00*67
$GPGGA,085001.60,3454.3736500,S,13836.4872180,E,2,14,,28.66,M,-1.662,M,,*4A
$GPRMC,085001.60,A,3454.3736500,S,13836.4872180,E,0.0408,31.472,190717,7.9,E*4A
$GPGSA,A,3,5,7,8,9,11,13,17,19,,,,,,,*13
{"class":"TPV","status":2,"mode":3,"time":"2017-07-19T08:50:01.600Z","leapseconds":18,"ept":0.005,"lat":-34.906227500,"lon":138.608120300,"altHAE":25.1940,"altMSL":28.6650,"alt":28.6650,"epv":1.619,"track":31.4718,"magtrack":39.3947,"magvar":7.9,"speed":0.021,"climb":-0.320,"epc":16.17,"geoidSep":-1.662,"eph":1.144}
$GPZDA,085001.80,19,07,2017,00,00*69
$GPGGA,085001.80,3454.3736680,S,13836.4872180,E,2,14,,28.61,M,-1.662,M,,*48
$GPRMC,085001.80,A,3454.3736680,S,13836.4872180,E,0.0253,31.472,190717,7.9,E*47
$GPGSA,A,3,5,7,8,9,11,13,17,19,,,,,,,*13
{"class":"TPV","status":2,"mode":3,"time":"2017-07-19T08:50:01.800Z","leapseconds":18,"ept":0.005,"lat":-34.906227800,"lon":138.608120300,"altHAE":25.1360,"altMSL":28.6070,"alt":28.6070,"epv":1.619,"track":31.4718,"magtrack":39.3947,"magvar":7.9,"speed":0.013,"climb":-0.290,"eps":0.23,"epc":16.19,"geoidSep":-1.662,"eph":1.144}
$GPZDA,085002.00,19,07,2017,00,00*62
$GPGGA,085002.00,3454.3736860,S,13836.4872240,E,2,14,,28.54,M,-1.662,M,,*4A
$GPRMC,085002.00,A,3454.3736860,S,13836.4872240,E,0.0739,31.472,190717,7.9,E*4A
$GPGSA,A,3,5,7,8,9,11,13,17,19,,,,,,,*13
{"class":"TPV","status":2,"mode":3,"time":"2017-07-19T08:50:02.000Z","leapseconds":18,"ept":0.005,"lat":-34.906228100,"lon":138.608120400,"altHAE":25.0730,"altMSL":28.5440,"alt":28.5440,"epv":1.620,"track":31.4718,"magtrack":39.3947,"magvar":7.9,"speed":0.038,"climb":-0.315,"eps":0.23,"epc":16.19,"geoidSep":-1.662,"eph":1.145}
$GPZDA,085002.20,19,07,2017,00,00*60
$GPGGA,085002.20,3454.3737040,S,13836.4872300,E,2,14,,28.48,M,-1.662,M,,*4B
$GPRMC,085002.20,A,3454.3737040,S,13836.4872300,E,0.0058,31.472,190717,7.9,E*46
$GPGSA,A,3,5,7,8,9,11,13,17,19,,,,,,,*13
{"class":"TPV","status":2,"mode":3,"time":"2017-07-19T08:50:02.200Z","leapseconds":18,"ept":0.005,"lat":-34.906228400,"lon":138.608120500,"altHAE":25.0080,"altMSL":28.4800,"alt":28.4800,"epv":1.617,"track":31.4718,"magtrack":39.3947,"magvar":7.9,"speed":0.003,"climb":-0.325,"eps":0.22,"epc":16.18,"geoidSep":-1.662,"eph":1.143}
$GPGSV,7,1,25,01,02,083,00,05,19,284,38,07,33,094,39,08,12,141,26*73
$GPGSV,7,2,25,09,12,029,34,11,17,101,39,13,39,226,36,15,05,220,22*7B
$GPGSV,7,3,25,17,32,008,36,19,15,357,32,20,08,241,32,28,77,211,39*72
$GPGSV,7,4,25,30,63,135,41,42,49,011,32,50,49,011,33,193,15,357,33*45
$GPGSV,7,5,25,70,34,323,00,71,43,255,28,72,12,209,00,73,47,217,23*78
$GPGSV,7,6,25,74,07,262,21,80,41,141,22,81,10,153,12,82,34,107,24*76
$GPGSV,7,7,25,83,26,045,27*45
{"class":"SKY","time":"2017-07-19T08:50:02.400Z","gdop":1.64,"hdop":0.71,"pdop":1.46,"tdop":0.73,"xdop":0.50,"ydop":0.51,"vdop":1.28,"nSat":28,"uSat":14,"satellites":[{"PRN":1,"gnssid":0,"svid":1,"az":83.0,"el":2.0,"prRes":8.3,"qual":0,"ss":0.0,"used":false,"health":1},{"PRN":4,"gnssid":0,"svid":4,"az":0.0,"prRes":0.0,"qual":1,"ss":0.0,"used":false,"health":2},{"PRN":5,"gnssid":0,"svid":5,"az":284.0,"el":19.0,"prRes":28.4,"qual":7,"ss":38.0,"used":true,"health":1},{"PRN":7,"gnssid":0,"svid":7,"az":94.0,"el":33.0,"prRes":9.4,"qual":7,"ss":39.0,"used":true,"health":1},{"PRN":8,"gnssid":0,"svid":8,"az":141.0,"el":12.0,"prRes":14.1,"qual":7,"ss":26.0,"used":true,"health":1},{"PRN":9,"gnssid":0,"svid":9,"az":29.0,"el":12.0,"prRes":2.9,"qual":7,"ss":34.0,"used":true,"health":1},{"PRN":11,"gnssid":0,"svid":11,"az":101.0,"el":17.0,"prRes":10.1,"qual":7,"ss":39.0,"used":true,"health":1},{"PRN":13,"gnssid":0,"svid":13,"az":226.0,"el":39.0,"prRes":22.6,"qual":7,"ss":36.0,"used":true,"health":1},{"PRN":15,"gnssid":0,"svid":15,"az":220.0,"el":5.0,"prRes":22.0,"qual":3,"ss":22.0,"used":false,"health":1},{"PRN":17,"gnssid":0,"svid":17,"az":8.0,"el":32.0,"prRes":0.8,"qual":7,"ss":36.0,"used":true,"health":1},{"PRN":19,"gnssid":0,"svid":19,"az":357.0,"el":15.0,"prRes":35.7,"qual":7,"ss":32.0,"used":true,"health":1},{"PRN":20,"gnssid":0,"svid":20,"az":241.0,"el":8.0,"prRes":24.1,"qual":7,"ss":32.0,"used":false,"health":1},{"PRN":28,"gnssid":0,"svid":28,"az":211.0,"el":77.0,"prRes":21.1,"qual":7,"ss":39.0,"used":true,"health":1},{"PRN":30,"gnssid":0,"svid":30,"az":135.0,"el":63.0,"prRes":13.5,"qual":7,"ss":41.0,"used":true,"health":1},{"PRN":42,"gnssid":1,"svid":129,"az":11.0,"el":49.0,"prRes":1.1,"qual":6,"ss":32.0,"used":false,"health":1},{"PRN":50,"gnssid":1,"svid":137,"az":11.0,"el":49.0,"prRes":1.1,"qual":6,"ss":33.0,"used":false,"health":1},{"PRN":193,"gnssid":5,"svid":1,"az":357.0,"el":15.0,"prRes":35.7,"qual":7,"ss":33.0,"used":true,"health":1},{"PRN":195,"gnssid":5,"svid":3,"az":0.0,"prRes":0.0,"qual":1,"ss":0.0,"used":false,"health":2},{"PRN":196,"gnssid":5,"svid":4,"az":0.0,"prRes":0.0,"qual":1,"ss":0.0,"used":false,"health":2},{"PRN":70,"gnssid":6,"svid":6,"az":323.0,"el":34.0,"prRes":32.3,"qual":1,"ss":0.0,"used":false,"health":1},{"PRN":71,"gnssid":6,"svid":7,"az":255.0,"el":43.0,"prRes":25.5,"qual":6,"ss":28.0,"used":true,"health":1},{"PRN":72,"gnssid":6,"svid":8,"az":209.0,"el":12.0,"prRes":20.9,"qual":1,"ss":0.0,"used":false,"health":1},{"PRN":73,"gnssid":6,"svid":9,"az":217.0,"el":47.0,"prRes":21.7,"qual":4,"ss":23.0,"used":false,"health":1},{"PRN":74,"gnssid":6,"svid":10,"az":262.0,"el":7.0,"prRes":26.2,"qual":3,"ss":21.0,"used":false,"health":1},{"PRN":80,"gnssid":6,"svid":16,"az":141.0,"el":41.0,"prRes":14.1,"qual":4,"ss":22.0,"used":true,"health":1},{"PRN":81,"gnssid":6,"svid":17,"az":153.0,"el":10.0,"prRes":15.3,"qual":4,"ss":12.0,"used":false,"health":1},{"PRN":82,"gnssid":6,"svid":18,"az":107.0,"el":34.0,"prRes":10.7,"qual":3,"ss":24.0,"used":false,"health":1},{"PRN":83,"gnssid":6,"svid":19,"az":45.0,"el":26.0,"prRes":4.5,"qual":6,"ss":27.0,"used":true,"health":1}]}
$GPZDA,085002.40,19,07,2017,00,00*66
$GPGGA,085002.40,3454.3737220,S,13836.4872300,E,2,14,0.71,28.42,M,-1.662,M,,*5B
$GPRMC,085002.40,A,3454.3737220,S,13836.4872300,E,0.0428,31.472,190717,7.9,E*47
$GPGSA,A,3,5,7,8,9,11,13,17,19,,,,,1.5,0.7,1.3*3C
$GPGBS,085002.40,1.866,1.908,1.603,,,,*47
{"class":"TPV","status":2,"mode":3,"time":"2017-07-19T08:50:02.400Z","leapseconds":18,"ept":0.005,"lat":-34.906228700,"lon":138.608120500,"altHAE":24.9520,"altMSL":28.4240,"alt":28.4240,"epx":1.866,"epy":1.908,"epv":1.603,"track":31.4718,"magtrack":39.3947,"magvar":7.9,"speed":0.022,"climb":-0.280,"eps":0.25,"epc":16.10,"geoidSep":-1.662,"eph":1.133,"sep":6.951}
{"class":"SKY","time":"2017-07-19T08:50:02.400Z","gdop":1.64,"hdop":0.71,"pdop":1.46,"tdop":0.73,"xdop":0.50,"ydop":0.51,"vdop":1.28}
$GPZDA,085002.60,19,07,2017,00,00*64
$GPGGA,085002.60,3454.3737460,S,13836.4872420,E,2,14,,28.36,M,-1.662,M,,*45
$GPRMC,085002.60,A,3454.3737460,S,13836.4872420,E,0.0233,31.472,190717,7.9,E*4E
$GPGSA,A,3,5,7,8,9,11,13,17,19,,,,,,,*13
{"class":"TPV","status":2,"mode":3,"time":"2017-07-19T08:50:02.600Z","leapseconds":18,"ept":0.005,"lat":-34.906229100,"lon":138.608120700,"altHAE":24.8920,"altMSL":28.3630,"alt":28.3630,"epv":1.608,"track":31.4718,"magtrack":39.3947,"magvar":7.9,"speed":0.012,"climb":-0.300,"epc":16.05,"geoidSep":-1.662,"eph":1.136}
$GPZDA,085002.80,19,07,2017,00,00*6A
$GPGGA,085002.80,3454.3737640,S,13836.4872420,E,2,14,,28.30,M,-1.662,M,,*4D
$GPRMC,085002.80,A,3454.3737640,S,13836.4872420,E,0.0564,31.472,190717,7.9,E*45
$GPGSA,A,3,5,7,8,9,11,13,17,19,,,,,,,*13
{"class":"TPV","status":2,"mode":3,"time":"2017-07-19T08:50:02.800Z","leapseconds":18,"ept":0.005,"lat":-34.906229400,"lon":138.608120700,"altHAE":24.8310,"altMSL":28.3020,"alt":28.3020,"epv":1.625,"track":31.4718,"magtrack":39.3947,"magvar":7.9,"speed":0.029,"climb":-0.305,"eps":0.24,"epc":16.16,"geoidSep":-1.662,"eph":1.148}
$GPZDA,085003.00,19,07,2017,00,00*63
$GPGGA,085003.00,3454.3737880,S,13836.4872540,E,2,14,,28.23,M,-1.662,M,,*43
$GPRMC,085003.00,A,3454.3737880,S,13836.4872540,E,0.0505,31.472,190717,7.9,E*4E
$GPGSA,A,3,5,7,8,9,11,13,17,19,,,,,,,*13
{"class":"TPV","status":2,"mode":3,"time":"2017-07-19T08:50:03.000Z","leapseconds":18,"ept":0.005,"lat":-34.906229800,"lon":138.608120900,"altHAE":24.7600,"altMSL":28.2320,"alt":28.2320,"epv":1.622,"track":31.4718,"magtrack":39.3947,"magvar":7.9,"speed":0.026,"climb":-0.355,"eps":0.17,"epc":16.23,"geoidSep":-1.662,"eph":1.146}
$GPZDA,085003.20,19,07,2017,00,00*61
$GPGGA,085003.20,3454.3738120,S,13836.4872540,E,2,14,,28.17,M,-1.662,M,,*4A
$GPRMC,085003.20,A,3454.3738120,S,13836.4872540,E,0.0350,31.472,190717,7.9,E*46
$GPGSA,A,3,5,7,8,9,11,13,17,19,,,,,,,*13
{"class":"TPV","status":2,"mode":3,"time":"2017-07-19T08:50:03.200Z","leapseconds":18,"ept":0.005,"lat":-34.906230200,"lon":138.608120900,"altHAE":24.6950,"altMSL":28.1660,"alt":28.1660,"epv":1.616,"track":31.4718,"magtrack":39.3947,"magvar":7.9,"speed":0.018,"climb":-0.325,"eps":0.18,"epc":16.19,"geoidSep":-1.662,"eph":1.142}
$GPGSV,7,1,25,01,02,083,00,05,19,284,38,07,33,094,39,08,12,141,26*73
$GPGSV,7,2,25,09,12,029,35,11,17,101,39,13,39,226,36,15,05,220,23*7B
$GPGSV,7,3,25,17,32,008,36,19,15,357,32,20,08,241,32,28,77,211,39*72
$GPGSV,7,4,25,30,63,135,43,42,49,011,32,50,49,011,33,193,15,357,33*47
$GPGSV,7,5,25,70,34,323,00,71,43,255,28,72,12,209,00,73,47,217,22*79
$GPGSV,7,6,25,74,07,262,22,80,41,141,21,81,10,153,11,82,34,107,23*72
$GPGSV,7,7,25,83,26,045,27*45
{"class":"SKY","time":"2017-07-19T08:50:03.400Z","gdop":1.64,"hdop":0.71,"pdop":1.46,"tdop":0.73,"xdop":0.50,"ydop":0.51,"vdop":1.28,"nSat":28,"uSat":14,"satellites":[{"PRN":1,"gnssid":0,"svid":1,"az":83.0,"el":2.0,"prRes":8.3,"qual":0,"ss":0.0,"used":false,"health":1},{"PRN":4,"gnssid":0,"svid":4,"az":0.0,"prRes":0.0,"qual":1,"ss":0.0,"used":false,"health":2},{"PRN":5,"gnssid":0,"svid":5,"az":284.0,"el":19.0,"prRes":28.4,"qual":7,"ss":38.0,"used":true,"health":1},{"PRN":7,"gnssid":0,"svid":7,"az":94.0,"el":33.0,"prRes":9.4,"qual":7,"ss":39.0,"used":true,"health":1},{"PRN":8,"gnssid":0,"svid":8,"az":141.0,"el":12.0,"prRes":14.1,"qual":7,"ss":26.0,"used":true,"health":1},{"PRN":9,"gnssid":0,"svid":9,"az":29.0,"el":12.0,"prRes":2.9,"qual":7,"ss":35.0,"used":true,"health":1},{"PRN":11,"gnssid":0,"svid":11,"az":101.0,"el":17.0,"prRes":10.1,"qual":7,"ss":39.0,"used":true,"health":1},{"PRN":13,"gnssid":0,"svid":13,"az":226.0,"el":39.0,"prRes":22.6,"qual":7,"ss":36.0,"used":true,"health":1},{"PRN":15,"gnssid":0,"svid":15,"az":220.0,"el":5.0,"prRes":22.0,"qual":3,"ss":23.0,"used":false,"health":1},{"PRN":17,"gnssid":0,"svid":17,"az":8.0,"el":32.0,"prRes":0.8,"qual":7,"ss":36.0,"used":true,"health":1},{"PRN":19,"gnssid":0,"svid":19,"az":357.0,"el":15.0,"prRes":35.7,"qual":7,"ss":32.0,"used":true,"health":1},{"PRN":20,"gnssid":0,"svid":20,"az":241.0,"el":8.0,"prRes":24.1,"qual":7,"ss":32.0,"used":false,"health":1},{"PRN":28,"gnssid":0,"svid":28,"az":211.0,"el":77.0,"prRes":21.1,"qual":7,"ss":39.0,"used":true,"health":1},{"PRN":30,"gnssid":0,"svid":30,"az":135.0,"el":63.0,"prRes":13.5,"qual":7,"ss":43.0,"used":true,"health":1},{"PRN":42,"gnssid":1,"svid":129,"az":11.0,"el":49.0,"prRes":1.1,"qual":6,"ss":32.0,"used":false,"health":1},{"PRN":50,"gnssid":1,"svid":137,"az":11.0,"el":49.0,"prRes":1.1,"qual":6,"ss":33.0,"used":false,"health":1},{"PRN":193,"gnssid":5,"svid":1,"az":357.0,"el":15.0,"prRes":35.7,"qual":7,"ss":33.0,"used":true,"health":1},{"PRN":195,"gnssid":5,"svid":3,"az":0.0,"prRes":0.0,"qual":1,"ss":0.0,"used":false,"health":2},{"PRN":196,"gnssid":5,"svid":4,"az":0.0,"prRes":0.0,"qual":1,"ss":0.0,"used":false,"health":2},{"PRN":70,"gnssid":6,"svid":6,"az":323.0,"el":34.0,"prRes":32.3,"qual":1,"ss":0.0,"used":false,"health":1},{"PRN":71,"gnssid":6,"svid":7,"az":255.0,"el":43.0,"prRes":25.5,"qual":6,"ss":28.0,"used":true,"health":1},{"PRN":72,"gnssid":6,"svid":8,"az":209.0,"el":12.0,"prRes":20.9,"qual":1,"ss":0.0,"used":false,"health":1},{"PRN":73,"gnssid":6,"svid":9,"az":217.0,"el":47.0,"prRes":21.7,"qual":4,"ss":22.0,"used":false,"health":1},{"PRN":74,"gnssid":6,"svid":10,"az":262.0,"el":7.0,"prRes":26.2,"qual":3,"ss":22.0,"used":false,"health":1},{"PRN":80,"gnssid":6,"svid":16,"az":141.0,"el":41.0,"prRes":14.1,"qual":4,"ss":21.0,"used":true,"health":1},{"PRN":81,"gnssid":6,"svid":17,"az":153.0,"el":10.0,"prRes":15.3,"qual":4,"ss":11.0,"used":false,"health":1},{"PRN":82,"gnssid":6,"svid":18,"az":107.0,"el":34.0,"prRes":10.7,"qual":3,"ss":23.0,"used":false,"health":1},{"PRN":83,"gnssid":6,"svid":19,"az":45.0,"el":26.0,"prRes":4.5,"qual":6,"ss":27.0,"used":true,"health":1}]}
$GPZDA,085003.40,19,07,2017,00,00*67
$GPGGA,085003.40,3454.3738300,S,13836.4872600,E,2,14,0.71,28.09,M,-1.662,M,,*5C
$GPRMC,085003.40,A,3454.3738300,S,13836.4872600,E,0.0214,31.472,190717,7.9,E*46
$GPGSA,A,3,5,7,8,9,11,13,17,19,,,,,1.5,0.7,1.3*3C
$GPGBS,085003.40,1.866,1.908,1.609,,,,*4C
{"class":"TPV","status":2,"mode":3,"time":"2017-07-19T08:50:03.400Z","leapseconds":18,"ept":0.005,"lat":-34.906230500,"lon":138.608121000,"altHAE":24.6170,"altMSL":28.0890,"alt":28.0890,"epx":1.866,"epy":1.908,"epv":1.609,"track":31.4718,"magtrack":39.3947,"magvar":7.9,"speed":0.011,"climb":-0.390,"eps":0.23,"epc":16.12,"geoidSep":-1.662,"eph":1.138,"sep":6.951}
{"class":"SKY","time":"2017-07-19T08:50:03.400Z","gdop":1.64,"hdop":0.71,"pdop":1.46,"tdop":0.73,"xdop":0.50,"ydop":0.51,"vdop":1.28}
$GPZDA,085003.60,19,07,2017,00,00*65
$GPGGA,085003.60,3454.3738540,S,13836.4872600,E,2,14,,28.03,M,-1.662,M,,*4E
$GPRMC,085003.60,A,3454.3738540,S,13836.4872600,E,0.0253,31.472,190717,7.9,E*45
$GPGSA,A,3,5,7,8,9,11,13,17,19,,,,,,,*13
{"class":"TPV","status":2,"mode":3,"time":"2017-07-19T08:50:03.600Z","leapseconds":18,"ept":0.005,"lat":-34.906230900,"lon":138.608121000,"altHAE":24.5610,"altMSL":28.0320,"alt":28.0320,"epv":1.582,"track":31.4718,"magtrack":39.3947,"magvar":7.9,"speed":0.013,"climb":-0.280,"epc":15.95,"geoidSep":-1.662,"eph":1.119}
$GPZDA,085003.80,19,07,2017,00,00*6B
$GPGGA,085003.80,3454.3738780,S,13836.4872540,E,2,14,,27.96,M,-1.662,M,,*4A
$GPRMC,085003.80,A,3454.3738780,S,13836.4872540,E,0.0408,31.472,190717,7.9,E*4A
$GPGSA,A,3,5,7,8,9,11,13,17,19,,,,,,,*13
{"class":"TPV","status":2,"mode":3,"time":"2017-07-19T08:50:03.800Z","leapseconds":18,"ept":0.005,"lat":-34.906231300,"lon":138.608120900,"altHAE":24.4860,"altMSL":27.9580,"alt":27.9580,"epv":1.552,"track":31.4718,"magtrack":39.3947,"magvar":7.9,"speed":0.021,"climb":-0.375,"eps":0.17,"epc":15.67,"geoidSep":-1.662,"eph":1.098}
$GPZDA,085004.00,19,07,2017,00,00*64
$GPGGA,085004.00,3454.3739020,S,13836.4872360,E,2,14,,27.86,M,-1.662,M,,*4C
$GPRMC,085004.00,A,3454.3739020,S,13836.4872360,E,0.0233,31.472,190717,7.9,E*43
$GPGSA,A,3,5,7,8,9,11,13,17,19,,,,,,,*13
{"class":"TPV","status":2,"mode":3,"time":"2017-07-19T08:50:04.000Z","leapseconds":18,"ept":0.005,"lat":-34.906231700,"lon":138.608120600,"altHAE":24.3900,"altMSL":27.8610,"alt":27.8610,"epv":1.538,"track":31.4718,"magtrack":39.3947,"magvar":7.9,"speed":0.012,"climb":-0.480,"eps":0.16,"epc":15.45,"geoidSep":-1.662,"eph":1.090}
$GPZDA,085004.20,19,07,2017,00,00*66
$GPGGA,085004.20,3454.3739320,S,13836.4872180,E,2,14,,27.78,M,-1.662,M,,*40
$GPRMC,085004.20,A,3454.3739320,S,13836.4872180,E,0.0330,31.472,190717,7.9,E*4C
$GPGSA,A,3,5,7,8,9,11,13,17,19,,,,,,,*13
{"class":"TPV","status":2,"mode":3,"time":"2017-07-19T08:50:04.200Z","leapseconds":18,"ept":0.005,"lat":-34.906232200,"lon":138.608120300,"altHAE":24.3090,"altMSL":27.7810,"alt":27.7810,"epv":1.516,"track":31.4718,"magtrack":39.3947,"magvar":7.9,"speed":0.017,"climb":-0.405,"eps":0.17,"epc":15.27,"geoidSep":-1.662,"eph":1.074}
$GPGSV,7,1,25,01,02,083,00,05,19,284,39,07,33,094,40,08,12,141,27*7D
$GPGSV,7,2,25,09,12,029,35,11,17,101,39,13,39,226,37,15,05,220,25*7C
$GPGSV,7,3,25,17,32,008,37,19,15,357,34,20,08,241,33,28,77,211,40*7A
$GPGSV,7,4,25,30,63,135,43,42,49,011,34,50,49,011,34,193,15,357,34*41
$GPGSV,7,5,25,70,34,323,00,71,43,255,28,72,12,209,00,73,47,217,21*7A
$GPGSV,7,6,25,74,07,262,21,80,41,141,21,81,10,153,11,82,34,107,29*7B
$GPGSV,7,7,25,83,26,045,26*44
{"class":"SKY","time":"2017-07-19T08:50:04.400Z","gdop":1.64,"hdop":0.71,"pdop":1.46,"tdop":0.73,"xdop":0.50,"ydop":0.51,"vdop":1.28,"nSat":28,"uSat":14,"satellites":[{"PRN":1,"gnssid":0,"svid":1,"az":83.0,"el":2.0,"prRes":8.3,"qual":1,"ss":0.0,"used":false,"health":1},{"PRN":4,"gnssid":0,"svid":4,"az":0.0,"prRes":0.0,"qual":1,"ss":0.0,"used":false,"health":2},{"PRN":5,"gnssid":0,"svid":5,"az":284.0,"el":19.0,"prRes":28.4,"qual":7,"ss":39.0,"used":true,"health":1},{"PRN":7,"gnssid":0,"svid":7,"az":94.0,"el":33.0,"prRes":9.4,"qual":7,"ss":40.0,"used":true,"health":1},{"PRN":8,"gnssid":0,"svid":8,"az":141.0,"el":12.0,"prRes":14.1,"qual":7,"ss":27.0,"used":true,"health":1},{"PRN":9,"gnssid":0,"svid":9,"az":29.0,"el":12.0,"prRes":2.9,"qual":7,"ss":35.0,"used":true,"health":1},{"PRN":11,"gnssid":0,"svid":11,"az":101.0,"el":17.0,"prRes":10.1,"qual":7,"ss":39.0,"used":true,"health":1},{"PRN":13,"gnssid":0,"svid":13,"az":226.0,"el":39.0,"prRes":22.6,"qual":7,"ss":37.0,"used":true,"health":1},{"PRN":15,"gnssid":0,"svid":15,"az":220.0,"el":5.0,"prRes":22.0,"qual":3,"ss":25.0,"used":false,"health":1},{"PRN":17,"gnssid":0,"svid":17,"az":8.0,"el":32.0,"prRes":0.8,"qual":7,"ss":37.0,"used":true,"health":1},{"PRN":19,"gnssid":0,"svid":19,"az":357.0,"el":15.0,"prRes":35.7,"qual":7,"ss":34.0,"used":true,"health":1},{"PRN":20,"gnssid":0,"svid":20,"az":241.0,"el":8.0,"prRes":24.1,"qual":7,"ss":33.0,"used":false,"health":1},{"PRN":28,"gnssid":0,"svid":28,"az":211.0,"el":77.0,"prRes":21.1,"qual":7,"ss":40.0,"used":true,"health":1},{"PRN":30,"gnssid":0,"svid":30,"az":135.0,"el":63.0,"prRes":13.5,"qual":7,"ss":43.0,"used":true,"health":1},{"PRN":42,"gnssid":1,"svid":129,"az":11.0,"el":49.0,"prRes":1.1,"qual":6,"ss":34.0,"used":false,"health":1},{"PRN":50,"gnssid":1,"svid":137,"az":11.0,"el":49.0,"prRes":1.1,"qual":6,"ss":34.0,"used":false,"health":1},{"PRN":193,"gnssid":5,"svid":1,"az":357.0,"el":15.0,"prRes":35.7,"qual":7,"ss":34.0,"used":true,"health":1},{"PRN":194,"gnssid":5,"svid":2,"az":0.0,"prRes":0.0,"qual":1,"ss":0.0,"used":false,"health":2},{"PRN":196,"gnssid":5,"svid":4,"az":0.0,"prRes":0.0,"qual":1,"ss":0.0,"used":false,"health":2},{"PRN":70,"gnssid":6,"svid":6,"az":323.0,"el":34.0,"prRes":32.3,"qual":1,"ss":0.0,"used":false,"health":1},{"PRN":71,"gnssid":6,"svid":7,"az":255.0,"el":43.0,"prRes":25.5,"qual":6,"ss":28.0,"used":true,"health":1},{"PRN":72,"gnssid":6,"svid":8,"az":209.0,"el":12.0,"prRes":20.9,"qual":1,"ss":0.0,"used":false,"health":1},{"PRN":73,"gnssid":6,"svid":9,"az":217.0,"el":47.0,"prRes":21.7,"qual":4,"ss":21.0,"used":false,"health":1},{"PRN":74,"gnssid":6,"svid":10,"az":262.0,"el":7.0,"prRes":26.2,"qual":3,"ss":21.0,"used":false,"health":1},{"PRN":80,"gnssid":6,"svid":16,"az":141.0,"el":41.0,"prRes":14.1,"qual":4,"ss":21.0,"used":true,"health":1},{"PRN":81,"gnssid":6,"svid":17,"az":153.0,"el":10.0,"prRes":15.3,"qual":4,"ss":11.0,"used":false,"health":1},{"PRN":82,"gnssid":6,"svid":18,"az":107.0,"el":34.0,"prRes":10.7,"qual":3,"ss":29.0,"used":false,"health":1},{"PRN":83,"gnssid":6,"svid":19,"az":45.0,"el":26.0,"prRes":4.5,"qual":6,"ss":26.0,"used":true,"health":1}]}
$GPZDA,085004.40,19,07,2017,00,00*60
$GPGGA,085004.40,3454.3739560,S,13836.4872000,E,2,14,0.71,27.70,M,-1.662,M,,*5D
$GPRMC,085004.40,A,3454.3739560,S,13836.4872000,E,0.0194,31.472,190717,7.9,E*4D
$GPGSA,A,3,5,7,8,9,11,13,17,19,,,,,1.5,0.7,1.3*3C
$GPGBS,085004.40,1.866,1.908,1.487,,,,*4F
{"class":"TPV","status":2,"mode":3,"time":"2017-07-19T08:50:04.400Z","leapseconds":18,"ept":0.005,"lat":-34.906232600,"lon":138.608120000,"altHAE":24.2250,"altMSL":27.6960,"alt":27.6960,"epx":1.866,"epy":1.908,"epv":1.487,"track":31.4718,"magtrack":39.3947,"magvar":7.9,"speed":0.010,"climb":-0.420,"eps":0.17,"epc":15.01,"geoidSep":-1.662,"eph":1.054,"sep":6.951}
{"class":"SKY","time":"2017-07-19T08:50:04.400Z","gdop":1.64,"hdop":0.71,"pdop":1.46,"tdop":0.73,"xdop":0.50,"ydop":0.51,"vdop":1.28}
$GPZDA,085004.60,19,07,2017,00,00*62
$GPGGA,085004.60,3454.3739860,S,13836.4871760,E,2,14,,27.62,M,-1.662,M,,*4B
$GPRMC,085004.60,A,3454.3739860,S,13836.4871760,E,0.0505,31.472,190717,7.9,E*4C
$GPGSA,A,3,5,7,8,9,11,13,17,19,,,,,,,*13
{"class":"TPV","status":2,"mode":3,"time":"2017-07-19T08:50:04.600Z","leapseconds":18,"ept":0.005,"lat":-34.906233100,"lon":138.608119600,"altHAE":24.1540,"altMSL":27.6250,"alt":27.6250,"epv":1.455,"track":31.4718,"magtrack":39.3947,"magvar":7.9,"speed":0.026,"climb":-0.355,"epc":14.71,"geoidSep":-1.662,"eph":1.031}
$GPZDA,085004.80,19,07,2017,00,00*6C
$GPGGA,085004.80,3454.3740160,S,13836.4871580,E,2,14,,27.53,M,-1.662,M,,*4C
$GPRMC,085004.80,A,3454.3740160,S,13836.4871580,E,0.0700,31.472,190717,7.9,E*4E
$GPGSA,A,3,5,7,8,9,11,13,17,19,,,,,,,*13
{"class":"TPV","status":2,"mode":3,"time":"2017-07-19T08:50:04.800Z","leapseconds":18,"ept":0.005,"lat":-34.906233600,"lon":138.608119300,"altHAE":24.0630,"altMSL":27.5340,"alt":27.5340,"epv":1.428,"track":31.4718,"magtrack":39.3947,"magvar":7.9,"speed":0.036,"climb":-0.455,"eps":0.24,"epc":14.41,"geoidSep":-1.662,"eph":1.012}
$GPZDA,085005.00,19,07,2017,00,00*65
$GPGGA,085005.00,3454.3740340,S,13836.4871340,E,2,14,,27.45,M,-1.662,M,,*48
$GPRMC,085005.00,A,3454.3740340,S,13836.4871340,E,0.0408,31.472,190717,7.9,E*46
$GPGSA,A,3,5,7,8,9,11,13,17,19,,,,,,,*13
{"class":"TPV","status":2,"mode":3,"time":"2017-07-19T08:50:05.000Z","leapseconds":18,"ept":0.005,"lat":-34.906233900,"lon":138.608118900,"altHAE":23.9750,"altMSL":27.4460,"alt":27.4460,"epv":1.405,"track":31.4718,"magtrack":39.3947,"magvar":7.9,"speed":0.021,"climb":-0.440,"eps":0.18,"epc":14.16,"geoidSep":-1.662,"eph":0.997}
$GPZDA,085005.20,19,07,2017,00,00*67
$GPGGA,085005.20,3454.3740640,S,13836.4871100,E,2,14,,27.36,M,-1.662,M,,*4D
$GPRMC,085005.20,A,3454.3740640,S,13836.4871100,E,0.0156,31.472,190717,7.9,E*49
$GPGSA,A,3,5,7,8,9,11,13,17,19,,,,,,,*13
{"class":"TPV","status":2,"mode":3,"time":"2017-07-19T08:50:05.200Z","leapseconds":18,"ept":0.005,"lat":-34.906234400,"lon":138.608118500,"altHAE":23.8840,"altMSL":27.3560,"alt":27.3560,"epv":1.388,"track":31.4718,"magtrack":39.3947,"magvar":7.9,"speed":0.008,"climb":-0.455,"eps":0.15,"epc":13.96,"geoidSep":-1.662,"eph":0.986}
$GPGSV,7,1,25,01,02,083,00,05,19,284,39,07,33,094,40,08,12,141,27*7D
$GPGSV,7,2,25,09,12,029,36,11,17,101,40,13,39,226,37,15,05,220,25*71
$GPGSV,7,3,25,17,32,008,37,19,15,357,34,20,08,241,33,28,77,211,40*7A
$GPGSV,7,4,25,30,63,135,43,42,49,011,33,50,49,011,34,193,15,357,34*46
$GPGSV,7,5,25,70,34,323,00,71,43,255,28,72,12,209,00,73,47,217,21*7A
$GPGSV,7,6,25,74,07,262,20,80,41,141,21,81,10,153,10,82,34,107,26*74
$GPGSV,7,7,25,83,26,045,26*44
{"class":"SKY","time":"2017-07-19T08:50:05.400Z","gdop":1.64,"hdop":0.71,"pdop":1.46,"tdop":0.73,"xdop":0.50,"ydop":0.51,"vdop":1.28,"nSat":28,"uSat":14,"satellites":[{"PRN":1,"gnssid":0,"svid":1,"az":83.0,"el":2.0,"prRes":8.3,"qual":1,"ss":0.0,"used":false,"health":1},{"PRN":4,"gnssid":0,"svid":4,"az":0.0,"prRes":0.0,"qual":1,"ss":0.0,"used":false,"health":2},{"PRN":5,"gnssid":0,"svid":5,"az":284.0,"el":19.0,"prRes":28.4,"qual":7,"ss":39.0,"used":true,"health":1},{"PRN":7,"gnssid":0,"svid":7,"az":94.0,"el":33.0,"prRes":9.4,"qual":7,"ss":40.0,"used":true,"health":1},{"PRN":8,"gnssid":0,"svid":8,"az":141.0,"el":12.0,"prRes":14.1,"qual":7,"ss":27.0,"used":true,"health":1},{"PRN":9,"gnssid":0,"svid":9,"az":29.0,"el":12.0,"prRes":2.9,"qual":7,"ss":36.0,"used":true,"health":1},{"PRN":11,"gnssid":0,"svid":11,"az":101.0,"el":17.0,"prRes":10.1,"qual":7,"ss":40.0,"used":true,"health":1},{"PRN":13,"gnssid":0,"svid":13,"az":226.0,"el":39.0,"prRes":22.6,"qual":7,"ss":37.0,"used":true,"health":1},{"PRN":15,"gnssid":0,"svid":15,"az":220.0,"el":5.0,"prRes":22.0,"qual":4,"ss":25.0,"used":false,"health":1},{"PRN":17,"gnssid":0,"svid":17,"az":8.0,"el":32.0,"prRes":0.8,"qual":7,"ss":37.0,"used":true,"health":1},{"PRN":19,"gnssid":0,"svid":19,"az":357.0,"el":15.0,"prRes":35.7,"qual":7,"ss":34.0,"used":true,"health":1},{"PRN":20,"gnssid":0,"svid":20,"az":241.0,"el":8.0,"prRes":24.1,"qual":7,"ss":33.0,"used":false,"health":1},{"PRN":28,"gnssid":0,"svid":28,"az":211.0,"el":77.0,"prRes":21.1,"qual":7,"ss":40.0,"used":true,"health":1},{"PRN":30,"gnssid":0,"svid":30,"az":135.0,"el":63.0,"prRes":13.5,"qual":7,"ss":43.0,"used":true,"health":1},{"PRN":42,"gnssid":1,"svid":129,"az":11.0,"el":49.0,"prRes":1.1,"qual":6,"ss":33.0,"used":false,"health":1},{"PRN":50,"gnssid":1,"svid":137,"az":11.0,"el":49.0,"prRes":1.1,"qual":6,"ss":34.0,"used":false,"health":1},{"PRN":193,"gnssid":5,"svid":1,"az":357.0,"el":15.0,"prRes":35.7,"qual":7,"ss":34.0,"used":true,"health":1},{"PRN":194,"gnssid":5,"svid":2,"az":0.0,"prRes":0.0,"qual":1,"ss":0.0,"used":false,"health":2},{"PRN":196,"gnssid":5,"svid":4,"az":0.0,"prRes":0.0,"qual":1,"ss":0.0,"used":false,"health":2},{"PRN":70,"gnssid":6,"svid":6,"az":323.0,"el":34.0,"prRes":32.3,"qual":1,"ss":0.0,"used":false,"health":1},{"PRN":71,"gnssid":6,"svid":7,"az":255.0,"el":43.0,"prRes":25.5,"qual":6,"ss":28.0,"used":true,"health":1},{"PRN":72,"gnssid":6,"svid":8,"az":209.0,"el":12.0,"prRes":20.9,"qual":1,"ss":0.0,"used":false,"health":1},{"PRN":73,"gnssid":6,"svid":9,"az":217.0,"el":47.0,"prRes":21.7,"qual":4,"ss":21.0,"used":false,"health":1},{"PRN":74,"gnssid":6,"svid":10,"az":262.0,"el":7.0,"prRes":26.2,"qual":4,"ss":20.0,"used":false,"health":1},{"PRN":80,"gnssid":6,"svid":16,"az":141.0,"el":41.0,"prRes":14.1,"qual":4,"ss":21.0,"used":true,"health":1},{"PRN":81,"gnssid":6,"svid":17,"az":153.0,"el":10.0,"prRes":15.3,"qual":4,"ss":10.0,"used":false,"health":1},{"PRN":82,"gnssid":6,"svid":18,"az":107.0,"el":34.0,"prRes":10.7,"qual":4,"ss":26.0,"used":false,"health":1},{"PRN":83,"gnssid":6,"svid":19,"az":45.0,"el":26.0,"prRes":4.5,"qual":6,"ss":26.0,"used":true,"health":1}]}
