{"class":"RTCM3","type":4072,"length":134,"data":["0xfe","0x80","0x01","0x00","0x00","0x00","0x15","0x97","0x60","0x9e","0x40","0x00","0x00","0x14","0x00","0x00","0x00","0x00","0x00","0x00","0x00","0x01","0x00","0x00","0x00","0x00","0x00","0x02","0x00","0x00","0x00","0x00","0x00","0x03","0x00","0x00","0x00","0x00","0x02","0x00","0x00","0x54","0x00","0x04","0x02","0x01","0x00","0x54","0x00","0x04","0x02","0x02","0x00","0x54","0x00","0x04","0x02","0x03","0x00","0x54","0x00","0x04","0x03","0x00","0x00","0x53","0x00","0x0a","0x03","0x01","0x00","0x53","0x00","0x0a","0x03","0x02","0x00","0x53","0x00","0x0a","0x03","0x03","0x00","0x53","0x00","0x0a","0x05","0x00","0x00","0x00","0x00","0x00","0x05","0x01","0x00","0x00","0x00","0x00","0x05","0x02","0x00","0x00","0x00","0x00","0x05","0x03","0x00","0x00","0x00","0x00","0x06","0x00","0x05","0x99","0x00","0x05","0x06","0x01","0x05","0x99","0x00","0x05","0x06","0x02","0x05","0x99","0x00","0x05","0x06","0x03","0x05","0x99","0x00","0x05"]}
{"class":"RTCM3","type":1077,"length":244,"station_id":0,"gnssid":0,"subtype":"MSM7","tow":375227001,"sync":"1","IODS":0,"steering":0,"extclk":0,"smoothing":1,"interval":7,"MaskSat":0,"MaskSig":1073807360,"MaskCell":0,"NSat":0,"NSig":2,"NCell":0}
{"class":"RTCM3","type":1087,"length":220,"station_id":0,"gnssid":6,"subtype":"MSM7","tow":577279913,"sync":"1","IODS":0,"steering":0,"extclk":0,"smoothing":1,"interval":7,"MaskSat":0,"MaskSig":1090519040,"MaskCell":0,"NSat":0,"NSig":2,"NCell":0}
{"class":"RTCM3","type":1097,"length":220,"station_id":0,"gnssid":2,"subtype":"MSM7","tow":375227001,"sync":"1","IODS":0,"steering":0,"extclk":0,"smoothing":1,"interval":7,"MaskSat":0,"MaskSig":1073872896,"MaskCell":0,"NSat":0,"NSig":2,"NCell":0}
{"class":"RTCM3","type":1127,"length":65,"station_id":0,"gnssid":3,"subtype":"MSM7","tow":375213001,"sync":"0","IODS":0,"steering":0,"extclk":0,"smoothing":1,"interval":7,"MaskSat":0,"MaskSig":1073741824,"MaskCell":0,"NSat":0,"NSig":1,"NCell":0}
{"class":"RTCM3","type":1230,"length":8,"station_id":0,"ind":"1","l1_ca":16384}
$GPGSV,11,1,41,01,25,069,38,07,12,130,43,11,28,057,45,13,48,245,49*47
$GPGSV,11,2,41,15,31,287,38,17,65,180,50,18,16,046,38,19,43,196,47*42
$GPGSV,11,3,41,24,07,309,00,28,68,039,49,30,44,130,48,301,74,028,49*7C
$GPGSV,11,4,41,304,24,234,42,305,03,335,00,309,25,291,29,313,29,051,42*4E
$GPGSV,11,5,41,318,24,053,43,321,29,087,44,326,43,116,47,331,38,291,31*47
$GPGSV,11,6,41,333,18,169,41,406,09,330,00,416,05,335,00,419,03,240,28*40
$GPGSV,11,7,41,421,02,334,00,422,10,287,25,427,61,112,52,428,28,047,44*41
$GPGSV,11,8,41,430,31,188,47,437,30,111,47,193,06,296,17,69,08,234,38*7D
$GPGSV,11,9,41,70,22,289,24,71,11,338,30,74,28,315,00,78,24,096,48*4E
$GPGSV,11,10,41,79,65,039,51,80,35,311,33,81,60,103,51,82,30,171,45*75
$GPGSV,11,11,41,88,33,037,41*4D
{"class":"SKY","time":"2019-04-11T08:13:29.000Z","xdop":0.30,"ydop":0.36,"vdop":0.78,"tdop":0.45,"hdop":0.47,"gdop":1.01,"pdop":0.91,"nSat":41,"uSat":31,"satellites":[{"PRN":1,"el":25.0,"az":69.0,"ss":38.0,"used":true,"gnssid":0,"svid":1,"health":1},{"PRN":7,"el":12.0,"az":130.0,"ss":43.0,"used":true,"gnssid":0,"svid":7,"health":1},{"PRN":11,"el":28.0,"az":57.0,"ss":45.0,"used":true,"gnssid":0,"svid":11,"health":1},{"PRN":13,"el":48.0,"az":245.0,"ss":49.0,"used":true,"gnssid":0,"svid":13,"health":1},{"PRN":15,"el":31.0,"az":287.0,"ss":38.0,"used":true,"gnssid":0,"svid":15,"health":1},{"PRN":17,"el":65.0,"az":180.0,"ss":50.0,"used":true,"gnssid":0,"svid":17,"health":1},{"PRN":18,"el":16.0,"az":46.0,"ss":38.0,"used":false,"gnssid":0,"svid":18,"health":2},{"PRN":19,"el":43.0,"az":196.0,"ss":47.0,"used":true,"gnssid":0,"svid":19,"health":1},{"PRN":24,"el":7.0,"az":309.0,"ss":0.0,"used":false,"gnssid":0,"svid":24,"health":1},{"PRN":28,"el":68.0,"az":39.0,"ss":49.0,"used":true,"gnssid":0,"svid":28,"health":1},{"PRN":30,"el":44.0,"az":130.0,"ss":48.0,"used":true,"gnssid":0,"svid":30,"health":1},{"PRN":301,"el":74.0,"az":28.0,"ss":49.0,"used":true,"gnssid":2,"svid":1,"health":1},{"PRN":304,"el":24.0,"az":234.0,"ss":42.0,"used":true,"gnssid":2,"svid":4,"health":1},{"PRN":305,"el":3.0,"az":335.0,"ss":0.0,"used":false,"gnssid":2,"svid":5,"health":1},{"PRN":309,"el":25.0,"az":291.0,"ss":29.0,"used":true,"gnssid":2,"svid":9,"health":1},{"PRN":313,"el":29.0,"az":51.0,"ss":42.0,"used":true,"gnssid":2,"svid":13,"health":1},{"PRN":318,"el":24.0,"az":53.0,"ss":43.0,"used":false,"gnssid":2,"svid":18,"health":2},{"PRN":321,"el":29.0,"az":87.0,"ss":44.0,"used":true,"gnssid":2,"svid":21,"health":1},{"PRN":326,"el":43.0,"az":116.0,"ss":47.0,"used":true,"gnssid":2,"svid":26,"health":1},{"PRN":331,"el":38.0,"az":291.0,"ss":31.0,"used":true,"gnssid":2,"svid":31,"health":1},{"PRN":333,"el":18.0,"az":169.0,"ss":41.0,"used":true,"gnssid":2,"svid":33,"health":1},{"PRN":406,"el":9.0,"az":330.0,"ss":0.0,"used":false,"gnssid":3,"svid":6,"health":1},{"PRN":416,"el":5.0,"az":335.0,"ss":0.0,"used":false,"gnssid":3,"svid":16,"health":1},{"PRN":419,"el":3.0,"az":240.0,"ss":28.0,"used":false,"gnssid":3,"svid":19,"health":1},{"PRN":421,"el":2.0,"az":334.0,"ss":0.0,"used":false,"gnssid":3,"svid":21,"health":1},{"PRN":422,"el":10.0,"az":287.0,"ss":25.0,"used":true,"gnssid":3,"svid":22,"health":1},{"PRN":427,"el":61.0,"az":112.0,"ss":52.0,"used":true,"gnssid":3,"svid":27,"health":1},{"PRN":428,"el":28.0,"az":47.0,"ss":44.0,"used":false,"gnssid":3,"svid":28,"health":2},{"PRN":430,"el":31.0,"az":188.0,"ss":47.0,"used":true,"gnssid":3,"svid":30,"health":1},{"PRN":437,"el":30.0,"az":111.0,"ss":47.0,"used":true,"gnssid":3,"svid":37,"health":1},{"PRN":193,"el":6.0,"az":296.0,"ss":17.0,"used":true,"gnssid":5,"svid":1,"health":1},{"PRN":69,"el":8.0,"az":234.0,"ss":38.0,"used":true,"gnssid":6,"svid":5,"health":1},{"PRN":70,"el":22.0,"az":289.0,"ss":24.0,"used":true,"gnssid":6,"svid":6,"health":1},{"PRN":71,"el":11.0,"az":338.0,"ss":30.0,"used":true,"gnssid":6,"svid":7,"health":1},{"PRN":74,"el":28.0,"az":315.0,"ss":0.0,"used":false,"gnssid":6,"svid":10,"health":2},{"PRN":78,"el":24.0,"az":96.0,"ss":48.0,"used":true,"gnssid":6,"svid":14,"health":1},{"PRN":79,"el":65.0,"az":39.0,"ss":51.0,"used":true,"gnssid":6,"svid":15,"health":1},{"PRN":80,"el":35.0,"az":311.0,"ss":33.0,"used":true,"gnssid":6,"svid":16,"health":1},{"PRN":81,"el":60.0,"az":103.0,"ss":51.0,"used":true,"gnssid":6,"svid":17,"health":1},{"PRN":82,"el":30.0,"az":171.0,"ss":45.0,"used":true,"gnssid":6,"svid":18,"health":1},{"PRN":88,"el":33.0,"az":37.0,"ss":41.0,"used":true,"gnssid":6,"svid":24,"health":1}]}
{"class":"SKY","time":"2019-04-11T08:13:29.000Z","xdop":0.30,"ydop":0.36,"vdop":0.78,"tdop":0.18,"hdop":0.47,"gdop":0.18,"pdop":0.91}
{"class":"RTCM3","type":1005,"length":19,"station_id":0,"system":["GPS","GLONASS","GALILEO"],"refstation":false,"sro":true,"x":-2386072.7310,"y":-3922192.5049,"z":4414363.4131}
{"class":"RTCM3","type":4072,"length":134,"data":["0xfe","0x80","0x01","0x00","0x00","0x00","0x15","0x97","0x61","0x98","0x40","0x00","0x00","0x14","0x00","0x00","0x00","0x00","0x00","0x00","0x00","0x01","0x00","0x00","0x00","0x00","0x00","0x02","0x00","0x00","0x00","0x00","0x00","0x03","0x00","0x00","0x00","0x00","0x02","0x00","0x00","0x54","0x00","0x04","0x02","0x01","0x00","0x54","0x00","0x04","0x02","0x02","0x00","0x54","0x00","0x04","0x02","0x03","0x00","0x54","0x00","0x04","0x03","0x00","0x00","0x53","0x00","0x0a","0x03","0x01","0x00","0x53","0x00","0x0a","0x03","0x02","0x00","0x53","0x00","0x0a","0x03","0x03","0x00","0x53","0x00","0x0a","0x05","0x00","0x00","0x00","0x00","0x00","0x05","0x01","0x00","0x00","0x00","0x00","0x05","0x02","0x00","0x00","0x00","0x00","0x05","0x03","0x00","0x00","0x00","0x00","0x06","0x00","0x05","0x99","0x00","0x05","0x06","0x01","0x05","0x99","0x00","0x05","0x06","0x02","0x05","0x99","0x00","0x05","0x06","0x03","0x05","0x99","0x00","0x05"]}
{"class":"RTCM3","type":1077,"length":244,"station_id":0,"gnssid":0,"subtype":"MSM7","tow":375228001,"sync":"1","IODS":0,"steering":0,"extclk":0,"smoothing":1,"interval":7,"MaskSat":0,"MaskSig":1073807360,"MaskCell":0,"NSat":0,"NSig":2,"NCell":0}
{"class":"RTCM3","type":1087,"length":220,"station_id":0,"gnssid":6,"subtype":"MSM7","tow":577280913,"sync":"1","IODS":0,"steering":0,"extclk":0,"smoothing":1,"interval":7,"MaskSat":0,"MaskSig":1090519040,"MaskCell":0,"NSat":0,"NSig":2,"NCell":0}
{"class":"RTCM3","type":1097,"length":220,"station_id":0,"gnssid":2,"subtype":"MSM7","tow":375228001,"sync":"1","IODS":0,"steering":0,"extclk":0,"smoothing":1,"interval":7,"MaskSat":0,"MaskSig":1073872896,"MaskCell":0,"NSat":0,"NSig":2,"NCell":0}
{"class":"RTCM3","type":1127,"length":65,"station_id":0,"gnssid":3,"subtype":"MSM7","tow":375214001,"sync":"0","IODS":0,"steering":0,"extclk":0,"smoothing":1,"interval":7,"MaskSat":0,"MaskSig":1073741824,"MaskCell":0,"NSat":0,"NSig":1,"NCell":0}
{"class":"RTCM3","type":1230,"length":8,"station_id":0,"ind":"1","l1_ca":16384}
{"class":"SKY","time":"2019-04-11T08:13:29.000Z","tdop":0.18,"gdop":0.18}
{"class":"RTCM3","type":1005,"length":19,"station_id":0,"system":["GPS","GLONASS","GALILEO"],"refstation":false,"sro":true,"x":-2386072.7310,"y":-3922192.5049,"z":4414363.4131}
{"class":"RTCM3","type":4072,"length":134,"data":["0xfe","0x80","0x01","0x00","0x00","0x00","0x15","0x97","0x62","0x92","0x40","0x00","0x00","0x14","0x00","0x00","0x00","0x00","0x00","0x00","0x00","0x01","0x00","0x00","0x00","0x00","0x00","0x02","0x00","0x00","0x00","0x00","0x00","0x03","0x00","0x00","0x00","0x00","0x02","0x00","0x00","0x54","0x00","0x04","0x02","0x01","0x00","0x54","0x00","0x04","0x02","0x02","0x00","0x54","0x00","0x04","0x02","0x03","0x00","0x54","0x00","0x04","0x03","0x00","0x00","0x53","0x00","0x0a","0x03","0x01","0x00","0x53","0x00","0x0a","0x03","0x02","0x00","0x53","0x00","0x0a","0x03","0x03","0x00","0x53","0x00","0x0a","0x05","0x00","0x00","0x00","0x00","0x00","0x05","0x01","0x00","0x00","0x00","0x00","0x05","0x02","0x00","0x00","0x00","0x00","0x05","0x03","0x00","0x00","0x00","0x00","0x06","0x00","0x05","0x99","0x00","0x05","0x06","0x01","0x05","0x99","0x00","0x05","0x06","0x02","0x05","0x99","0x00","0x05","0x06","0x03","0x05","0x99","0x00","0x05"]}
{"class":"RTCM3","type":1077,"length":244,"station_id":0,"gnssid":0,"subtype":"MSM7","tow":375229001,"sync":"1","IODS":0,"steering":0,"extclk":0,"smoothing":1,"interval":7,"MaskSat":0,"MaskSig":1073807360,"MaskCell":0,"NSat":0,"NSig":2,"NCell":0}
{"class":"RTCM3","type":1087,"length":244,"station_id":0,"gnssid":6,"subtype":"MSM7","tow":577281913,"sync":"1","IODS":0,"steering":0,"extclk":0,"smoothing":1,"interval":7,"MaskSat":0,"MaskSig":1090519040,"MaskCell":0,"NSat":0,"NSig":2,"NCell":0}
{"class":"RTCM3","type":1097,"length":220,"station_id":0,"gnssid":2,"subtype":"MSM7","tow":375229001,"sync":"1","IODS":0,"steering":0,"extclk":0,"smoothing":1,"interval":7,"MaskSat":0,"MaskSig":1073872896,"MaskCell":0,"NSat":0,"NSig":2,"NCell":0}
{"class":"RTCM3","type":1127,"length":65,"station_id":0,"gnssid":3,"subtype":"MSM7","tow":375215001,"sync":"0","IODS":0,"steering":0,"extclk":0,"smoothing":1,"interval":7,"MaskSat":0,"MaskSig":1073741824,"MaskCell":0,"NSat":0,"NSig":1,"NCell":0}
{"class":"RTCM3","type":1230,"length":8,"station_id":0,"ind":"1","l1_ca":16384}
{"class":"SKY","time":"2019-04-11T08:13:29.000Z","tdop":0.18,"gdop":0.18}
$GPZDA,081331.00,17,10,2019,00,00*63
$GPGGA,081331.00,4404.1286,N,12118.8588,W,7,31,,1135.74,M,-22.155,M,,*7A
$GPRMC,081331.00,A,4404.1286,N,12118.8588,W,0.0000,0.000,171019,14.4,E*43
$GPGSA,A,3,1,7,11,13,15,17,19,28,30,301,,,,,*29
{"class":"TPV","status":7,"mode":3,"time":"2019-10-17T08:13:31.000Z","leapseconds":18,"ept":0.005,"lat":44.068810800,"lon":-121.314314000,"altHAE":1114.3900,"altMSL":1135.7400,"alt":1135.7400,"epv":0.359,"track":0.0000,"magtrack":14.4185,"magvar":14.4,"speed":0.000,"climb":0.000,"eps":0.01,"epc":0.72,"ecefx":-2386072.73,"ecefy":-3922192.50,"ecefz":4414363.41,"ecefvx":0.00,"ecefvy":0.00,"ecefvz":0.00,"ecefpAcc":0.62,"ecefvAcc":0.01,"geoidSep":-22.155,"eph":0.508}
{"class":"RTCM3","type":1005,"length":19,"station_id":0,"system":["GPS","GLONASS","GALILEO"],"refstation":false,"sro":true,"x":-2386072.7310,"y":-3922192.5049,"z":4414363.4131}
{"class":"RTCM3","type":4072,"length":134,"data":["0xfe","0x80","0x01","0x00","0x00","0x00","0x15","0x97","0x63","0x8c","0x40","0x00","0x00","0x14","0x00","0x00","0x00","0x00","0x00","0x00","0x00","0x01","0x00","0x00","0x00","0x00","0x00","0x02","0x00","0x00","0x00","0x00","0x00","0x03","0x00","0x00","0x00","0x00","0x02","0x00","0x00","0x54","0x00","0x04","0x02","0x01","0x00","0x54","0x00","0x04","0x02","0x02","0x00","0x54","0x00","0x04","0x02","0x03","0x00","0x54","0x00","0x04","0x03","0x00","0x00","0x53","0x00","0x0a","0x03","0x01","0x00","0x53","0x00","0x0a","0x03","0x02","0x00","0x53","0x00","0x0a","0x03","0x03","0x00","0x53","0x00","0x0a","0x05","0x00","0x00","0x00","0x00","0x00","0x05","0x01","0x00","0x00","0x00","0x00","0x05","0x02","0x00","0x00","0x00","0x00","0x05","0x03","0x00","0x00","0x00","0x00","0x06","0x00","0x05","0x99","0x00","0x05","0x06","0x01","0x05","0x99","0x00","0x05","0x06","0x02","0x05","0x99","0x00","0x05","0x06","0x03","0x05","0x99","0x00","0x05"]}
{"class":"RTCM3","type":1077,"length":244,"station_id":0,"gnssid":0,"subtype":"MSM7","tow":375230001,"sync":"1","IODS":0,"steering":0,"extclk":0,"smoothing":1,"interval":7,"MaskSat":0,"MaskSig":1073807360,"MaskCell":0,"NSat":0,"NSig":2,"NCell":0}
{"class":"RTCM3","type":1087,"length":244,"station_id":0,"gnssid":6,"subtype":"MSM7","tow":577282913,"sync":"1","IODS":0,"steering":0,"extclk":0,"smoothing":1,"interval":7,"MaskSat":0,"MaskSig":1090519040,"MaskCell":0,"NSat":0,"NSig":2,"NCell":0}
{"class":"RTCM3","type":1097,"length":220,"station_id":0,"gnssid":2,"subtype":"MSM7","tow":375230001,"sync":"1","IODS":0,"steering":0,"extclk":0,"smoothing":1,"interval":7,"MaskSat":0,"MaskSig":1073872896,"MaskCell":0,"NSat":0,"NSig":2,"NCell":0}
{"class":"RTCM3","type":1127,"length":65,"station_id":0,"gnssid":3,"subtype":"MSM7","tow":375216001,"sync":"0","IODS":0,"steering":0,"extclk":0,"smoothing":1,"interval":7,"MaskSat":0,"MaskSig":1073741824,"MaskCell":0,"NSat":0,"NSig":1,"NCell":0}
{"class":"RTCM3","type":1230,"length":8,"station_id":0,"ind":"1","l1_ca":16384}
{"class":"SKY","time":"2019-04-11T08:13:29.000Z","tdop":0.18,"gdop":0.18}
$GPZDA,081332.00,17,10,2019,00,00*60
$GPGGA,081332.00,4404.1286,N,12118.8588,W,7,31,,1135.74,M,-22.155,M,,*79
$GPRMC,081332.00,A,4404.1286,N,12118.8588,W,0.0000,0.000,171019,14.4,E*40
$GPGSA,A,3,1,7,11,13,15,17,19,28,30,301,,,,,*29
{"class":"TPV","status":7,"mode":3,"time":"2019-10-17T08:13:32.000Z","leapseconds":18,"ept":0.005,"lat":44.068810800,"lon":-121.314314000,"altHAE":1114.3900,"altMSL":1135.7400,"alt":1135.7400,"epv":0.359,"track":0.0000,"magtrack":14.4185,"magvar":14.4,"speed":0.000,"climb":0.000,"eps":0.01,"epc":0.72,"ecefx":-2386072.73,"ecefy":-3922192.50,"ecefz":4414363.41,"ecefvx":0.00,"ecefvy":0.00,"ecefvz":0.00,"ecefpAcc":0.62,"ecefvAcc":0.01,"geoidSep":-22.155,"eph":0.508}
{"class":"RTCM3","type":1005,"length":19,"station_id":0,"system":["GPS","GLONASS","GALILEO"],"refstation":false,"sro":true,"x":-2386072.7310,"y":-3922192.5049,"z":4414363.4131}
{"class":"RTCM3","type":4072,"length":134,"data":["0xfe","0x80","0x01","0x00","0x00","0x00","0x15","0x97","0x64","0x86","0x40","0x00","0x00","0x14","0x00","0x00","0x00","0x00","0x00","0x00","0x00","0x01","0x00","0x00","0x00","0x00","0x00","0x02","0x00","0x00","0x00","0x00","0x00","0x03","0x00","0x00","0x00","0x00","0x02","0x00","0x00","0x54","0x00","0x04","0x02","0x01","0x00","0x54","0x00","0x04","0x02","0x02","0x00","0x54","0x00","0x04","0x02","0x03","0x00","0x54","0x00","0x04","0x03","0x00","0x00","0x53","0x00","0x0a","0x03","0x01","0x00","0x53","0x00","0x0a","0x03","0x02","0x00","0x53","0x00","0x0a","0x03","0x03","0x00","0x53","0x00","0x0a","0x05","0x00","0x00","0x00","0x00","0x00","0x05","0x01","0x00","0x00","0x00","0x00","0x05","0x02","0x00","0x00","0x00","0x00","0x05","0x03","0x00","0x00","0x00","0x00","0x06","0x00","0x05","0x99","0x00","0x05","0x06","0x01","0x05","0x99","0x00","0x05","0x06","0x02","0x05","0x99","0x00","0x05","0x06","0x03","0x05","0x99","0x00","0x05"]}
{"class":"RTCM3","type":1077,"length":244,"station_id":0,"gnssid":0,"subtype":"MSM7","tow":375231001,"sync":"1","IODS":0,"steering":0,"extclk":0,"smoothing":1,"interval":7,"MaskSat":0,"MaskSig":1073807360,"MaskCell":0,"NSat":0,"NSig":2,"NCell":0}
{"class":"RTCM3","type":1087,"length":220,"station_id":0,"gnssid":6,"subtype":"MSM7","tow":577283913,"sync":"1","IODS":0,"steering":0,"extclk":0,"smoothing":1,"interval":7,"MaskSat":0,"MaskSig":1090519040,"MaskCell":0,"NSat":0,"NSig":2,"NCell":0}
{"class":"RTCM3","type":1097,"length":220,"station_id":0,"gnssid":2,"subtype":"MSM7","tow":375231001,"sync":"1","IODS":0,"steering":0,"extclk":0,"smoothing":1,"interval":7,"MaskSat":0,"MaskSig":1073872896,"MaskCell":0,"NSat":0,"NSig":2,"NCell":0}
{"class":"RTCM3","type":1127,"length":65,"station_id":0,"gnssid":3,"subtype":"MSM7","tow":375217001,"sync":"0","IODS":0,"steering":0,"extclk":0,"smoothing":1,"interval":7,"MaskSat":0,"MaskSig":1073741824,"MaskCell":0,"NSat":0,"NSig":1,"NCell":0}
{"class":"RTCM3","type":1230,"length":8,"station_id":0,"ind":"1","l1_ca":16384}
{"class":"SKY","time":"2019-04-11T08:13:29.000Z","tdop":0.18,"gdop":0.18}
$GPZDA,081333.00,17,10,2019,00,00*61
$GPGGA,081333.00,4404.1286,N,12118.8588,W,7,31,,1135.74,M,-22.155,M,,*78
$GPRMC,081333.00,A,4404.1286,N,12118.8588,W,0.0000,0.000,171019,14.4,E*41
$GPGSA,A,3,1,7,11,13,15,17,19,28,30,301,,,,,*29
{"class":"TPV","status":7,"mode":3,"time":"2019-10-17T08:13:33.000Z","leapseconds":18,"ept":0.005,"lat":44.068810800,"lon":-121.314314000,"altHAE":1114.3900,"altMSL":1135.7400,"alt":1135.7400,"epv":0.359,"track":0.0000,"magtrack":14.4185,"magvar":14.4,"speed":0.000,"climb":0.000,"eps":0.01,"epc":0.72,"ecefx":-2386072.73,"ecefy":-3922192.50,"ecefz":4414363.41,"ecefvx":0.00,"ecefvy":0.00,"ecefvz":0.00,"ecefpAcc":0.62,"ecefvAcc":0.01,"geoidSep":-22.155,"eph":0.508}
{"class":"RTCM3","type":1005,"length":19,"station_id":0,"system":["GPS","GLONASS","GALILEO"],"refstation":false,"sro":true,"x":-2386072.7310,"y":-3922192.5049,"z":4414363.4131}
{"class":"RTCM3","type":4072,"length":134,"data":["0xfe","0x80","0x01","0x00","0x00","0x00","0x15","0x97","0x65","0x80","0x40","0x00","0x00","0x14","0x00","0x00","0x00","0x00","0x00","0x00","0x00","0x01","0x00","0x00","0x00","0x00","0x00","0x02","0x00","0x00","0x00","0x00","0x00","0x03","0x00","0x00","0x00","0x00","0x02","0x00","0x00","0x54","0x00","0x04","0x02","0x01","0x00","0x54","0x00","0x04","0x02","0x02","0x00","0x54","0x00","0x04","0x02","0x03","0x00","0x54","0x00","0x04","0x03","0x00","0x00","0x53","0x00","0x0a","0x03","0x01","0x00","0x53","0x00","0x0a","0x03","0x02","0x00","0x53","0x00","0x0a","0x03","0x03","0x00","0x53","0x00","0x0a","0x05","0x00","0x00","0x00","0x00","0x00","0x05","0x01","0x00","0x00","0x00","0x00","0x05","0x02","0x00","0x00","0x00","0x00","0x05","0x03","0x00","0x00","0x00","0x00","0x06","0x00","0x05","0x99","0x00","0x05","0x06","0x01","0x05","0x99","0x00","0x05","0x06","0x02","0x05","0x99","0x00","0x05","0x06","0x03","0x05","0x99","0x00","0x05"]}
{"class":"RTCM3","type":1077,"length":244,"station_id":0,"gnssid":0,"subtype":"MSM7","tow":375232001,"sync":"1","IODS":0,"steering":0,"extclk":0,"smoothing":1,"interval":7,"MaskSat":0,"MaskSig":1073807360,"MaskCell":0,"NSat":0,"NSig":2,"NCell":0}
{"class":"RTCM3","type":1087,"length":220,"station_id":0,"gnssid":6,"subtype":"MSM7","tow":577284913,"sync":"1","IODS":0,"steering":0,"extclk":0,"smoothing":1,"interval":7,"MaskSat":0,"MaskSig":1090519040,"MaskCell":0,"NSat":0,"NSig":2,"NCell":0}
{"class":"RTCM3","type":1097,"length":220,"station_id":0,"gnssid":2,"subtype":"MSM7","tow":375232001,"sync":"1","IODS":0,"steering":0,"extclk":0,"smoothing":1,"interval":7,"MaskSat":0,"MaskSig":1073872896,"MaskCell":0,"NSat":0,"NSig":2,"NCell":0}
{"class":"RTCM3","type":1127,"length":65,"station_id":0,"gnssid":3,"subtype":"MSM7","tow":375218001,"sync":"0","IODS":0,"steering":0,"extclk":0,"smoothing":1,"interval":7,"MaskSat":0,"MaskSig":1073741824,"MaskCell":0,"NSat":0,"NSig":1,"NCell":0}
{"class":"RTCM3","type":1230,"length":8,"station_id":0,"ind":"1","l1_ca":16384}
{"class":"SKY","time":"2019-04-11T08:13:29.000Z","tdop":0.18,"gdop":0.18}
$GPZDA,081334.00,17,10,2019,00,00*66
$GPGGA,081334.00,4404.1286,N,12118.8588,W,7,31,,1135.74,M,-22.155,M,,*7F
$GPRMC,081334.00,A,4404.1286,N,12118.8588,W,0.0000,0.000,171019,14.4,E*46
$GPGSA,A,3,1,7,11,13,15,17,19,28,30,301,,,,,*29
{"class":"TPV","status":7,"mode":3,"time":"2019-10-17T08:13:34.000Z","leapseconds":18,"ept":0.005,"lat":44.068810800,"lon":-121.314314000,"altHAE":1114.3900,"altMSL":1135.7400,"alt":1135.7400,"epv":0.359,"track":0.0000,"magtrack":14.4185,"magvar":14.4,"speed":0.000,"climb":0.000,"eps":0.01,"epc":0.72,"ecefx":-2386072.73,"ecefy":-3922192.50,"ecefz":4414363.41,"ecefvx":0.00,"ecefvy":0.00,"ecefvz":0.00,"ecefpAcc":0.62,"ecefvAcc":0.01,"geoidSep":-22.155,"eph":0.508}
{"class":"RTCM3","type":1005,"length":19,"station_id":0,"system":["GPS","GLONASS","GALILEO"],"refstation":false,"sro":true,"x":-2386072.7310,"y":-3922192.5049,"z":4414363.4131}
{"class":"RTCM3","type":4072,"length":134,"data":["0xfe","0x80","0x01","0x00","0x00","0x00","0x15","0x97","0x66","0x7a","0x40","0x00","0x00","0x14","0x00","0x00","0x00","0x00","0x00","0x00","0x00","0x01","0x00","0x00","0x00","0x00","0x00","0x02","0x00","0x00","0x00","0x00","0x00","0x03","0x00","0x00","0x00","0x00","0x02","0x00","0x00","0x54","0x00","0x04","0x02","0x01","0x00","0x54","0x00","0x04","0x02","0x02","0x00","0x54","0x00","0x04","0x02","0x03","0x00","0x54","0x00","0x04","0x03","0x00","0x00","0x53","0x00","0x0a","0x03","0x01","0x00","0x53","0x00","0x0a","0x03","0x02","0x00","0x53","0x00","0x0a","0x03","0x03","0x00","0x53","0x00","0x0a","0x05","0x00","0x00","0x00","0x00","0x00","0x05","0x01","0x00","0x00","0x00","0x00","0x05","0x02","0x00","0x00","0x00","0x00","0x05","0x03","0x00","0x00","0x00","0x00","0x06","0x00","0x05","0x99","0x00","0x05","0x06","0x01","0x05","0x99","0x00","0x05","0x06","0x02","0x05","0x99","0x00","0x05","0x06","0x03","0x05","0x99","0x00","0x05"]}
{"class":"RTCM3","type":1077,"length":244,"station_id":0,"gnssid":0,"subtype":"MSM7","tow":375233001,"sync":"1","IODS":0,"steering":0,"extclk":0,"smoothing":1,"interval":7,"MaskSat":0,"MaskSig":1073807360,"MaskCell":0,"NSat":0,"NSig":2,"NCell":0}
{"class":"RTCM3","type":1087,"length":220,"station_id":0,"gnssid":6,"subtype":"MSM7","tow":577285913,"sync":"1","IODS":0,"steering":0,"extclk":0,"smoothing":1,"interval":7,"MaskSat":0,"MaskSig":1090519040,"MaskCell":0,"NSat":0,"NSig":2,"NCell":0}
{"class":"RTCM3","type":1097,"length":220,"station_id":0,"gnssid":2,"subtype":"MSM7","tow":375233001,"sync":"1","IODS":0,"steering":0,"extclk":0,"smoothing":1,"interval":7,"MaskSat":0,"MaskSig":1073872896,"MaskCell":0,"NSat":0,"NSig":2,"NCell":0}
{"class":"RTCM3","type":1127,"length":65,"station_id":0,"gnssid":3,"subtype":"MSM7","tow":375219001,"sync":"0","IODS":0,"steering":0,"extclk":0,"smoothing":1,"interval":7,"MaskSat":0,"MaskSig":1073741824,"MaskCell":0,"NSat":0,"NSig":1,"NCell":0}
{"class":"RTCM3","type":1230,"length":8,"station_id":0,"ind":"1","l1_ca":16384}
{"class":"SKY","time":"2019-04-11T08:13:29.000Z","tdop":0.18,"gdop":0.18}
$GPZDA,081335.00,17,10,2019,00,00*67
$GPGGA,081335.00,4404.1286,N,12118.8588,W,7,31,,1135.74,M,-22.155,M,,*7E
$GPRMC,081335.00,A,4404.1286,N,12118.8588,W,0.0000,0.000,171019,14.4,E*47
$GPGSA,A,3,1,7,11,13,15,17,19,28,30,301,,,,,*29
{"class":"TPV","status":7,"mode":3,"time":"2019-10-17T08:13:35.000Z","leapseconds":18,"ept":0.005,"lat":44.068810800,"lon":-121.314314000,"altHAE":1114.3900,"altMSL":1135.7400,"alt":1135.7400,"epv":0.359,"track":0.0000,"magtrack":14.4185,"magvar":14.4,"speed":0.000,"climb":0.000,"eps":0.01,"epc":0.72,"ecefx":-2386072.73,"ecefy":-3922192.50,"ecefz":4414363.41,"ecefvx":0.00,"ecefvy":0.00,"ecefvz":0.00,"ecefpAcc":0.62,"ecefvAcc":0.01,"geoidSep":-22.155,"eph":0.508}
{"class":"RTCM3","type":1005,"length":19,"station_id":0,"system":["GPS","GLONASS","GALILEO"],"refstation":false,"sro":true,"x":-2386072.7310,"y":-3922192.5049,"z":4414363.4131}
{"class":"RTCM3","type":4072,"length":134,"data":["0xfe","0x80","0x01","0x00","0x00","0x00","0x15","0x97","0x67","0x74","0x40","0x00","0x00","0x14","0x00","0x00","0x00","0x00","0x00","0x00","0x00","0x01","0x00","0x00","0x00","0x00","0x00","0x02","0x00","0x00","0x00","0x00","0x00","0x03","0x00","0x00","0x00","0x00","0x02","0x00","0x00","0x54","0x00","0x04","0x02","0x01","0x00","0x54","0x00","0x04","0x02","0x02","0x00","0x54","0x00","0x04","0x02","0x03","0x00","0x54","0x00","0x04","0x03","0x00","0x00","0x53","0x00","0x0a","0x03","0x01","0x00","0x53","0x00","0x0a","0x03","0x02","0x00","0x53","0x00","0x0a","0x03","0x03","0x00","0x53","0x00","0x0a","0x05","0x00","0x00","0x00","0x00","0x00","0x05","0x01","0x00","0x00","0x00","0x00","0x05","0x02","0x00","0x00","0x00","0x00","0x05","0x03","0x00","0x00","0x00","0x00","0x06","0x00","0x05","0x99","0x00","0x05","0x06","0x01","0x05","0x99","0x00","0x05","0x06","0x02","0x05","0x99","0x00","0x05","0x06","0x03","0x05","0x99","0x00","0x05"]}
{"class":"RTCM3","type":1077,"length":244,"station_id":0,"gnssid":0,"subtype":"MSM7","tow":375234001,"sync":"1","IODS":0,"steering":0,"extclk":0,"smoothing":1,"interval":7,"MaskSat":0,"MaskSig":1073807360,"MaskCell":0,"NSat":0,"NSig":2,"NCell":0}
{"class":"RTCM3","type":1087,"length":220,"station_id":0,"gnssid":6,"subtype":"MSM7","tow":577286913,"sync":"1","IODS":0,"steering":0,"extclk":0,"smoothing":1,"interval":7,"MaskSat":0,"MaskSig":1090519040,"MaskCell":0,"NSat":0,"NSig":2,"NCell":0}
{"class":"RTCM3","type":1097,"length":220,"station_id":0,"gnssid":2,"subtype":"MSM7","tow":375234001,"sync":"1","IODS":0,"steering":0,"extclk":0,"smoothing":1,"interval":7,"MaskSat":0,"MaskSig":1073872896,"MaskCell":0,"NSat":0,"NSig":2,"NCell":0}
{"class":"RTCM3","type":1127,"length":65,"station_id":0,"gnssid":3,"subtype":"MSM7","tow":375220001,"sync":"0","IODS":0,"steering":0,"extclk":0,"smoothing":1,"interval":7,"MaskSat":0,"MaskSig":1073741824,"MaskCell":0,"NSat":0,"NSig":1,"NCell":0}
{"class":"RTCM3","type":1230,"length":8,"station_id":0,"ind":"1","l1_ca":16384}
{"class":"SKY","time":"2019-04-11T08:13:29.000Z","tdop":0.18,"gdop":0.18}
$GPZDA,081336.00,17,10,2019,00,00*64
$GPGGA,081336.00,4404.1286,N,12118.8588,W,7,31,,1135.74,M,-22.155,M,,*7D
$GPRMC,081336.00,A,4404.1286,N,12118.8588,W,0.0000,0.000,171019,14.4,E*44
$GPGSA,A,3,1,7,11,13,15,17,19,28,30,301,,,,,*29
{"class":"TPV","status":7,"mode":3,"time":"2019-10-17T08:13:36.000Z","leapseconds":18,"ept":0.005,"lat":44.068810800,"lon":-121.314314000,"altHAE":1114.3900,"altMSL":1135.7400,"alt":1135.7400,"epv":0.359,"track":0.0000,"magtrack":14.4185,"magvar":14.4,"speed":0.000,"climb":0.000,"eps":0.01,"epc":0.72,"ecefx":-2386072.73,"ecefy":-3922192.50,"ecefz":4414363.41,"ecefvx":0.00,"ecefvy":0.00,"ecefvz":0.00,"ecefpAcc":0.62,"ecefvAcc":0.01,"geoidSep":-22.155,"eph":0.508}
{"class":"RTCM3","type":1005,"length":19,"station_id":0,"system":["GPS","GLONASS","GALILEO"],"refstation":false,"sro":true,"x":-2386072.7310,"y":-3922192.5049,"z":4414363.4131}
{"class":"RTCM3","type":4072,"length":134,"data":["0xfe","0x80","0x01","0x00","0x00","0x00","0x15","0x97","0x68","0x6e","0x40","0x00","0x00","0x14","0x00","0x00","0x00","0x00","0x00","0x00","0x00","0x01","0x00","0x00","0x00","0x00","0x00","0x02","0x00","0x00","0x00","0x00","0x00","0x03","0x00","0x00","0x00","0x00","0x02","0x00","0x00","0x54","0x00","0x04","0x02","0x01","0x00","0x54","0x00","0x04","0x02","0x02","0x00","0x54","0x00","0x04","0x02","0x03","0x00","0x54","0x00","0x04","0x03","0x00","0x00","0x53","0x00","0x0a","0x03","0x01","0x00","0x53","0x00","0x0a","0x03","0x02","0x00","0x53","0x00","0x0a","0x03","0x03","0x00","0x53","0x00","0x0a","0x05","0x00","0x00","0x00","0x00","0x00","0x05","0x01","0x00","0x00","0x00","0x00","0x05","0x02","0x00","0x00","0x00","0x00","0x05","0x03","0x00","0x00","0x00","0x00","0x06","0x00","0x05","0x99","0x00","0x05","0x06","0x01","0x05","0x99","0x00","0x05","0x06","0x02","0x05","0x99","0x00","0x05","0x06","0x03","0x05","0x99","0x00","0x05"]}
{"class":"RTCM3","type":1077,"length":244,"station_id":0,"gnssid":0,"subtype":"MSM7","tow":375235001,"sync":"1","IODS":0,"steering":0,"extclk":0,"smoothing":1,"interval":7,"MaskSat":0,"MaskSig":1073807360,"MaskCell":0,"NSat":0,"NSig":2,"NCell":0}
{"class":"RTCM3","type":1087,"length":220,"station_id":0,"gnssid":6,"subtype":"MSM7","tow":577287913,"sync":"1","IODS":0,"steering":0,"extclk":0,"smoothing":1,"interval":7,"MaskSat":0,"MaskSig":1090519040,"MaskCell":0,"NSat":0,"NSig":2,"NCell":0}
{"class":"RTCM3","type":1097,"length":220,"station_id":0,"gnssid":2,"subtype":"MSM7","tow":375235001,"sync":"1","IODS":0,"steering":0,"extclk":0,"smoothing":1,"interval":7,"MaskSat":0,"MaskSig":1073872896,"MaskCell":0,"NSat":0,"NSig":2,"NCell":0}
{"class":"RTCM3","type":1127,"length":65,"station_id":0,"gnssid":3,"subtype":"MSM7","tow":375221001,"sync":"0","IODS":0,"steering":0,"extclk":0,"smoothing":1,"interval":7,"MaskSat":0,"MaskSig":1073741824,"MaskCell":0,"NSat":0,"NSig":1,"NCell":0}
{"class":"RTCM3","type":1230,"length":8,"station_id":0,"ind":"1","l1_ca":16384}
{"class":"SKY","time":"2019-04-11T08:13:29.000Z","tdop":0.18,"gdop":0.18}
$GPZDA,081337.00,17,10,2019,00,00*65
$GPGGA,081337.00,4404.1286,N,12118.8588,W,7,31,,1135.74,M,-22.155,M,,*7C
$GPRMC,081337.00,A,4404.1286,N,12118.8588,W,0.0000,0.000,171019,14.4,E*45
$GPGSA,A,3,1,7,11,13,15,17,19,28,30,301,,,,,*29
{"class":"TPV","status":7,"mode":3,"time":"2019-10-17T08:13:37.000Z","leapseconds":18,"ept":0.005,"lat":44.068810800,"lon":-121.314314000,"altHAE":1114.3900,"altMSL":1135.7400,"alt":1135.7400,"epv":0.359,"track":0.0000,"magtrack":14.4185,"magvar":14.4,"speed":0.000,"climb":0.000,"eps":0.01,"epc":0.72,"ecefx":-2386072.73,"ecefy":-3922192.50,"ecefz":4414363.41,"ecefvx":0.00,"ecefvy":0.00,"ecefvz":0.00,"ecefpAcc":0.62,"ecefvAcc":0.01,"geoidSep":-22.155,"eph":0.508}
{"class":"RTCM3","type":1005,"length":19,"station_id":0,"system":["GPS","GLONASS","GALILEO"],"refstation":false,"sro":true,"x":-2386072.7310,"y":-3922192.5049,"z":4414363.4131}
{"class":"RTCM3","type":4072,"length":134,"data":["0xfe","0x80","0x01","0x00","0x00","0x00","0x15","0x97","0x69","0x68","0x40","0x00","0x00","0x14","0x00","0x00","0x00","0x00","0x00","0x00","0x00","0x01","0x00","0x00","0x00","0x00","0x00","0x02","0x00","0x00","0x00","0x00","0x00","0x03","0x00","0x00","0x00","0x00","0x02","0x00","0x00","0x54","0x00","0x04","0x02","0x01","0x00","0x54","0x00","0x04","0x02","0x02","0x00","0x54","0x00","0x04","0x02","0x03","0x00","0x54","0x00","0x04","0x03","0x00","0x00","0x53","0x00","0x0a","0x03","0x01","0x00","0x53","0x00","0x0a","0x03","0x02","0x00","0x53","0x00","0x0a","0x03","0x03","0x00","0x53","0x00","0x0a","0x05","0x00","0x00","0x00","0x00","0x00","0x05","0x01","0x00","0x00","0x00","0x00","0x05","0x02","0x00","0x00","0x00","0x00","0x05","0x03","0x00","0x00","0x00","0x00","0x06","0x00","0x05","0x99","0x00","0x05","0x06","0x01","0x05","0x99","0x00","0x05","0x06","0x02","0x05","0x99","0x00","0x05","0x06","0x03","0x05","0x99","0x00","0x05"]}
{"class":"RTCM3","type":1077,"length":244,"station_id":0,"gnssid":0,"subtype":"MSM7","tow":375236001,"sync":"1","IODS":0,"steering":0,"extclk":0,"smoothing":1,"interval":7,"MaskSat":0,"MaskSig":1073807360,"MaskCell":0,"NSat":0,"NSig":2,"NCell":0}
{"class":"RTCM3","type":1087,"length":220,"station_id":0,"gnssid":6,"subtype":"MSM7","tow":577288913,"sync":"1","IODS":0,"steering":0,"extclk":0,"smoothing":1,"interval":7,"MaskSat":0,"MaskSig":1090519040,"MaskCell":0,"NSat":0,"NSig":2,"NCell":0}
{"class":"RTCM3","type":1097,"length":220,"station_id":0,"gnssid":2,"subtype":"MSM7","tow":375236001,"sync":"1","IODS":0,"steering":0,"extclk":0,"smoothing":1,"interval":7,"MaskSat":0,"MaskSig":1073872896,"MaskCell":0,"NSat":0,"NSig":2,"NCell":0}
{"class":"RTCM3","type":1127,"length":65,"station_id":0,"gnssid":3,"subtype":"MSM7","tow":375222001,"sync":"0","IODS":0,"steering":0,"extclk":0,"smoothing":1,"interval":7,"MaskSat":0,"MaskSig":1073741824,"MaskCell":0,"NSat":0,"NSig":1,"NCell":0}
{"class":"RTCM3","type":1230,"length":8,"station_id":0,"ind":"1","l1_ca":16384}
{"class":"SKY","time":"2019-04-11T08:13:29.000Z","tdop":0.18,"gdop":0.18}
$GPZDA,081338.00,17,10,2019,00,00*6A
$GPGGA,081338.00,4404.1286,N,12118.8588,W,7,31,,1135.74,M,-22.155,M,,*73
$GPRMC,081338.00,A,4404.1286,N,12118.8588,W,0.0000,0.000,171019,14.4,E*4A
$GPGSA,A,3,1,7,11,13,15,17,19,28,30,301,,,,,*29
{"class":"TPV","status":7,"mode":3,"time":"2019-10-17T08:13:38.000Z","leapseconds":18,"ept":0.005,"lat":44.068810800,"lon":-121.314314000,"altHAE":1114.3900,"altMSL":1135.7400,"alt":1135.7400,"epv":0.359,"track":0.0000,"magtrack":14.4185,"magvar":14.4,"speed":0.000,"climb":0.000,"eps":0.01,"epc":0.72,"ecefx":-2386072.73,"ecefy":-3922192.50,"ecefz":4414363.41,"ecefvx":0.00,"ecefvy":0.00,"ecefvz":0.00,"ecefpAcc":0.62,"ecefvAcc":0.01,"geoidSep":-22.155,"eph":0.508}
{"class":"RTCM3","type":1005,"length":19,"station_id":0,"system":["GPS","GLONASS","GALILEO"],"refstation":false,"sro":true,"x":-2386072.7310,"y":-3922192.5049,"z":4414363.4131}
{"class":"RTCM3","type":4072,"length":134,"data":["0xfe","0x80","0x01","0x00","0x00","0x00","0x15","0x97","0x6a","0x62","0x40","0x00","0x00","0x14","0x00","0x00","0x00","0x00","0x00","0x00","0x00","0x01","0x00","0x00","0x00","0x00","0x00","0x02","0x00","0x00","0x00","0x00","0x00","0x03","0x00","0x00","0x00","0x00","0x02","0x00","0x00","0x54","0x00","0x04","0x02","0x01","0x00","0x54","0x00","0x04","0x02","0x02","0x00","0x54","0x00","0x04","0x02","0x03","0x00","0x54","0x00","0x04","0x03","0x00","0x00","0x53","0x00","0x0a","0x03","0x01","0x00","0x53","0x00","0x0a","0x03","0x02","0x00","0x53","0x00","0x0a","0x03","0x03","0x00","0x53","0x00","0x0a","0x05","0x00","0x00","0x00","0x00","0x00","0x05","0x01","0x00","0x00","0x00","0x00","0x05","0x02","0x00","0x00","0x00","0x00","0x05","0x03","0x00","0x00","0x00","0x00","0x06","0x00","0x05","0x99","0x00","0x05","0x06","0x01","0x05","0x99","0x00","0x05","0x06","0x02","0x05","0x99","0x00","0x05","0x06","0x03","0x05","0x99","0x00","0x05"]}
{"class":"RTCM3","type":1077,"length":244,"station_id":0,"gnssid":0,"subtype":"MSM7","tow":375237001,"sync":"1","IODS":0,"steering":0,"extclk":0,"smoothing":1,"interval":7,"MaskSat":0,"MaskSig":1073807360,"MaskCell":0,"NSat":0,"NSig":2,"NCell":0}
{"class":"RTCM3","type":1087,"length":220,"station_id":0,"gnssid":6,"subtype":"MSM7","tow":577289913,"sync":"1","IODS":0,"steering":0,"extclk":0,"smoothing":1,"interval":7,"MaskSat":0,"MaskSig":1090519040,"MaskCell":0,"NSat":0,"NSig":2,"NCell":0}
{"class":"RTCM3","type":1097,"length":220,"station_id":0,"gnssid":2,"subtype":"MSM7","tow":375237001,"sync":"1","IODS":0,"steering":0,"extclk":0,"smoothing":1,"interval":7,"MaskSat":0,"MaskSig":1073872896,"MaskCell":0,"NSat":0,"NSig":2,"NCell":0}
{"class":"RTCM3","type":1127,"length":65,"station_id":0,"gnssid":3,"subtype":"MSM7","tow":375223001,"sync":"0","IODS":0,"steering":0,"extclk":0,"smoothing":1,"interval":7,"MaskSat":0,"MaskSig":1073741824,"MaskCell":0,"NSat":0,"NSig":1,"NCell":0}
{"class":"RTCM3","type":1230,"length":8,"station_id":0,"ind":"1","l1_ca":16384}
$GPGSV,11,1,41,01,25,069,40,07,12,130,42,11,28,057,44,13,48,245,49*48
$GPGSV,11,2,41,15,31,287,36,17,65,180,50,18,16,046,36,19,43,196,47*42
$GPGSV,11,3,41,24,07,309,00,28,68,039,49,30,44,130,48,301,74,028,49*7C
$GPGSV,11,4,41,304,24,234,42,305,03,335,00,309,25,291,26,313,28,051,41*43
$GPGSV,11,5,41,318,23,053,43,321,29,088,45,326,44,115,47,331,38,291,30*4B
$GPGSV,11,6,41,333,18,169,41,406,09,330,00,416,05,335,00,419,03,240,25*4D
$GPGSV,11,7,41,421,02,334,00,422,10,287,24,427,61,112,53,428,28,047,43*46
$GPGSV,11,8,41,430,31,188,46,437,30,111,47,193,06,296,18,69,08,234,39*72
$GPGSV,11,9,41,70,22,289,22,71,11,338,27,74,28,315,00,78,24,096,48*4E
$GPGSV,11,10,41,79,65,039,51,80,35,311,32,81,60,103,51,82,30,171,45*74
$GPGSV,11,11,41,88,33,037,42*4E
{"class":"SKY","time":"2019-10-17T08:13:39.000Z","xdop":0.29,"ydop":0.37,"vdop":0.78,"tdop":0.45,"hdop":0.47,"gdop":1.01,"pdop":0.91,"nSat":41,"uSat":31,"satellites":[{"PRN":1,"el":25.0,"az":69.0,"ss":40.0,"used":true,"gnssid":0,"svid":1,"health":1},{"PRN":7,"el":12.0,"az":130.0,"ss":42.0,"used":true,"gnssid":0,"svid":7,"health":1},{"PRN":11,"el":28.0,"az":57.0,"ss":44.0,"used":true,"gnssid":0,"svid":11,"health":1},{"PRN":13,"el":48.0,"az":245.0,"ss":49.0,"used":true,"gnssid":0,"svid":13,"health":1},{"PRN":15,"el":31.0,"az":287.0,"ss":36.0,"used":true,"gnssid":0,"svid":15,"health":1},{"PRN":17,"el":65.0,"az":180.0,"ss":50.0,"used":true,"gnssid":0,"svid":17,"health":1},{"PRN":18,"el":16.0,"az":46.0,"ss":36.0,"used":false,"gnssid":0,"svid":18,"health":2},{"PRN":19,"el":43.0,"az":196.0,"ss":47.0,"used":true,"gnssid":0,"svid":19,"health":1},{"PRN":24,"el":7.0,"az":309.0,"ss":0.0,"used":false,"gnssid":0,"svid":24,"health":1},{"PRN":28,"el":68.0,"az":39.0,"ss":49.0,"used":true,"gnssid":0,"svid":28,"health":1},{"PRN":30,"el":44.0,"az":130.0,"ss":48.0,"used":true,"gnssid":0,"svid":30,"health":1},{"PRN":301,"el":74.0,"az":28.0,"ss":49.0,"used":true,"gnssid":2,"svid":1,"health":1},{"PRN":304,"el":24.0,"az":234.0,"ss":42.0,"used":true,"gnssid":2,"svid":4,"health":1},{"PRN":305,"el":3.0,"az":335.0,"ss":0.0,"used":false,"gnssid":2,"svid":5,"health":1},{"PRN":309,"el":25.0,"az":291.0,"ss":26.0,"used":true,"gnssid":2,"svid":9,"health":1},{"PRN":313,"el":28.0,"az":51.0,"ss":41.0,"used":true,"gnssid":2,"svid":13,"health":1},{"PRN":318,"el":23.0,"az":53.0,"ss":43.0,"used":false,"gnssid":2,"svid":18,"health":2},{"PRN":321,"el":29.0,"az":88.0,"ss":45.0,"used":true,"gnssid":2,"svid":21,"health":1},{"PRN":326,"el":44.0,"az":115.0,"ss":47.0,"used":true,"gnssid":2,"svid":26,"health":1},{"PRN":331,"el":38.0,"az":291.0,"ss":30.0,"used":true,"gnssid":2,"svid":31,"health":1},{"PRN":333,"el":18.0,"az":169.0,"ss":41.0,"used":true,"gnssid":2,"svid":33,"health":1},{"PRN":406,"el":9.0,"az":330.0,"ss":0.0,"used":false,"gnssid":3,"svid":6,"health":1},{"PRN":416,"el":5.0,"az":335.0,"ss":0.0,"used":false,"gnssid":3,"svid":16,"health":1},{"PRN":419,"el":3.0,"az":240.0,"ss":25.0,"used":false,"gnssid":3,"svid":19,"health":1},{"PRN":421,"el":2.0,"az":334.0,"ss":0.0,"used":false,"gnssid":3,"svid":21,"health":1},{"PRN":422,"el":10.0,"az":287.0,"ss":24.0,"used":true,"gnssid":3,"svid":22,"health":1},{"PRN":427,"el":61.0,"az":112.0,"ss":53.0,"used":true,"gnssid":3,"svid":27,"health":1},{"PRN":428,"el":28.0,"az":47.0,"ss":43.0,"used":false,"gnssid":3,"svid":28,"health":2},{"PRN":430,"el":31.0,"az":188.0,"ss":46.0,"used":true,"gnssid":3,"svid":30,"health":1},{"PRN":437,"el":30.0,"az":111.0,"ss":47.0,"used":true,"gnssid":3,"svid":37,"health":1},{"PRN":193,"el":6.0,"az":296.0,"ss":18.0,"used":true,"gnssid":5,"svid":1,"health":1},{"PRN":69,"el":8.0,"az":234.0,"ss":39.0,"used":true,"gnssid":6,"svid":5,"health":1},{"PRN":70,"el":22.0,"az":289.0,"ss":22.0,"used":true,"gnssid":6,"svid":6,"health":1},{"PRN":71,"el":11.0,"az":338.0,"ss":27.0,"used":true,"gnssid":6,"svid":7,"health":1},{"PRN":74,"el":28.0,"az":315.0,"ss":0.0,"used":false,"gnssid":6,"svid":10,"health":2},{"PRN":78,"el":24.0,"az":96.0,"ss":48.0,"used":true,"gnssid":6,"svid":14,"health":1},{"PRN":79,"el":65.0,"az":39.0,"ss":51.0,"used":true,"gnssid":6,"svid":15,"health":1},{"PRN":80,"el":35.0,"az":311.0,"ss":32.0,"used":true,"gnssid":6,"svid":16,"health":1},{"PRN":81,"el":60.0,"az":103.0,"ss":51.0,"used":true,"gnssid":6,"svid":17,"health":1},{"PRN":82,"el":30.0,"az":171.0,"ss":45.0,"used":true,"gnssid":6,"svid":18,"health":1},{"PRN":88,"el":33.0,"az":37.0,"ss":42.0,"used":true,"gnssid":6,"svid":24,"health":1}]}
{"class":"SKY","time":"2019-10-17T08:13:39.000Z","xdop":0.29,"ydop":0.37,"vdop":0.78,"tdop":0.18,"hdop":0.47,"gdop":0.18,"pdop":0.91}
$GPZDA,081339.00,17,10,2019,00,00*6B
$GPGGA,081339.00,4404.1286,N,12118.8588,W,7,31,0.47,1135.74,M,-22.155,M,,*6F
$GPRMC,081339.00,A,4404.1286,N,12118.8588,W,0.0000,0.000,171019,14.4,E*4B
$GPGSA,A,3,1,7,11,13,15,17,19,28,30,301,,,0.9,0.5,0.8*03
$GPGBS,081339.00,4.424,5.476,0.359,,,,*48
{"class":"TPV","status":7,"mode":3,"time":"2019-10-17T08:13:39.000Z","leapseconds":18,"ept":0.005,"lat":44.068810800,"lon":-121.314314000,"altHAE":1114.3900,"altMSL":1135.7400,"alt":1135.7400,"epx":4.424,"epy":5.476,"epv":0.359,"track":0.0000,"magtrack":14.4185,"magvar":14.4,"speed":0.000,"climb":0.000,"eps":0.01,"epc":0.72,"ecefx":-2386072.73,"ecefy":-3922192.50,"ecefz":4414363.41,"ecefvx":0.00,"ecefvy":0.00,"ecefvz":0.00,"ecefpAcc":0.62,"ecefvAcc":0.01,"geoidSep":-22.155,"eph":0.508,"sep":17.236}
{"class":"RTCM3","type":1005,"length":19,"station_id":0,"system":["GPS","GLONASS","GALILEO"],"refstation":false,"sro":true,"x":-2386072.7310,"y":-3922192.5049,"z":4414363.4131}
{"class":"RTCM3","type":4072,"length":134,"data":["0xfe","0x80","0x01","0x00","0x00","0x00","0x15","0x97","0x6b","0x5c","0x40","0x00","0x00","0x14","0x00","0x00","0x00","0x00","0x00","0x00","0x00","0x01","0x00","0x00","0x00","0x00","0x00","0x02","0x00","0x00","0x00","0x00","0x00","0x03","0x00","0x00","0x00","0x00","0x02","0x00","0x00","0x54","0x00","0x04","0x02","0x01","0x00","0x54","0x00","0x04","0x02","0x02","0x00","0x54","0x00","0x04","0x02","0x03","0x00","0x54","0x00","0x04","0x03","0x00","0x00","0x53","0x00","0x0a","0x03","0x01","0x00","0x53","0x00","0x0a","0x03","0x02","0x00","0x53","0x00","0x0a","0x03","0x03","0x00","0x53","0x00","0x0a","0x05","0x00","0x00","0x00","0x00","0x00","0x05","0x01","0x00","0x00","0x00","0x00","0x05","0x02","0x00","0x00","0x00","0x00","0x05","0x03","0x00","0x00","0x00","0x00","0x06","0x00","0x05","0x99","0x00","0x05","0x06","0x01","0x05","0x99","0x00","0x05","0x06","0x02","0x05","0x99","0x00","0x05","0x06","0x03","0x05","0x99","0x00","0x05"]}
{"class":"RTCM3","type":1077,"length":244,"station_id":0,"gnssid":0,"subtype":"MSM7","tow":375238001,"sync":"1","IODS":0,"steering":0,"extclk":0,"smoothing":1,"interval":7,"MaskSat":0,"MaskSig":1073807360,"MaskCell":0,"NSat":0,"NSig":2,"NCell":0}
{"class":"RTCM3","type":1087,"length":220,"station_id":0,"gnssid":6,"subtype":"MSM7","tow":577290913,"sync":"1","IODS":0,"steering":0,"extclk":0,"smoothing":1,"interval":7,"MaskSat":0,"MaskSig":1090519040,"MaskCell":0,"NSat":0,"NSig":2,"NCell":0}
{"class":"RTCM3","type":1097,"length":220,"station_id":0,"gnssid":2,"subtype":"MSM7","tow":375238001,"sync":"1","IODS":0,"steering":0,"extclk":0,"smoothing":1,"interval":7,"MaskSat":0,"MaskSig":1073872896,"MaskCell":0,"NSat":0,"NSig":2,"NCell":0}
{"class":"RTCM3","type":1127,"length":65,"station_id":0,"gnssid":3,"subtype":"MSM7","tow":375224001,"sync":"0","IODS":0,"steering":0,"extclk":0,"smoothing":1,"interval":7,"MaskSat":0,"MaskSig":1073741824,"MaskCell":0,"NSat":0,"NSig":1,"NCell":0}
{"class":"RTCM3","type":1230,"length":8,"station_id":0,"ind":"1","l1_ca":16384}
{"class":"SKY","time":"2019-10-17T08:13:39.000Z","tdop":0.18,"gdop":0.18}
{"class":"RTCM3","type":1005,"length":19,"station_id":0,"system":["GPS","GLONASS","GALILEO"],"refstation":false,"sro":true,"x":-2386072.7310,"y":-3922192.5049,"z":4414363.4131}
{"class":"RTCM3","type":4072,"length":134,"data":["0xfe","0x80","0x01","0x00","0x00","0x00","0x15","0x97","0x6c","0x56","0x40","0x00","0x00","0x14","0x00","0x00","0x00","0x00","0x00","0x00","0x00","0x01","0x00","0x00","0x00","0x00","0x00","0x02","0x00","0x00","0x00","0x00","0x00","0x03","0x00","0x00","0x00","0x00","0x02","0x00","0x00","0x54","0x00","0x04","0x02","0x01","0x00","0x54","0x00","0x04","0x02","0x02","0x00","0x54","0x00","0x04","0x02","0x03","0x00","0x54","0x00","0x04","0x03","0x00","0x00","0x53","0x00","0x0a","0x03","0x01","0x00","0x53","0x00","0x0a","0x03","0x02","0x00","0x53","0x00","0x0a","0x03","0x03","0x00","0x53","0x00","0x0a","0x05","0x00","0x00","0x00","0x00","0x00","0x05","0x01","0x00","0x00","0x00","0x00","0x05","0x02","0x00","0x00","0x00","0x00","0x05","0x03","0x00","0x00","0x00","0x00","0x06","0x00","0x05","0x99","0x00","0x05","0x06","0x01","0x05","0x99","0x00","0x05","0x06","0x02","0x05","0x99","0x00","0x05","0x06","0x03","0x05","0x99","0x00","0x05"]}
{"class":"RTCM3","type":1077,"length":244,"station_id":0,"gnssid":0,"subtype":"MSM7","tow":375239001,"sync":"1","IODS":0,"steering":0,"extclk":0,"smoothing":1,"interval":7,"MaskSat":0,"MaskSig":1073807360,"MaskCell":0,"NSat":0,"NSig":2,"NCell":0}
{"class":"RTCM3","type":1087,"length":220,"station_id":0,"gnssid":6,"subtype":"MSM7","tow":577291913,"sync":"1","IODS":0,"steering":0,"extclk":0,"smoothing":1,"interval":7,"MaskSat":0,"MaskSig":1090519040,"MaskCell":0,"NSat":0,"NSig":2,"NCell":0}
{"class":"RTCM3","type":1097,"length":220,"station_id":0,"gnssid":2,"subtype":"MSM7","tow":375239001,"sync":"1","IODS":0,"steering":0,"extclk":0,"smoothing":1,"interval":7,"MaskSat":0,"MaskSig":1073872896,"MaskCell":0,"NSat":0,"NSig":2,"NCell":0}
{"class":"RTCM3","type":1127,"length":65,"station_id":0,"gnssid":3,"subtype":"MSM7","tow":375225001,"sync":"0","IODS":0,"steering":0,"extclk":0,"smoothing":1,"interval":7,"MaskSat":0,"MaskSig":1073741824,"MaskCell":0,"NSat":0,"NSig":1,"NCell":0}
{"class":"RTCM3","type":1230,"length":8,"station_id":0,"ind":"1","l1_ca":16384}
{"class":"SKY","time":"2019-10-17T08:13:39.000Z","tdop":0.18,"gdop":0.18}
$GPZDA,081341.00,17,10,2019,00,00*64
$GPGGA,081341.00,4404.1286,N,12118.8588,W,7,31,,1135.74,M,-22.155,M,,*7D
$GPRMC,081341.00,A,4404.1286,N,12118.8588,W,0.0000,0.000,171019,14.4,E*44
$GPGSA,A,3,1,7,11,13,15,17,19,28,30,301,,,,,*29
{"class":"TPV","status":7,"mode":3,"time":"2019-10-17T08:13:41.000Z","leapseconds":18,"ept":0.005,"lat":44.068810800,"lon":-121.314314000,"altHAE":1114.3900,"altMSL":1135.7400,"alt":1135.7400,"epv":0.359,"track":0.0000,"magtrack":14.4185,"magvar":14.4,"speed":0.000,"climb":0.000,"eps":0.01,"epc":0.72,"ecefx":-2386072.73,"ecefy":-3922192.50,"ecefz":4414363.41,"ecefvx":0.00,"ecefvy":0.00,"ecefvz":0.00,"ecefpAcc":0.62,"ecefvAcc":0.01,"geoidSep":-22.155,"eph":0.508}
{"class":"RTCM3","type":1005,"length":19,"station_id":0,"system":["GPS","GLONASS","GALILEO"],"refstation":false,"sro":true,"x":-2386072.7310,"y":-3922192.5049,"z":4414363.4131}
{"class":"RTCM3","type":4072,"length":134,"data":["0xfe","0x80","0x01","0x00","0x00","0x00","0x15","0x97","0x6d","0x50","0x40","0x00","0x00","0x14","0x00","0x00","0x00","0x00","0x00","0x00","0x00","0x01","0x00","0x00","0x00","0x00","0x00","0x02","0x00","0x00","0x00","0x00","0x00","0x03","0x00","0x00","0x00","0x00","0x02","0x00","0x00","0x54","0x00","0x04","0x02","0x01","0x00","0x54","0x00","0x04","0x02","0x02","0x00","0x54","0x00","0x04","0x02","0x03","0x00","0x54","0x00","0x04","0x03","0x00","0x00","0x53","0x00","0x0a","0x03","0x01","0x00","0x53","0x00","0x0a","0x03","0x02","0x00","0x53","0x00","0x0a","0x03","0x03","0x00","0x53","0x00","0x0a","0x05","0x00","0x00","0x00","0x00","0x00","0x05","0x01","0x00","0x00","0x00","0x00","0x05","0x02","0x00","0x00","0x00","0x00","0x05","0x03","0x00","0x00","0x00","0x00","0x06","0x00","0x05","0x99","0x00","0x05","0x06","0x01","0x05","0x99","0x00","0x05","0x06","0x02","0x05","0x99","0x00","0x05","0x06","0x03","0x05","0x99","0x00","0x05"]}
{"class":"RTCM3","type":1077,"length":244,"station_id":0,"gnssid":0,"subtype":"MSM7","tow":375240001,"sync":"1","IODS":0,"steering":0,"extclk":0,"smoothing":1,"interval":7,"MaskSat":0,"MaskSig":1073807360,"MaskCell":0,"NSat":0,"NSig":2,"NCell":0}
{"class":"RTCM3","type":1087,"length":220,"station_id":0,"gnssid":6,"subtype":"MSM7","tow":577292913,"sync":"1","IODS":0,"steering":0,"extclk":0,"smoothing":1,"interval":7,"MaskSat":0,"MaskSig":1090519040,"MaskCell":0,"NSat":0,"NSig":2,"NCell":0}
{"class":"RTCM3","type":1097,"length":220,"station_id":0,"gnssid":2,"subtype":"MSM7","tow":375240001,"sync":"1","IODS":0,"steering":0,"extclk":0,"smoothing":1,"interval":7,"MaskSat":0,"MaskSig":1073872896,"MaskCell":0,"NSat":0,"NSig":2,"NCell":0}
{"class":"RTCM3","type":1127,"length":65,"station_id":0,"gnssid":3,"subtype":"MSM7","tow":375226001,"sync":"0","IODS":0,"steering":0,"extclk":0,"smoothing":1,"interval":7,"MaskSat":0,"MaskSig":1073741824,"MaskCell":0,"NSat":0,"NSig":1,"NCell":0}
{"class":"RTCM3","type":1230,"length":8,"station_id":0,"ind":"1","l1_ca":16384}
{"class":"SKY","time":"2019-10-17T08:13:39.000Z","tdop":0.18,"gdop":0.18}
$GPZDA,081342.00,17,10,2019,00,00*67
$GPGGA,081342.00,4404.1286,N,12118.8588,W,7,31,,1135.74,M,-22.155,M,,*7E
$GPRMC,081342.00,A,4404.1286,N,12118.8588,W,0.0000,0.000,171019,14.4,E*47
$GPGSA,A,3,1,7,11,13,15,17,19,28,30,301,,,,,*29
{"class":"TPV","status":7,"mode":3,"time":"2019-10-17T08:13:42.000Z","leapseconds":18,"ept":0.005,"lat":44.068810800,"lon":-121.314314000,"altHAE":1114.3900,"altMSL":1135.7400,"alt":1135.7400,"epv":0.359,"track":0.0000,"magtrack":14.4185,"magvar":14.4,"speed":0.000,"climb":0.000,"eps":0.01,"epc":0.72,"ecefx":-2386072.73,"ecefy":-3922192.50,"ecefz":4414363.41,"ecefvx":0.00,"ecefvy":0.00,"ecefvz":0.00,"ecefpAcc":0.62,"ecefvAcc":0.01,"geoidSep":-22.155,"eph":0.508}
{"class":"RTCM3","type":1005,"length":19,"station_id":0,"system":["GPS","GLONASS","GALILEO"],"refstation":false,"sro":true,"x":-2386072.7310,"y":-3922192.5049,"z":4414363.4131}
{"class":"RTCM3","type":4072,"length":134,"data":["0xfe","0x80","0x01","0x00","0x00","0x00","0x15","0x97","0x6e","0x4a","0x40","0x00","0x00","0x14","0x00","0x00","0x00","0x00","0x00","0x00","0x00","0x01","0x00","0x00","0x00","0x00","0x00","0x02","0x00","0x00","0x00","0x00","0x00","0x03","0x00","0x00","0x00","0x00","0x02","0x00","0x00","0x54","0x00","0x04","0x02","0x01","0x00","0x54","0x00","0x04","0x02","0x02","0x00","0x54","0x00","0x04","0x02","0x03","0x00","0x54","0x00","0x04","0x03","0x00","0x00","0x53","0x00","0x0a","0x03","0x01","0x00","0x53","0x00","0x0a","0x03","0x02","0x00","0x53","0x00","0x0a","0x03","0x03","0x00","0x53","0x00","0x0a","0x05","0x00","0x00","0x00","0x00","0x00","0x05","0x01","0x00","0x00","0x00","0x00","0x05","0x02","0x00","0x00","0x00","0x00","0x05","0x03","0x00","0x00","0x00","0x00","0x06","0x00","0x05","0x99","0x00","0x05","0x06","0x01","0x05","0x99","0x00","0x05","0x06","0x02","0x05","0x99","0x00","0x05","0x06","0x03","0x05","0x99","0x00","0x05"]}
{"class":"RTCM3","type":1077,"length":244,"station_id":0,"gnssid":0,"subtype":"MSM7","tow":375241001,"sync":"1","IODS":0,"steering":0,"extclk":0,"smoothing":1,"interval":7,"MaskSat":0,"MaskSig":1073807360,"MaskCell":0,"NSat":0,"NSig":2,"NCell":0}
{"class":"RTCM3","type":1087,"length":195,"station_id":0,"gnssid":6,"subtype":"MSM7","tow":577293913,"sync":"1","IODS":0,"steering":0,"extclk":0,"smoothing":1,"interval":7,"MaskSat":0,"MaskSig":1090519040,"MaskCell":0,"NSat":0,"NSig":2,"NCell":0}
{"class":"RTCM3","type":1097,"length":220,"station_id":0,"gnssid":2,"subtype":"MSM7","tow":375241001,"sync":"1","IODS":0,"steering":0,"extclk":0,"smoothing":1,"interval":7,"MaskSat":0,"MaskSig":1073872896,"MaskCell":0,"NSat":0,"NSig":2,"NCell":0}
{"class":"RTCM3","type":1127,"length":65,"station_id":0,"gnssid":3,"subtype":"MSM7","tow":375227001,"sync":"0","IODS":0,"steering":0,"extclk":0,"smoothing":1,"interval":7,"MaskSat":0,"MaskSig":1073741824,"MaskCell":0,"NSat":0,"NSig":1,"NCell":0}
{"class":"RTCM3","type":1230,"length":8,"station_id":0,"ind":"1","l1_ca":16384}
{"class":"SKY","time":"2019-10-17T08:13:39.000Z","tdop":0.18,"gdop":0.18}
$GPZDA,081343.00,17,10,2019,00,00*66
$GPGGA,081343.00,4404.1286,N,12118.8588,W,7,31,,1135.74,M,-22.155,M,,*7F
$GPRMC,081343.00,A,4404.1286,N,12118.8588,W,0.0000,0.000,171019,14.4,E*46
$GPGSA,A,3,1,7,11,13,15,17,19,28,30,301,,,,,*29
{"class":"TPV","status":7,"mode":3,"time":"2019-10-17T08:13:43.000Z","leapseconds":18,"ept":0.005,"lat":44.068810800,"lon":-121.314314000,"altHAE":1114.3900,"altMSL":1135.7400,"alt":1135.7400,"epv":0.359,"track":0.0000,"magtrack":14.4185,"magvar":14.4,"speed":0.000,"climb":0.000,"eps":0.01,"epc":0.72,"ecefx":-2386072.73,"ecefy":-3922192.50,"ecefz":4414363.41,"ecefvx":0.00,"ecefvy":0.00,"ecefvz":0.00,"ecefpAcc":0.62,"ecefvAcc":0.01,"geoidSep":-22.155,"eph":0.508}
{"class":"RTCM3","type":1005,"length":19,"station_id":0,"system":["GPS","GLONASS","GALILEO"],"refstation":false,"sro":true,"x":-2386072.7310,"y":-3922192.5049,"z":4414363.4131}
{"class":"RTCM3","type":4072,"length":134,"data":["0xfe","0x80","0x01","0x00","0x00","0x00","0x15","0x97","0x6f","0x44","0x40","0x00","0x00","0x14","0x00","0x00","0x00","0x00","0x00","0x00","0x00","0x01","0x00","0x00","0x00","0x00","0x00","0x02","0x00","0x00","0x00","0x00","0x00","0x03","0x00","0x00","0x00","0x00","0x02","0x00","0x00","0x54","0x00","0x04","0x02","0x01","0x00","0x54","0x00","0x04","0x02","0x02","0x00","0x54","0x00","0x04","0x02","0x03","0x00","0x54","0x00","0x04","0x03","0x00","0x00","0x53","0x00","0x0a","0x03","0x01","0x00","0x53","0x00","0x0a","0x03","0x02","0x00","0x53","0x00","0x0a","0x03","0x03","0x00","0x53","0x00","0x0a","0x05","0x00","0x00","0x00","0x00","0x00","0x05","0x01","0x00","0x00","0x00","0x00","0x05","0x02","0x00","0x00","0x00","0x00","0x05","0x03","0x00","0x00","0x00","0x00","0x06","0x00","0x05","0x99","0x00","0x05","0x06","0x01","0x05","0x99","0x00","0x05","0x06","0x02","0x05","0x99","0x00","0x05","0x06","0x03","0x05","0x99","0x00","0x05"]}
{"class":"RTCM3","type":1077,"length":244,"station_id":0,"gnssid":0,"subtype":"MSM7","tow":375242001,"sync":"1","IODS":0,"steering":0,"extclk":0,"smoothing":1,"interval":7,"MaskSat":0,"MaskSig":1073807360,"MaskCell":0,"NSat":0,"NSig":2,"NCell":0}
{"class":"RTCM3","type":1087,"length":195,"station_id":0,"gnssid":6,"subtype":"MSM7","tow":577294913,"sync":"1","IODS":0,"steering":0,"extclk":0,"smoothing":1,"interval":7,"MaskSat":0,"MaskSig":1090519040,"MaskCell":0,"NSat":0,"NSig":2,"NCell":0}
{"class":"RTCM3","type":1097,"length":220,"station_id":0,"gnssid":2,"subtype":"MSM7","tow":375242001,"sync":"1","IODS":0,"steering":0,"extclk":0,"smoothing":1,"interval":7,"MaskSat":0,"MaskSig":1073872896,"MaskCell":0,"NSat":0,"NSig":2,"NCell":0}
{"class":"RTCM3","type":1127,"length":65,"station_id":0,"gnssid":3,"subtype":"MSM7","tow":375228001,"sync":"0","IODS":0,"steering":0,"extclk":0,"smoothing":1,"interval":7,"MaskSat":0,"MaskSig":1073741824,"MaskCell":0,"NSat":0,"NSig":1,"NCell":0}
{"class":"RTCM3","type":1230,"length":8,"station_id":0,"ind":"1","l1_ca":16384}
{"class":"SKY","time":"2019-10-17T08:13:39.000Z","tdop":0.18,"gdop":0.18}
$GPZDA,081344.00,17,10,2019,00,00*61
$GPGGA,081344.00,4404.1286,N,12118.8588,W,7,31,,1135.74,M,-22.155,M,,*78
$GPRMC,081344.00,A,4404.1286,N,12118.8588,W,0.0000,0.000,171019,14.4,E*41
$GPGSA,A,3,1,7,11,13,15,17,19,28,30,301,,,,,*29
{"class":"TPV","status":7,"mode":3,"time":"2019-10-17T08:13:44.000Z","leapseconds":18,"ept":0.005,"lat":44.068810800,"lon":-121.314314000,"altHAE":1114.3900,"altMSL":1135.7400,"alt":1135.7400,"epv":0.359,"track":0.0000,"magtrack":14.4185,"magvar":14.4,"speed":0.000,"climb":0.000,"eps":0.01,"epc":0.72,"ecefx":-2386072.73,"ecefy":-3922192.50,"ecefz":4414363.41,"ecefvx":0.00,"ecefvy":0.00,"ecefvz":0.00,"ecefpAcc":0.62,"ecefvAcc":0.01,"geoidSep":-22.155,"eph":0.508}
{"class":"RTCM3","type":1005,"length":19,"station_id":0,"system":["GPS","GLONASS","GALILEO"],"refstation":false,"sro":true,"x":-2386072.7310,"y":-3922192.5049,"z":4414363.4131}
{"class":"RTCM3","type":4072,"length":134,"data":["0xfe","0x80","0x01","0x00","0x00","0x00","0x15","0x97","0x70","0x3e","0x40","0x00","0x00","0x14","0x00","0x00","0x00","0x00","0x00","0x00","0x00","0x01","0x00","0x00","0x00","0x00","0x00","0x02","0x00","0x00","0x00","0x00","0x00","0x03","0x00","0x00","0x00","0x00","0x02","0x00","0x00","0x54","0x00","0x04","0x02","0x01","0x00","0x54","0x00","0x04","0x02","0x02","0x00","0x54","0x00","0x04","0x02","0x03","0x00","0x54","0x00","0x04","0x03","0x00","0x00","0x53","0x00","0x0a","0x03","0x01","0x00","0x53","0x00","0x0a","0x03","0x02","0x00","0x53","0x00","0x0a","0x03","0x03","0x00","0x53","0x00","0x0a","0x05","0x00","0x00","0x00","0x00","0x00","0x05","0x01","0x00","0x00","0x00","0x00","0x05","0x02","0x00","0x00","0x00","0x00","0x05","0x03","0x00","0x00","0x00","0x00","0x06","0x00","0x05","0x99","0x00","0x05","0x06","0x01","0x05","0x99","0x00","0x05","0x06","0x02","0x05","0x99","0x00","0x05","0x06","0x03","0x05","0x99","0x00","0x05"]}
{"class":"RTCM3","type":1077,"length":244,"station_id":0,"gnssid":0,"subtype":"MSM7","tow":375243001,"sync":"1","IODS":0,"steering":0,"extclk":0,"smoothing":1,"interval":7,"MaskSat":0,"MaskSig":1073807360,"MaskCell":0,"NSat":0,"NSig":2,"NCell":0}
{"class":"RTCM3","type":1087,"length":195,"station_id":0,"gnssid":6,"subtype":"MSM7","tow":577295913,"sync":"1","IODS":0,"steering":0,"extclk":0,"smoothing":1,"interval":7,"MaskSat":0,"MaskSig":1090519040,"MaskCell":0,"NSat":0,"NSig":2,"NCell":0}
{"class":"RTCM3","type":1097,"length":220,"station_id":0,"gnssid":2,"subtype":"MSM7","tow":375243001,"sync":"1","IODS":0,"steering":0,"extclk":0,"smoothing":1,"interval":7,"MaskSat":0,"MaskSig":1073872896,"MaskCell":0,"NSat":0,"NSig":2,"NCell":0}
{"class":"RTCM3","type":1127,"length":65,"station_id":0,"gnssid":3,"subtype":"MSM7","tow":375229001,"sync":"0","IODS":0,"steering":0,"extclk":0,"smoothing":1,"interval":7,"MaskSat":0,"MaskSig":1073741824,"MaskCell":0,"NSat":0,"NSig":1,"NCell":0}
{"class":"RTCM3","type":1230,"length":8,"station_id":0,"ind":"1","l1_ca":16384}
{"class":"SKY","time":"2019-10-17T08:13:39.000Z","tdop":0.18,"gdop":0.18}
$GPZDA,081345.00,17,10,2019,00,00*60
$GPGGA,081345.00,4404.1286,N,12118.8588,W,7,31,,1135.74,M,-22.155,M,,*79
$GPRMC,081345.00,A,4404.1286,N,12118.8588,W,0.0000,0.000,171019,14.4,E*40
$GPGSA,A,3,1,7,11,13,15,17,19,28,30,301,,,,,*29
{"class":"TPV","status":7,"mode":3,"time":"2019-10-17T08:13:45.000Z","leapseconds":18,"ept":0.005,"lat":44.068810800,"lon":-121.314314000,"altHAE":1114.3900,"altMSL":1135.7400,"alt":1135.7400,"epv":0.359,"track":0.0000,"magtrack":14.4185,"magvar":14.4,"speed":0.000,"climb":0.000,"eps":0.01,"epc":0.72,"ecefx":-2386072.73,"ecefy":-3922192.50,"ecefz":4414363.41,"ecefvx":0.00,"ecefvy":0.00,"ecefvz":0.00,"ecefpAcc":0.62,"ecefvAcc":0.01,"geoidSep":-22.155,"eph":0.508}
{"class":"RTCM3","type":1005,"length":19,"station_id":0,"system":["GPS","GLONASS","GALILEO"],"refstation":false,"sro":true,"x":-2386072.7310,"y":-3922192.5049,"z":4414363.4131}
{"class":"RTCM3","type":4072,"length":134,"data":["0xfe","0x80","0x01","0x00","0x00","0x00","0x15","0x97","0x71","0x38","0x40","0x00","0x00","0x14","0x00","0x00","0x00","0x00","0x00","0x00","0x00","0x01","0x00","0x00","0x00","0x00","0x00","0x02","0x00","0x00","0x00","0x00","0x00","0x03","0x00","0x00","0x00","0x00","0x02","0x00","0x00","0x54","0x00","0x04","0x02","0x01","0x00","0x54","0x00","0x04","0x02","0x02","0x00","0x54","0x00","0x04","0x02","0x03","0x00","0x54","0x00","0x04","0x03","0x00","0x00","0x53","0x00","0x0a","0x03","0x01","0x00","0x53","0x00","0x0a","0x03","0x02","0x00","0x53","0x00","0x0a","0x03","0x03","0x00","0x53","0x00","0x0a","0x05","0x00","0x00","0x00","0x00","0x00","0x05","0x01","0x00","0x00","0x00","0x00","0x05","0x02","0x00","0x00","0x00","0x00","0x05","0x03","0x00","0x00","0x00","0x00","0x06","0x00","0x05","0x99","0x00","0x05","0x06","0x01","0x05","0x99","0x00","0x05","0x06","0x02","0x05","0x99","0x00","0x05","0x06","0x03","0x05","0x99","0x00","0x05"]}
{"class":"RTCM3","type":1077,"length":244,"station_id":0,"gnssid":0,"subtype":"MSM7","tow":375244001,"sync":"1","IODS":0,"steering":0,"extclk":0,"smoothing":1,"interval":7,"MaskSat":0,"MaskSig":1073807360,"MaskCell":0,"NSat":0,"NSig":2,"NCell":0}
{"class":"RTCM3","type":1087,"length":195,"station_id":0,"gnssid":6,"subtype":"MSM7","tow":577296913,"sync":"1","IODS":0,"steering":0,"extclk":0,"smoothing":1,"interval":7,"MaskSat":0,"MaskSig":1090519040,"MaskCell":0,"NSat":0,"NSig":2,"NCell":0}
