$GPZDA,172237.00,01,12,2017,00,00*62
$GPGGA,172237.00,4513.1124687,N,00548.4306494,E,2,06,,230.23,M,48.648,M,,*7E
$GPRMC,172237.00,A,4513.1124687,N,0548.4306494,E,0.0911,158.924,011217,1.9,E*51
$GPGSA,A,2,,,,,,,,,,,,,1.7,,*35
{"class":"TPV","status":2,"mode":2,"time":"2017-12-01T17:22:37.000Z","ept":0.005,"lat":45.218541146,"lon":5.807177490,"altHAE":278.8789,"altMSL":230.2311,"alt":230.2311,"track":158.9240,"magtrack":160.8293,"magvar":1.9,"speed":0.047,"eps":0.01,"sep":7.932}
{"class":"SKY","pdop":1.67}
{"class":"SKY","gdop":1.86,"hdop":1.36,"pdop":1.67,"tdop":0.83,"vdop":0.96}
$GPZDA,172238.00,01,12,2017,00,00*6D
$GPGGA,172238.00,4513.1125258,N,00548.4306548,E,2,06,1.36,230.24,M,48.648,M,,*6B
$GPRMC,172238.00,A,4513.1125258,N,0548.4306548,E,0.0911,158.924,011217,1.9,E*59
$GPGSA,A,2,,,,,,,,,,,,,1.7,1.4,1.0*31
{"class":"TPV","status":2,"mode":2,"time":"2017-12-01T17:22:38.000Z","leapseconds":18,"ept":0.005,"lat":45.218542097,"lon":5.807177580,"altHAE":278.8867,"altMSL":230.2388,"alt":230.2388,"track":158.9240,"magtrack":160.8293,"magvar":1.9,"speed":0.047,"eps":0.01,"eph":6.460,"sep":7.932}
{"class":"SKY","gdop":1.86,"hdop":1.36,"pdop":1.67,"tdop":0.83,"vdop":0.96}
{"class":"SKY","gdop":1.86,"hdop":1.36,"pdop":1.67,"tdop":0.83,"vdop":0.96}
$GPZDA,172238.00,01,12,2017,00,00*6D
$GPGGA,172238.00,4513.1125258,N,00548.4306548,E,2,06,1.36,230.24,M,48.648,M,,*6B
$GPRMC,172238.00,A,4513.1125258,N,0548.4306548,E,0.0911,158.924,011217,1.9,E*59
$GPGSA,A,2,,,,,,,,,,,,,1.7,1.4,1.0*31
{"class":"TPV","status":2,"mode":2,"time":"2017-12-01T17:22:38.000Z","leapseconds":18,"ept":0.005,"lat":45.218542097,"lon":5.807177580,"altHAE":278.8867,"altMSL":230.2388,"alt":230.2388,"track":158.9240,"magtrack":160.8293,"magvar":1.9,"speed":0.047,"eps":0.01,"eph":6.460,"sep":7.932}
$GPZDA,172239.00,01,12,2017,00,00*6C
$GPGGA,172239.00,4513.1125834,N,00548.4306534,E,2,05,1.36,230.23,M,48.648,M,,*65
$GPRMC,172239.00,A,4513.1125834,N,0548.4306534,E,0.0911,158.924,011217,1.9,E*53
$GPGSA,A,2,,,,,,,,,,,,,1.9,1.4,1.0*3F
{"class":"TPV","status":2,"mode":2,"time":"2017-12-01T17:22:39.000Z","leapseconds":18,"ept":0.005,"lat":45.218543056,"lon":5.807177557,"altHAE":278.8796,"altMSL":230.2317,"alt":230.2317,"track":158.9240,"magtrack":160.8293,"magvar":1.9,"speed":0.047,"eps":0.01,"eph":6.460,"sep":8.930}
{"class":"SKY","gdop":1.86,"hdop":1.36,"pdop":1.88,"tdop":0.83,"vdop":0.96}
{"class":"SKY","gdop":2.10,"hdop":1.61,"pdop":1.88,"tdop":0.94,"vdop":0.98}
$GPZDA,172239.00,01,12,2017,00,00*6C
$GPGGA,172239.00,4513.1125834,N,00548.4306534,E,2,05,1.61,230.23,M,48.648,M,,*67
$GPRMC,172239.00,A,4513.1125834,N,0548.4306534,E,0.0911,158.924,011217,1.9,E*53
$GPGSA,A,2,,,,,,,,,,,,,1.9,1.6,1.0*3D
{"class":"TPV","status":2,"mode":2,"time":"2017-12-01T17:22:39.000Z","leapseconds":18,"ept":0.005,"lat":45.218543056,"lon":5.807177557,"altHAE":278.8796,"altMSL":230.2317,"alt":230.2317,"track":158.9240,"magtrack":160.8293,"magvar":1.9,"speed":0.047,"eps":0.01,"eph":6.460,"sep":8.930}
$GPZDA,172240.00,01,12,2017,00,00*62
$GPGGA,172240.00,4513.1126405,N,00548.4306588,E,2,06,1.61,230.24,M,48.648,M,,*67
$GPRMC,172240.00,A,4513.1126405,N,0548.4306588,E,0.0911,158.924,011217,1.9,E*57
$GPGSA,A,2,,,,,,,,,,,,,1.7,1.6,1.0*33
{"class":"TPV","status":2,"mode":2,"time":"2017-12-01T17:22:40.000Z","leapseconds":18,"ept":0.005,"lat":45.218544008,"lon":5.807177647,"altHAE":278.8873,"altMSL":230.2395,"alt":230.2395,"track":158.9240,"magtrack":160.8293,"magvar":1.9,"speed":0.047,"eps":0.01,"eph":7.648,"sep":7.932}
{"class":"SKY","gdop":2.10,"hdop":1.61,"pdop":1.67,"tdop":0.94,"vdop":0.98}
{"class":"SKY","gdop":1.86,"hdop":1.36,"pdop":1.67,"tdop":0.83,"vdop":0.96}
$GPZDA,172240.00,01,12,2017,00,00*62
$GPGGA,172240.00,4513.1126405,N,00548.4306588,E,2,06,1.36,230.24,M,48.648,M,,*65
$GPRMC,172240.00,A,4513.1126405,N,0548.4306588,E,0.0911,158.924,011217,1.9,E*57
$GPGSA,A,2,,,,,,,,,,,,,1.7,1.4,1.0*31
{"class":"TPV","status":2,"mode":2,"time":"2017-12-01T17:22:40.000Z","leapseconds":18,"ept":0.005,"lat":45.218544008,"lon":5.807177647,"altHAE":278.8873,"altMSL":230.2395,"alt":230.2395,"track":158.9240,"magtrack":160.8293,"magvar":1.9,"speed":0.047,"eps":0.01,"eph":7.648,"sep":7.932}
$GPZDA,172241.00,01,12,2017,00,00*63
$GPGGA,172241.00,4513.1127395,N,00548.4306696,E,2,06,1.36,230.23,M,48.648,M,,*60
$GPRMC,172241.00,A,4513.1127395,N,0548.4306696,E,0.0911,158.924,011217,1.9,E*55
$GPGSA,A,2,,,,,,,,,,,,,1.7,1.4,1.0*31
{"class":"TPV","status":2,"mode":2,"time":"2017-12-01T17:22:41.000Z","leapseconds":18,"ept":0.005,"lat":45.218545658,"lon":5.807177827,"altHAE":278.8744,"altMSL":230.2265,"alt":230.2265,"track":158.9240,"magtrack":160.8293,"magvar":1.9,"speed":0.047,"eps":0.01,"eph":6.460,"sep":7.932}
{"class":"SKY","gdop":1.86,"hdop":1.36,"pdop":1.67,"tdop":0.83,"vdop":0.96}
{"class":"SKY","gdop":1.86,"hdop":1.36,"pdop":1.67,"tdop":0.83,"vdop":0.96}
$GPZDA,172241.00,01,12,2017,00,00*63
$GPGGA,172241.00,4513.1127395,N,00548.4306696,E,2,06,1.36,230.23,M,48.648,M,,*60
$GPRMC,172241.00,A,4513.1127395,N,0548.4306696,E,0.0911,158.924,011217,1.9,E*55
$GPGSA,A,2,,,,,,,,,,,,,1.7,1.4,1.0*31
{"class":"TPV","status":2,"mode":2,"time":"2017-12-01T17:22:41.000Z","leapseconds":18,"ept":0.005,"lat":45.218545658,"lon":5.807177827,"altHAE":278.8744,"altMSL":230.2265,"alt":230.2265,"track":158.9240,"magtrack":160.8293,"magvar":1.9,"speed":0.047,"eps":0.01,"eph":6.460,"sep":7.932}
$GPZDA,172242.00,01,12,2017,00,00*60
$GPGGA,172242.00,4513.1128347,N,00548.4306797,E,2,06,1.36,230.22,M,48.648,M,,*62
$GPRMC,172242.00,A,4513.1128347,N,0548.4306797,E,0.0911,158.924,011217,1.9,E*56
$GPGSA,A,2,,,,,,,,,,,,,1.7,1.4,1.0*31
{"class":"TPV","status":2,"mode":2,"time":"2017-12-01T17:22:42.000Z","leapseconds":18,"ept":0.005,"lat":45.218547244,"lon":5.807177994,"altHAE":278.8685,"altMSL":230.2206,"alt":230.2206,"track":158.9240,"magtrack":160.8293,"magvar":1.9,"speed":0.047,"eps":0.01,"eph":6.460,"sep":7.932}
{"class":"SKY","gdop":1.86,"hdop":1.36,"pdop":1.67,"tdop":0.83,"vdop":0.96}
{"class":"SKY","gdop":1.86,"hdop":1.36,"pdop":1.67,"tdop":0.83,"vdop":0.96}
$GPZDA,172242.00,01,12,2017,00,00*60
$GPGGA,172242.00,4513.1128347,N,00548.4306797,E,2,06,1.36,230.22,M,48.648,M,,*62
$GPRMC,172242.00,A,4513.1128347,N,0548.4306797,E,0.0911,158.924,011217,1.9,E*56
$GPGSA,A,2,,,,,,,,,,,,,1.7,1.4,1.0*31
{"class":"TPV","status":2,"mode":2,"time":"2017-12-01T17:22:42.000Z","leapseconds":18,"ept":0.005,"lat":45.218547244,"lon":5.807177994,"altHAE":278.8685,"altMSL":230.2206,"alt":230.2206,"track":158.9240,"magtrack":160.8293,"magvar":1.9,"speed":0.047,"eps":0.01,"eph":6.460,"sep":7.932}
$GPZDA,172243.00,01,12,2017,00,00*61
$GPGGA,172243.00,4513.1129222,N,00548.4306889,E,2,06,1.36,230.21,M,48.648,M,,*63
$GPRMC,172243.00,A,4513.1129222,N,0548.4306889,E,0.0911,158.924,011217,1.9,E*54
$GPGSA,A,2,,,,,,,,,,,,,1.7,1.4,1.0*31
{"class":"TPV","status":2,"mode":2,"time":"2017-12-01T17:22:43.000Z","leapseconds":18,"ept":0.005,"lat":45.218548704,"lon":5.807178149,"altHAE":278.8624,"altMSL":230.2146,"alt":230.2146,"track":158.9240,"magtrack":160.8293,"magvar":1.9,"speed":0.047,"eps":0.01,"eph":6.460,"sep":7.932}
{"class":"SKY","gdop":1.86,"hdop":1.36,"pdop":1.67,"tdop":0.83,"vdop":0.96}
$GPGSV,6,1,23,05,44,201,37,07,10,065,00,08,05,028,00,13,72,321,30*7B
$GPGSV,6,2,23,15,40,301,27,17,02,130,00,18,02,326,00,20,44,281,29*73
$GPGSV,6,3,23,21,06,304,00,24,08,253,21,28,56,087,35,30,38,061,19*71
$GPGSV,6,4,23,33,34,209,00,36,32,146,45,37,36,158,00,70,48,155,33*77
$GPGSV,6,5,23,71,74,308,23,72,22,324,00,73,76,251,30,74,21,228,13*7E
$GPGSV,6,6,23,80,44,037,29,81,07,032,25,88,04,346,00*42
{"class":"SKY","time":"2017-12-01T17:22:43.000Z","gdop":1.86,"hdop":1.36,"pdop":1.67,"tdop":0.83,"xdop":0.76,"ydop":1.13,"vdop":0.96,"nSat":26,"uSat":6,"satellites":[{"PRN":5,"gnssid":0,"svid":5,"az":201.0,"el":44.0,"ss":37.0,"used":true,"health":1},{"PRN":7,"gnssid":0,"svid":7,"az":65.0,"el":10.0,"ss":0.0,"used":false,"health":1},{"PRN":8,"gnssid":0,"svid":8,"az":28.0,"el":5.0,"ss":0.0,"used":false,"health":1},{"PRN":13,"gnssid":0,"svid":13,"az":321.0,"el":72.0,"ss":30.0,"used":true,"health":1},{"PRN":15,"gnssid":0,"svid":15,"az":301.0,"el":40.0,"ss":27.0,"used":true,"health":1},{"PRN":17,"gnssid":0,"svid":17,"az":130.0,"el":2.0,"ss":0.0,"used":false,"health":1},{"PRN":18,"gnssid":0,"svid":18,"az":326.0,"el":2.0,"ss":0.0,"used":false,"health":1},{"PRN":20,"gnssid":0,"svid":20,"az":281.0,"el":44.0,"ss":29.0,"used":true,"health":1},{"PRN":21,"gnssid":0,"svid":21,"az":304.0,"el":6.0,"ss":0.0,"used":false,"health":1},{"PRN":24,"gnssid":0,"svid":24,"az":253.0,"el":8.0,"ss":21.0,"used":false,"health":1},{"PRN":28,"gnssid":0,"svid":28,"az":87.0,"el":56.0,"ss":35.0,"used":true,"health":1},{"PRN":30,"gnssid":0,"svid":30,"az":61.0,"el":38.0,"ss":19.0,"used":true,"health":1},{"PRN":33,"gnssid":1,"svid":120,"az":209.0,"el":34.0,"ss":0.0,"used":false,"health":1},{"PRN":36,"gnssid":1,"svid":123,"az":146.0,"el":32.0,"ss":45.0,"used":false,"health":1},{"PRN":37,"gnssid":1,"svid":124,"az":158.0,"el":36.0,"ss":0.0,"used":false,"health":2},{"PRN":193,"gnssid":5,"svid":1,"az":0.0,"ss":0.0,"used":false,"health":2},{"PRN":194,"gnssid":5,"svid":2,"az":0.0,"ss":0.0,"used":false,"health":2},{"PRN":197,"gnssid":5,"svid":5,"az":0.0,"ss":0.0,"used":false,"health":2},{"PRN":70,"gnssid":6,"svid":6,"az":155.0,"el":48.0,"ss":33.0,"used":false,"health":1},{"PRN":71,"gnssid":6,"svid":7,"az":308.0,"el":74.0,"ss":23.0,"used":false,"health":1},{"PRN":72,"gnssid":6,"svid":8,"az":324.0,"el":22.0,"ss":0.0,"used":false,"health":1},{"PRN":73,"gnssid":6,"svid":9,"az":251.0,"el":76.0,"ss":30.0,"used":false,"health":1},{"PRN":74,"gnssid":6,"svid":10,"az":228.0,"el":21.0,"ss":13.0,"used":false,"health":1},{"PRN":80,"gnssid":6,"svid":16,"az":37.0,"el":44.0,"ss":29.0,"used":false,"health":1},{"PRN":81,"gnssid":6,"svid":17,"az":32.0,"el":7.0,"ss":25.0,"used":false,"health":1},{"PRN":88,"gnssid":6,"svid":24,"az":346.0,"el":4.0,"ss":0.0,"used":false,"health":1}]}
{"class":"SKY","time":"2017-12-01T17:22:43.000Z","gdop":1.86,"hdop":1.36,"pdop":1.67,"tdop":0.83,"xdop":0.76,"ydop":1.13,"vdop":0.96}
$GPZDA,172243.00,01,12,2017,00,00*61
$GPGGA,172243.00,4513.1129222,N,00548.4306889,E,2,06,1.36,230.21,M,48.648,M,,*63
$GPRMC,172243.00,A,4513.1129222,N,0548.4306889,E,0.0911,158.924,011217,1.9,E*54
$GPGSA,A,2,5,13,15,20,28,30,,,,,,,1.7,1.4,1.0*09
$GPGBS,172243.00,2.840,4.246,,,,,*64
{"class":"TPV","status":2,"mode":2,"time":"2017-12-01T17:22:43.000Z","leapseconds":18,"ept":0.005,"lat":45.218548704,"lon":5.807178149,"altHAE":278.8624,"altMSL":230.2146,"alt":230.2146,"epx":2.840,"epy":4.246,"track":158.9240,"magtrack":160.8293,"magvar":1.9,"speed":0.047,"eps":0.01,"eph":6.460,"sep":7.932}
$GPZDA,172244.00,01,12,2017,00,00*66
$GPGGA,172244.00,4513.1130106,N,00548.4306822,E,2,06,1.36,230.22,M,48.648,M,,*6B
$GPRMC,172244.00,A,4513.1130106,N,0548.4306822,E,0.0911,158.924,011217,1.9,E*5F
$GPGSA,A,2,5,13,15,20,28,30,,,,,,,1.7,1.4,1.0*09
$GPGBS,172244.00,2.840,4.246,,,,,*63
{"class":"TPV","status":2,"mode":2,"time":"2017-12-01T17:22:44.000Z","leapseconds":18,"ept":0.005,"lat":45.218550176,"lon":5.807178037,"altHAE":278.8691,"altMSL":230.2213,"alt":230.2213,"epx":2.840,"epy":4.246,"track":158.9240,"magtrack":160.8293,"magvar":1.9,"speed":0.047,"eps":0.01,"eph":6.460,"sep":7.932}
{"class":"SKY","time":"2017-12-01T17:22:43.000Z","gdop":1.86,"hdop":1.36,"pdop":1.67,"tdop":0.83,"xdop":0.76,"ydop":1.13,"vdop":0.96}
{"class":"SKY","time":"2017-12-01T17:22:43.000Z","gdop":1.86,"hdop":1.36,"pdop":1.67,"tdop":0.83,"xdop":0.76,"ydop":1.13,"vdop":0.96}
$GPZDA,172245.00,01,12,2017,00,00*67
$GPGGA,172245.00,4513.1131027,N,00548.4306763,E,2,06,1.36,230.22,M,48.648,M,,*63
$GPRMC,172245.00,A,4513.1131027,N,0548.4306763,E,0.0911,158.924,011217,1.9,E*57
$GPGSA,A,2,5,13,15,20,28,30,,,,,,,1.7,1.4,1.0*09
$GPGBS,172245.00,2.840,4.246,,,,,*62
{"class":"TPV","status":2,"mode":2,"time":"2017-12-01T17:22:45.000Z","leapseconds":18,"ept":0.005,"lat":45.218551712,"lon":5.807177939,"altHAE":278.8688,"altMSL":230.2209,"alt":230.2209,"epx":2.840,"epy":4.246,"track":158.9240,"magtrack":160.8293,"magvar":1.9,"speed":0.047,"eps":0.01,"eph":6.460,"sep":7.932}
{"class":"SKY","time":"2017-12-01T17:22:43.000Z","gdop":1.86,"hdop":1.36,"pdop":1.67,"tdop":0.83,"xdop":0.76,"ydop":1.13,"vdop":0.96}
{"class":"SKY","time":"2017-12-01T17:22:43.000Z","gdop":1.86,"hdop":1.36,"pdop":1.67,"tdop":0.83,"xdop":0.76,"ydop":1.13,"vdop":0.96}
$GPZDA,172245.00,01,12,2017,00,00*67
$GPGGA,172245.00,4513.1131027,N,00548.4306763,E,2,06,1.36,230.22,M,48.648,M,,*63
$GPRMC,172245.00,A,4513.1131027,N,0548.4306763,E,0.0911,158.924,011217,1.9,E*57
$GPGSA,A,2,5,13,15,20,28,30,,,,,,,1.7,1.4,1.0*09
$GPGBS,172245.00,2.840,4.246,,,,,*62
{"class":"TPV","status":2,"mode":2,"time":"2017-12-01T17:22:45.000Z","leapseconds":18,"ept":0.005,"lat":45.218551712,"lon":5.807177939,"altHAE":278.8688,"altMSL":230.2209,"alt":230.2209,"epx":2.840,"epy":4.246,"track":158.9240,"magtrack":160.8293,"magvar":1.9,"speed":0.047,"eps":8.49,"eph":6.460,"sep":7.932}
$GPZDA,172246.00,01,12,2017,00,00*64
$GPGGA,172246.00,4513.1131915,N,00548.4306620,E,2,06,1.36,230.23,M,48.648,M,,*6F
$GPRMC,172246.00,A,4513.1131915,N,0548.4306620,E,0.0911,158.924,011217,1.9,E*5A
$GPGSA,A,2,5,13,15,20,28,30,,,,,,,1.7,1.4,1.0*09
$GPGBS,172246.00,2.840,4.246,,,,,*61
{"class":"TPV","status":2,"mode":2,"time":"2017-12-01T17:22:46.000Z","leapseconds":18,"ept":0.005,"lat":45.218553191,"lon":5.807177700,"altHAE":278.8747,"altMSL":230.2269,"alt":230.2269,"epx":2.840,"epy":4.246,"track":158.9240,"magtrack":160.8293,"magvar":1.9,"speed":0.047,"eps":0.01,"eph":6.460,"sep":7.932}
{"class":"SKY","time":"2017-12-01T17:22:43.000Z","gdop":1.86,"hdop":1.36,"pdop":1.67,"tdop":0.83,"xdop":0.76,"ydop":1.13,"vdop":0.96}
{"class":"SKY","time":"2017-12-01T17:22:43.000Z","gdop":1.86,"hdop":1.36,"pdop":1.67,"tdop":0.83,"xdop":0.76,"ydop":1.13,"vdop":0.96}
$GPZDA,172246.00,01,12,2017,00,00*64
$GPGGA,172246.00,4513.1131915,N,00548.4306620,E,2,06,1.36,230.23,M,48.648,M,,*6F
$GPRMC,172246.00,A,4513.1131915,N,0548.4306620,E,0.0911,158.924,011217,1.9,E*5A
$GPGSA,A,2,5,13,15,20,28,30,,,,,,,1.7,1.4,1.0*09
$GPGBS,172246.00,2.840,4.246,,,,,*61
{"class":"TPV","status":2,"mode":2,"time":"2017-12-01T17:22:46.000Z","leapseconds":18,"ept":0.005,"lat":45.218553191,"lon":5.807177700,"altHAE":278.8747,"altMSL":230.2269,"alt":230.2269,"epx":2.840,"epy":4.246,"track":158.9240,"magtrack":160.8293,"magvar":1.9,"speed":0.047,"eps":8.49,"eph":6.460,"sep":7.932}
$GPZDA,172247.00,01,12,2017,00,00*65
$GPGGA,172247.00,4513.1132612,N,00548.4306462,E,2,06,1.36,230.23,M,48.648,M,,*61
$GPRMC,172247.00,A,4513.1132612,N,0548.4306462,E,0.0911,158.924,011217,1.9,E*54
$GPGSA,A,2,5,13,15,20,28,30,,,,,,,1.7,1.4,1.0*09
$GPGBS,172247.00,2.840,4.246,,,,,*60
{"class":"TPV","status":2,"mode":2,"time":"2017-12-01T17:22:47.000Z","leapseconds":18,"ept":0.005,"lat":45.218554353,"lon":5.807177436,"altHAE":278.8734,"altMSL":230.2255,"alt":230.2255,"epx":2.840,"epy":4.246,"track":158.9240,"magtrack":160.8293,"magvar":1.9,"speed":0.047,"eps":0.01,"eph":6.460,"sep":7.932}
{"class":"SKY","time":"2017-12-01T17:22:43.000Z","gdop":1.86,"hdop":1.36,"pdop":1.67,"tdop":0.83,"xdop":0.76,"ydop":1.13,"vdop":0.96}
{"class":"SKY","time":"2017-12-01T17:22:43.000Z","gdop":1.86,"hdop":1.36,"pdop":1.67,"tdop":0.83,"xdop":0.76,"ydop":1.13,"vdop":0.96}
$GPZDA,172247.00,01,12,2017,00,00*65
$GPGGA,172247.00,4513.1132612,N,00548.4306462,E,2,06,1.36,230.23,M,48.648,M,,*61
$GPRMC,172247.00,A,4513.1132612,N,0548.4306462,E,0.0911,158.924,011217,1.9,E*54
$GPGSA,A,2,5,13,15,20,28,30,,,,,,,1.7,1.4,1.0*09
$GPGBS,172247.00,2.840,4.246,,,,,*60
{"class":"TPV","status":2,"mode":2,"time":"2017-12-01T17:22:47.000Z","leapseconds":18,"ept":0.005,"lat":45.218554353,"lon":5.807177436,"altHAE":278.8734,"altMSL":230.2255,"alt":230.2255,"epx":2.840,"epy":4.246,"track":158.9240,"magtrack":160.8293,"magvar":1.9,"speed":0.047,"eps":8.49,"eph":6.460,"sep":7.932}
$GPZDA,172248.00,01,12,2017,00,00*6A
$GPGGA,172248.00,4513.1133347,N,00548.4306303,E,2,06,1.36,230.23,M,48.648,M,,*6A
$GPRMC,172248.00,A,4513.1133347,N,0548.4306303,E,0.0911,158.924,011217,1.9,E*5F
$GPGSA,A,2,5,13,15,20,28,30,,,,,,,1.7,1.4,1.0*09
$GPGBS,172248.00,2.840,4.246,,,,,*6F
{"class":"TPV","status":2,"mode":2,"time":"2017-12-01T17:22:48.000Z","leapseconds":18,"ept":0.005,"lat":45.218555578,"lon":5.807177172,"altHAE":278.8791,"altMSL":230.2313,"alt":230.2313,"epx":2.840,"epy":4.246,"track":158.9240,"magtrack":160.8293,"magvar":1.9,"speed":0.047,"eps":0.01,"eph":6.460,"sep":7.932}
{"class":"SKY","time":"2017-12-01T17:22:43.000Z","gdop":1.86,"hdop":1.36,"pdop":1.67,"tdop":0.83,"xdop":0.76,"ydop":1.13,"vdop":0.96}
{"class":"SKY","time":"2017-12-01T17:22:43.000Z","gdop":1.86,"hdop":1.36,"pdop":1.67,"tdop":0.83,"xdop":0.76,"ydop":1.13,"vdop":0.96}
$GPZDA,172248.00,01,12,2017,00,00*6A
$GPGGA,172248.00,4513.1133347,N,00548.4306303,E,2,06,1.36,230.23,M,48.648,M,,*6A
$GPRMC,172248.00,A,4513.1133347,N,0548.4306303,E,0.0911,158.924,011217,1.9,E*5F
$GPGSA,A,2,5,13,15,20,28,30,,,,,,,1.7,1.4,1.0*09
$GPGBS,172248.00,2.840,4.246,,,,,*6F
{"class":"TPV","status":2,"mode":2,"time":"2017-12-01T17:22:48.000Z","leapseconds":18,"ept":0.005,"lat":45.218555578,"lon":5.807177172,"altHAE":278.8791,"altMSL":230.2313,"alt":230.2313,"epx":2.840,"epy":4.246,"track":158.9240,"magtrack":160.8293,"magvar":1.9,"speed":0.047,"eps":8.49,"eph":6.460,"sep":7.932}
$GPZDA,172249.00,01,12,2017,00,00*6B
$GPGGA,172249.00,4513.1134124,N,00548.4306077,E,2,06,1.36,230.23,M,48.648,M,,*6B
$GPRMC,172249.00,A,4513.1134124,N,0548.4306077,E,0.0716,167.576,011217,1.9,E*50
$GPGSA,A,2,5,13,15,20,28,30,,,,,,,1.7,1.4,1.0*09
$GPGBS,172249.00,2.840,4.246,,,,,*6E
{"class":"TPV","status":2,"mode":2,"time":"2017-12-01T17:22:49.000Z","leapseconds":18,"ept":0.005,"lat":45.218556873,"lon":5.807176795,"altHAE":278.8772,"altMSL":230.2294,"alt":230.2294,"epx":2.840,"epy":4.246,"track":167.5760,"magtrack":169.4813,"magvar":1.9,"speed":0.037,"eps":0.01,"eph":6.460,"sep":7.932}
{"class":"SKY","time":"2017-12-01T17:22:43.000Z","gdop":1.86,"hdop":1.36,"pdop":1.67,"tdop":0.83,"xdop":0.76,"ydop":1.13,"vdop":0.96}
{"class":"SKY","time":"2017-12-01T17:22:43.000Z","gdop":1.86,"hdop":1.36,"pdop":1.67,"tdop":0.83,"xdop":0.76,"ydop":1.13,"vdop":0.96}
$GPZDA,172249.00,01,12,2017,00,00*6B
$GPGGA,172249.00,4513.1134124,N,00548.4306077,E,2,06,1.36,230.23,M,48.648,M,,*6B
$GPRMC,172249.00,A,4513.1134124,N,0548.4306077,E,0.0716,167.576,011217,1.9,E*50
$GPGSA,A,2,5,13,15,20,28,30,,,,,,,1.7,1.4,1.0*09
$GPGBS,172249.00,2.840,4.246,,,,,*6E
{"class":"TPV","status":2,"mode":2,"time":"2017-12-01T17:22:49.000Z","leapseconds":18,"ept":0.005,"lat":45.218556873,"lon":5.807176795,"altHAE":278.8772,"altMSL":230.2294,"alt":230.2294,"epx":2.840,"epy":4.246,"track":167.5760,"magtrack":169.4813,"magvar":1.9,"speed":0.037,"eps":8.49,"eph":6.460,"sep":7.932}
$GPZDA,172250.00,01,12,2017,00,00*63
$GPGGA,172250.00,4513.1134862,N,00548.4305842,E,2,06,1.36,230.23,M,48.648,M,,*65
$GPRMC,172250.00,A,4513.1134862,N,0548.4305842,E,0.0716,167.576,011217,1.9,E*5E
$GPGSA,A,2,5,13,15,20,28,30,,,,,,,1.7,1.4,1.0*09
$GPGBS,172250.00,2.840,4.246,,,,,*66
{"class":"TPV","status":2,"mode":2,"time":"2017-12-01T17:22:50.000Z","leapseconds":18,"ept":0.005,"lat":45.218558104,"lon":5.807176404,"altHAE":278.8823,"altMSL":230.2344,"alt":230.2344,"epx":2.840,"epy":4.246,"track":167.5760,"magtrack":169.4813,"magvar":1.9,"speed":0.037,"eps":0.01,"eph":6.460,"sep":7.932}
{"class":"SKY","time":"2017-12-01T17:22:43.000Z","gdop":1.86,"hdop":1.36,"pdop":1.67,"tdop":0.83,"xdop":0.76,"ydop":1.13,"vdop":0.96}
{"class":"SKY","time":"2017-12-01T17:22:43.000Z","gdop":1.86,"hdop":1.36,"pdop":1.67,"tdop":0.83,"xdop":0.76,"ydop":1.13,"vdop":0.96}
$GPZDA,172250.00,01,12,2017,00,00*63
$GPGGA,172250.00,4513.1134862,N,00548.4305842,E,2,06,1.36,230.23,M,48.648,M,,*65
$GPRMC,172250.00,A,4513.1134862,N,0548.4305842,E,0.0716,167.576,011217,1.9,E*5E
$GPGSA,A,2,5,13,15,20,28,30,,,,,,,1.7,1.4,1.0*09
$GPGBS,172250.00,2.840,4.246,,,,,*66
{"class":"TPV","status":2,"mode":2,"time":"2017-12-01T17:22:50.000Z","leapseconds":18,"ept":0.005,"lat":45.218558104,"lon":5.807176404,"altHAE":278.8823,"altMSL":230.2344,"alt":230.2344,"epx":2.840,"epy":4.246,"track":167.5760,"magtrack":169.4813,"magvar":1.9,"speed":0.037,"eps":8.49,"eph":6.460,"sep":7.932}
$GPZDA,172251.00,01,12,2017,00,00*62
$GPGGA,172251.00,4513.1135643,N,00548.4305540,E,2,06,1.36,230.23,M,48.648,M,,*67
$GPRMC,172251.00,A,4513.1135643,N,0548.4305540,E,0.0583,164.680,011217,1.9,E*5B
$GPGSA,A,2,5,13,15,20,28,30,,,,,,,1.7,1.4,1.0*09
$GPGBS,172251.00,2.840,4.246,,,,,*67
{"class":"TPV","status":2,"mode":2,"time":"2017-12-01T17:22:51.000Z","leapseconds":18,"ept":0.005,"lat":45.218559406,"lon":5.807175899,"altHAE":278.8796,"altMSL":230.2317,"alt":230.2317,"epx":2.840,"epy":4.246,"track":164.6800,"magtrack":166.5853,"magvar":1.9,"speed":0.030,"eps":0.01,"eph":6.460,"sep":7.932}
{"class":"SKY","time":"2017-12-01T17:22:43.000Z","gdop":1.86,"hdop":1.36,"pdop":1.67,"tdop":0.83,"xdop":0.76,"ydop":1.13,"vdop":0.96}
{"class":"SKY","time":"2017-12-01T17:22:43.000Z","gdop":1.86,"hdop":1.36,"pdop":1.67,"tdop":0.83,"xdop":0.76,"ydop":1.13,"vdop":0.96}
$GPZDA,172251.00,01,12,2017,00,00*62
$GPGGA,172251.00,4513.1135643,N,00548.4305540,E,2,06,1.36,230.23,M,48.648,M,,*67
$GPRMC,172251.00,A,4513.1135643,N,0548.4305540,E,0.0583,164.680,011217,1.9,E*5B
$GPGSA,A,2,5,13,15,20,28,30,,,,,,,1.7,1.4,1.0*09
$GPGBS,172251.00,2.840,4.246,,,,,*67
{"class":"TPV","status":2,"mode":2,"time":"2017-12-01T17:22:51.000Z","leapseconds":18,"ept":0.005,"lat":45.218559406,"lon":5.807175899,"altHAE":278.8796,"altMSL":230.2317,"alt":230.2317,"epx":2.840,"epy":4.246,"track":164.6800,"magtrack":166.5853,"magvar":1.9,"speed":0.030,"eps":8.49,"eph":6.460,"sep":7.932}
$GPZDA,172252.00,01,12,2017,00,00*61
$GPGGA,172252.00,4513.1136268,N,00548.4305298,E,2,06,1.36,230.23,M,48.648,M,,*68
$GPRMC,172252.00,A,4513.1136268,N,0548.4305298,E,0.0583,164.680,011217,1.9,E*54
$GPGSA,A,2,5,13,15,20,28,30,,,,,,,1.7,1.4,1.0*09
$GPGBS,172252.00,2.840,4.246,,,,,*64
{"class":"TPV","status":2,"mode":2,"time":"2017-12-01T17:22:52.000Z","leapseconds":18,"ept":0.005,"lat":45.218560447,"lon":5.807175496,"altHAE":278.8775,"altMSL":230.2296,"alt":230.2296,"epx":2.840,"epy":4.246,"track":164.6800,"magtrack":166.5853,"magvar":1.9,"speed":0.030,"eps":0.01,"eph":6.460,"sep":7.932}
{"class":"SKY","time":"2017-12-01T17:22:43.000Z","gdop":1.86,"hdop":1.36,"pdop":1.67,"tdop":0.83,"xdop":0.76,"ydop":1.13,"vdop":0.96}
{"class":"SKY","time":"2017-12-01T17:22:43.000Z","gdop":1.86,"hdop":1.36,"pdop":1.67,"tdop":0.83,"xdop":0.76,"ydop":1.13,"vdop":0.96}
$GPZDA,172252.00,01,12,2017,00,00*61
$GPGGA,172252.00,4513.1136268,N,00548.4305298,E,2,06,1.36,230.23,M,48.648,M,,*68
$GPRMC,172252.00,A,4513.1136268,N,0548.4305298,E,0.0583,164.680,011217,1.9,E*54
$GPGSA,A,2,5,13,15,20,28,30,,,,,,,1.7,1.4,1.0*09
$GPGBS,172252.00,2.840,4.246,,,,,*64
{"class":"TPV","status":2,"mode":2,"time":"2017-12-01T17:22:52.000Z","leapseconds":18,"ept":0.005,"lat":45.218560447,"lon":5.807175496,"altHAE":278.8775,"altMSL":230.2296,"alt":230.2296,"epx":2.840,"epy":4.246,"track":164.6800,"magtrack":166.5853,"magvar":1.9,"speed":0.030,"eps":8.49,"eph":6.460,"sep":7.932}
$GPZDA,172253.00,01,12,2017,00,00*60
$GPGGA,172253.00,4513.1136897,N,00548.4304979,E,2,06,1.36,230.23,M,48.648,M,,*66
$GPRMC,172253.00,A,4513.1136897,N,0548.4304979,E,0.0583,164.680,011217,1.9,E*5A
$GPGSA,A,2,5,13,15,20,28,30,,,,,,,1.7,1.4,1.0*09
$GPGBS,172253.00,2.840,4.246,,,,,*65
{"class":"TPV","status":2,"mode":2,"time":"2017-12-01T17:22:53.000Z","leapseconds":18,"ept":0.005,"lat":45.218561494,"lon":5.807174966,"altHAE":278.8746,"altMSL":230.2268,"alt":230.2268,"epx":2.840,"epy":4.246,"track":164.6800,"magtrack":166.5853,"magvar":1.9,"speed":0.030,"eps":0.01,"eph":6.460,"sep":7.932}
{"class":"SKY","time":"2017-12-01T17:22:43.000Z","gdop":1.86,"hdop":1.36,"pdop":1.67,"tdop":0.83,"xdop":0.76,"ydop":1.13,"vdop":0.96}
$GPGSV,6,1,23,05,44,201,37,07,10,065,00,08,05,028,00,13,72,321,30*7B
$GPGSV,6,2,23,15,40,301,26,17,02,130,00,18,03,326,00,20,44,281,25*7F
$GPGSV,6,3,23,21,06,304,00,24,09,253,21,28,56,087,35,30,38,061,22*78
$GPGSV,6,4,23,33,34,209,00,36,32,146,44,37,36,158,00,70,48,155,34*71
$GPGSV,6,5,23,71,74,308,22,72,22,324,00,73,76,251,30,74,21,228,16*7A
$GPGSV,6,6,23,80,44,037,28,81,07,032,24,88,04,346,00*42
{"class":"SKY","time":"2017-12-01T17:22:53.000Z","gdop":1.86,"hdop":1.36,"pdop":1.67,"tdop":0.83,"xdop":0.76,"ydop":1.13,"vdop":0.96,"nSat":26,"uSat":6,"satellites":[{"PRN":5,"gnssid":0,"svid":5,"az":201.0,"el":44.0,"ss":37.0,"used":true,"health":1},{"PRN":7,"gnssid":0,"svid":7,"az":65.0,"el":10.0,"ss":0.0,"used":false,"health":1},{"PRN":8,"gnssid":0,"svid":8,"az":28.0,"el":5.0,"ss":0.0,"used":false,"health":1},{"PRN":13,"gnssid":0,"svid":13,"az":321.0,"el":72.0,"ss":30.0,"used":true,"health":1},{"PRN":15,"gnssid":0,"svid":15,"az":301.0,"el":40.0,"ss":26.0,"used":true,"health":1},{"PRN":17,"gnssid":0,"svid":17,"az":130.0,"el":2.0,"ss":0.0,"used":false,"health":1},{"PRN":18,"gnssid":0,"svid":18,"az":326.0,"el":3.0,"ss":0.0,"used":false,"health":1},{"PRN":20,"gnssid":0,"svid":20,"az":281.0,"el":44.0,"ss":25.0,"used":true,"health":1},{"PRN":21,"gnssid":0,"svid":21,"az":304.0,"el":6.0,"ss":0.0,"used":false,"health":1},{"PRN":24,"gnssid":0,"svid":24,"az":253.0,"el":9.0,"ss":21.0,"used":false,"health":1},{"PRN":28,"gnssid":0,"svid":28,"az":87.0,"el":56.0,"ss":35.0,"used":true,"health":1},{"PRN":30,"gnssid":0,"svid":30,"az":61.0,"el":38.0,"ss":22.0,"used":true,"health":1},{"PRN":33,"gnssid":1,"svid":120,"az":209.0,"el":34.0,"ss":0.0,"used":false,"health":1},{"PRN":36,"gnssid":1,"svid":123,"az":146.0,"el":32.0,"ss":44.0,"used":false,"health":1},{"PRN":37,"gnssid":1,"svid":124,"az":158.0,"el":36.0,"ss":0.0,"used":false,"health":2},{"PRN":193,"gnssid":5,"svid":1,"az":0.0,"ss":0.0,"used":false,"health":2},{"PRN":195,"gnssid":5,"svid":3,"az":0.0,"ss":0.0,"used":false,"health":2},{"PRN":197,"gnssid":5,"svid":5,"az":0.0,"ss":0.0,"used":false,"health":2},{"PRN":70,"gnssid":6,"svid":6,"az":155.0,"el":48.0,"ss":34.0,"used":false,"health":1},{"PRN":71,"gnssid":6,"svid":7,"az":308.0,"el":74.0,"ss":22.0,"used":false,"health":1},{"PRN":72,"gnssid":6,"svid":8,"az":324.0,"el":22.0,"ss":0.0,"used":false,"health":1},{"PRN":73,"gnssid":6,"svid":9,"az":251.0,"el":76.0,"ss":30.0,"used":false,"health":1},{"PRN":74,"gnssid":6,"svid":10,"az":228.0,"el":21.0,"ss":16.0,"used":false,"health":1},{"PRN":80,"gnssid":6,"svid":16,"az":37.0,"el":44.0,"ss":28.0,"used":false,"health":1},{"PRN":81,"gnssid":6,"svid":17,"az":32.0,"el":7.0,"ss":24.0,"used":false,"health":1},{"PRN":88,"gnssid":6,"svid":24,"az":346.0,"el":4.0,"ss":0.0,"used":false,"health":1}]}
{"class":"SKY","time":"2017-12-01T17:22:53.000Z","gdop":1.86,"hdop":1.36,"pdop":1.67,"tdop":0.83,"xdop":0.76,"ydop":1.13,"vdop":0.96}
$GPZDA,172253.00,01,12,2017,00,00*60
$GPGGA,172253.00,4513.1136897,N,00548.4304979,E,2,06,1.36,230.23,M,48.648,M,,*66
$GPRMC,172253.00,A,4513.1136897,N,0548.4304979,E,0.0583,164.680,011217,1.9,E*5A
$GPGSA,A,2,5,13,15,20,28,30,,,,,,,1.7,1.4,1.0*09
$GPGBS,172253.00,2.840,4.246,,,,,*65
{"class":"TPV","status":2,"mode":2,"time":"2017-12-01T17:22:53.000Z","leapseconds":18,"ept":0.005,"lat":45.218561494,"lon":5.807174966,"altHAE":278.8746,"altMSL":230.2268,"alt":230.2268,"epx":2.840,"epy":4.246,"track":164.6800,"magtrack":166.5853,"magvar":1.9,"speed":0.030,"eps":8.49,"eph":6.460,"sep":7.932}
$GPZDA,172254.00,01,12,2017,00,00*67
$GPGGA,172254.00,4513.1137521,N,00548.4304737,E,2,06,1.36,230.22,M,48.648,M,,*65
$GPRMC,172254.00,A,4513.1137521,N,0548.4304737,E,0.0583,164.680,011217,1.9,E*58
$GPGSA,A,2,5,13,15,20,28,30,,,,,,,1.7,1.4,1.0*09
$GPGBS,172254.00,2.840,4.246,,,,,*62
{"class":"TPV","status":2,"mode":2,"time":"2017-12-01T17:22:54.000Z","leapseconds":18,"ept":0.005,"lat":45.218562536,"lon":5.807174562,"altHAE":278.8725,"altMSL":230.2246,"alt":230.2246,"epx":2.840,"epy":4.246,"track":164.6800,"magtrack":166.5853,"magvar":1.9,"speed":0.030,"eps":0.01,"eph":6.460,"sep":7.932}
{"class":"SKY","time":"2017-12-01T17:22:53.000Z","gdop":1.86,"hdop":1.36,"pdop":1.67,"tdop":0.83,"xdop":0.76,"ydop":1.13,"vdop":0.96}
{"class":"SKY","time":"2017-12-01T17:22:53.000Z","gdop":1.86,"hdop":1.36,"pdop":1.67,"tdop":0.83,"xdop":0.76,"ydop":1.13,"vdop":0.96}
$GPZDA,172255.00,01,12,2017,00,00*66
$GPGGA,172255.00,4513.1138565,N,00548.4304541,E,2,06,1.36,230.22,M,48.648,M,,*68
$GPRMC,172255.00,A,4513.1138565,N,0548.4304541,E,0.0583,164.680,011217,1.9,E*55
$GPGSA,A,2,5,13,15,20,28,30,,,,,,,1.7,1.4,1.0*09
$GPGBS,172255.00,2.840,4.246,,,,,*63
{"class":"TPV","status":2,"mode":2,"time":"2017-12-01T17:22:55.000Z","leapseconds":18,"ept":0.005,"lat":45.218564275,"lon":5.807174236,"altHAE":278.8638,"altMSL":230.2160,"alt":230.2160,"epx":2.840,"epy":4.246,"track":164.6800,"magtrack":166.5853,"magvar":1.9,"speed":0.030,"eps":0.01,"eph":6.460,"sep":7.932}
{"class":"SKY","time":"2017-12-01T17:22:53.000Z","gdop":1.86,"hdop":1.36,"pdop":1.67,"tdop":0.83,"xdop":0.76,"ydop":1.13,"vdop":0.96}
{"class":"SKY","time":"2017-12-01T17:22:53.000Z","gdop":1.86,"hdop":1.36,"pdop":1.67,"tdop":0.83,"xdop":0.76,"ydop":1.13,"vdop":0.96}
$GPZDA,172255.00,01,12,2017,00,00*66
$GPGGA,172255.00,4513.1138565,N,00548.4304541,E,2,06,1.36,230.22,M,48.648,M,,*68
$GPRMC,172255.00,A,4513.1138565,N,0548.4304541,E,0.0583,164.680,011217,1.9,E*55
$GPGSA,A,2,5,13,15,20,28,30,,,,,,,1.7,1.4,1.0*09
$GPGBS,172255.00,2.840,4.246,,,,,*63
{"class":"TPV","status":2,"mode":2,"time":"2017-12-01T17:22:55.000Z","leapseconds":18,"ept":0.005,"lat":45.218564275,"lon":5.807174236,"altHAE":278.8638,"altMSL":230.2160,"alt":230.2160,"epx":2.840,"epy":4.246,"track":164.6800,"magtrack":166.5853,"magvar":1.9,"speed":0.030,"eps":8.49,"eph":6.460,"sep":7.932}
$GPZDA,172256.00,01,12,2017,00,00*65
$GPGGA,172256.00,4513.1139574,N,00548.4304262,E,2,06,1.36,230.21,M,48.648,M,,*6F
$GPRMC,172256.00,A,4513.1139574,N,0548.4304262,E,0.0583,164.680,011217,1.9,E*51
$GPGSA,A,2,5,13,15,20,28,30,,,,,,,1.7,1.4,1.0*09
$GPGBS,172256.00,2.840,4.246,,,,,*60
{"class":"TPV","status":2,"mode":2,"time":"2017-12-01T17:22:56.000Z","leapseconds":18,"ept":0.005,"lat":45.218565957,"lon":5.807173770,"altHAE":278.8614,"altMSL":230.2136,"alt":230.2136,"epx":2.840,"epy":4.246,"track":164.6800,"magtrack":166.5853,"magvar":1.9,"speed":0.030,"eps":0.01,"eph":6.460,"sep":7.932}
{"class":"SKY","time":"2017-12-01T17:22:53.000Z","gdop":1.86,"hdop":1.36,"pdop":1.67,"tdop":0.83,"xdop":0.76,"ydop":1.13,"vdop":0.96}
{"class":"SKY","time":"2017-12-01T17:22:53.000Z","gdop":1.86,"hdop":1.36,"pdop":1.67,"tdop":0.83,"xdop":0.76,"ydop":1.13,"vdop":0.96}
$GPZDA,172256.00,01,12,2017,00,00*65
$GPGGA,172256.00,4513.1139574,N,00548.4304262,E,2,06,1.36,230.21,M,48.648,M,,*6F
$GPRMC,172256.00,A,4513.1139574,N,0548.4304262,E,0.0583,164.680,011217,1.9,E*51
$GPGSA,A,2,5,13,15,20,28,30,,,,,,,1.7,1.4,1.0*09
$GPGBS,172256.00,2.840,4.246,,,,,*60
{"class":"TPV","status":2,"mode":2,"time":"2017-12-01T17:22:56.000Z","leapseconds":18,"ept":0.005,"lat":45.218565957,"lon":5.807173770,"altHAE":278.8614,"altMSL":230.2136,"alt":230.2136,"epx":2.840,"epy":4.246,"track":164.6800,"magtrack":166.5853,"magvar":1.9,"speed":0.030,"eps":8.49,"eph":6.460,"sep":7.932}
$GPZDA,172257.00,01,12,2017,00,00*64
$GPGGA,172257.00,4513.1140584,N,00548.4303975,E,2,06,1.36,230.23,M,48.648,M,,*67
$GPRMC,172257.00,A,4513.1140584,N,0548.4303975,E,0.0583,164.680,011217,1.9,E*5B
$GPGSA,A,2,5,13,15,20,28,30,,,,,,,1.7,1.4,1.0*09
$GPGBS,172257.00,2.840,4.246,,,,,*61
{"class":"TPV","status":2,"mode":2,"time":"2017-12-01T17:22:57.000Z","leapseconds":18,"ept":0.005,"lat":45.218567639,"lon":5.807173291,"altHAE":278.8731,"altMSL":230.2253,"alt":230.2253,"epx":2.840,"epy":4.246,"track":164.6800,"magtrack":166.5853,"magvar":1.9,"speed":0.030,"eps":0.01,"eph":6.460,"sep":7.932}
{"class":"SKY","time":"2017-12-01T17:22:53.000Z","gdop":1.86,"hdop":1.36,"pdop":1.67,"tdop":0.83,"xdop":0.76,"ydop":1.13,"vdop":0.96}
{"class":"SKY","time":"2017-12-01T17:22:53.000Z","gdop":1.86,"hdop":1.36,"pdop":1.67,"tdop":0.83,"xdop":0.76,"ydop":1.13,"vdop":0.96}
$GPZDA,172257.00,01,12,2017,00,00*64
$GPGGA,172257.00,4513.1140584,N,00548.4303975,E,2,06,1.36,230.23,M,48.648,M,,*67
$GPRMC,172257.00,A,4513.1140584,N,0548.4303975,E,0.0583,164.680,011217,1.9,E*5B
$GPGSA,A,2,5,13,15,20,28,30,,,,,,,1.7,1.4,1.0*09
$GPGBS,172257.00,2.840,4.246,,,,,*61
{"class":"TPV","status":2,"mode":2,"time":"2017-12-01T17:22:57.000Z","leapseconds":18,"ept":0.005,"lat":45.218567639,"lon":5.807173291,"altHAE":278.8731,"altMSL":230.2253,"alt":230.2253,"epx":2.840,"epy":4.246,"track":164.6800,"magtrack":166.5853,"magvar":1.9,"speed":0.030,"eps":8.49,"eph":6.460,"sep":7.932}
$GPZDA,172258.00,01,12,2017,00,00*6B
$GPGGA,172258.00,4513.1141475,N,00548.4303764,E,2,06,1.36,230.22,M,48.648,M,,*69
$GPRMC,172258.00,A,4513.1141475,N,0548.4303764,E,0.0583,164.680,011217,1.9,E*54
$GPGSA,A,2,5,13,15,20,28,30,,,,,,,1.7,1.4,1.0*09
$GPGBS,172258.00,2.840,4.246,,,,,*6E
{"class":"TPV","status":2,"mode":2,"time":"2017-12-01T17:22:58.000Z","leapseconds":18,"ept":0.005,"lat":45.218569125,"lon":5.807172939,"altHAE":278.8643,"altMSL":230.2164,"alt":230.2164,"epx":2.840,"epy":4.246,"track":164.6800,"magtrack":166.5853,"magvar":1.9,"speed":0.030,"eps":0.01,"eph":6.460,"sep":7.932}
{"class":"SKY","time":"2017-12-01T17:22:53.000Z","gdop":1.86,"hdop":1.36,"pdop":1.67,"tdop":0.83,"xdop":0.76,"ydop":1.13,"vdop":0.96}
{"class":"SKY","time":"2017-12-01T17:22:53.000Z","gdop":1.86,"hdop":1.36,"pdop":1.67,"tdop":0.83,"xdop":0.76,"ydop":1.13,"vdop":0.96}
$GPZDA,172258.00,01,12,2017,00,00*6B
$GPGGA,172258.00,4513.1141475,N,00548.4303764,E,2,06,1.36,230.22,M,48.648,M,,*69
$GPRMC,172258.00,A,4513.1141475,N,0548.4303764,E,0.0583,164.680,011217,1.9,E*54
$GPGSA,A,2,5,13,15,20,28,30,,,,,,,1.7,1.4,1.0*09
$GPGBS,172258.00,2.840,4.246,,,,,*6E
{"class":"TPV","status":2,"mode":2,"time":"2017-12-01T17:22:58.000Z","leapseconds":18,"ept":0.005,"lat":45.218569125,"lon":5.807172939,"altHAE":278.8643,"altMSL":230.2164,"alt":230.2164,"epx":2.840,"epy":4.246,"track":164.6800,"magtrack":166.5853,"magvar":1.9,"speed":0.030,"eps":8.49,"eph":6.460,"sep":7.932}
$GPZDA,172259.00,01,12,2017,00,00*6A
$GPGGA,172259.00,4513.1142256,N,00548.4303461,E,2,06,1.36,230.21,M,48.648,M,,*69
$GPRMC,172259.00,A,4513.1142256,N,0548.4303461,E,0.0583,164.680,011217,1.9,E*57
$GPGSA,A,2,5,13,15,20,28,30,,,,,,,1.7,1.4,1.0*09
$GPGBS,172259.00,2.840,4.246,,,,,*6F
{"class":"TPV","status":2,"mode":2,"time":"2017-12-01T17:22:59.000Z","leapseconds":18,"ept":0.005,"lat":45.218570426,"lon":5.807172435,"altHAE":278.8616,"altMSL":230.2137,"alt":230.2137,"epx":2.840,"epy":4.246,"track":164.6800,"magtrack":166.5853,"magvar":1.9,"speed":0.030,"eps":0.01,"eph":6.460,"sep":7.932}
{"class":"SKY","time":"2017-12-01T17:22:53.000Z","gdop":1.86,"hdop":1.36,"pdop":1.67,"tdop":0.83,"xdop":0.76,"ydop":1.13,"vdop":0.96}
{"class":"SKY","time":"2017-12-01T17:22:53.000Z","gdop":1.86,"hdop":1.36,"pdop":1.67,"tdop":0.83,"xdop":0.76,"ydop":1.13,"vdop":0.96}
$GPZDA,172259.00,01,12,2017,00,00*6A
$GPGGA,172259.00,4513.1142256,N,00548.4303461,E,2,06,1.36,230.21,M,48.648,M,,*69
$GPRMC,172259.00,A,4513.1142256,N,0548.4303461,E,0.0583,164.680,011217,1.9,E*57
$GPGSA,A,2,5,13,15,20,28,30,,,,,,,1.7,1.4,1.0*09
$GPGBS,172259.00,2.840,4.246,,,,,*6F
{"class":"TPV","status":2,"mode":2,"time":"2017-12-01T17:22:59.000Z","leapseconds":18,"ept":0.005,"lat":45.218570426,"lon":5.807172435,"altHAE":278.8616,"altMSL":230.2137,"alt":230.2137,"epx":2.840,"epy":4.246,"track":164.6800,"magtrack":166.5853,"magvar":1.9,"speed":0.030,"eps":8.49,"eph":6.460,"sep":7.932}
$GPZDA,172300.00,01,12,2017,00,00*67
$GPGGA,172300.00,4513.1142998,N,00548.4303150,E,2,06,1.36,230.22,M,48.648,M,,*69
$GPRMC,172300.00,A,4513.1142998,N,0548.4303150,E,0.0583,164.680,011217,1.9,E*54
$GPGSA,A,2,5,13,15,20,28,30,,,,,,,1.7,1.4,1.0*09
$GPGBS,172300.00,2.840,4.246,,,,,*62
{"class":"TPV","status":2,"mode":2,"time":"2017-12-01T17:23:00.000Z","leapseconds":18,"ept":0.005,"lat":45.218571664,"lon":5.807171917,"altHAE":278.8659,"altMSL":230.2181,"alt":230.2181,"epx":2.840,"epy":4.246,"track":164.6800,"magtrack":166.5853,"magvar":1.9,"speed":0.030,"eps":0.01,"eph":6.460,"sep":7.932}
{"class":"SKY","time":"2017-12-01T17:22:53.000Z","gdop":1.86,"hdop":1.36,"pdop":1.67,"tdop":0.83,"xdop":0.76,"ydop":1.13,"vdop":0.96}
{"class":"SKY","time":"2017-12-01T17:22:53.000Z","gdop":1.86,"hdop":1.36,"pdop":1.67,"tdop":0.83,"xdop":0.76,"ydop":1.13,"vdop":0.96}
$GPZDA,172300.00,01,12,2017,00,00*67
$GPGGA,172300.00,4513.1142998,N,00548.4303150,E,2,06,1.36,230.22,M,48.648,M,,*69
$GPRMC,172300.00,A,4513.1142998,N,0548.4303150,E,0.0583,164.680,011217,1.9,E*54
$GPGSA,A,2,5,13,15,20,28,30,,,,,,,1.7,1.4,1.0*09
$GPGBS,172300.00,2.840,4.246,,,,,*62
{"class":"TPV","status":2,"mode":2,"time":"2017-12-01T17:23:00.000Z","leapseconds":18,"ept":0.005,"lat":45.218571664,"lon":5.807171917,"altHAE":278.8659,"altMSL":230.2181,"alt":230.2181,"epx":2.840,"epy":4.246,"track":164.6800,"magtrack":166.5853,"magvar":1.9,"speed":0.030,"eps":8.49,"eph":6.460,"sep":7.932}
$GPZDA,172301.00,01,12,2017,00,00*66
$GPGGA,172301.00,4513.1143665,N,00548.4302832,E,2,06,1.36,230.22,M,48.648,M,,*68
$GPRMC,172301.00,A,4513.1143665,N,0548.4302832,E,0.0583,164.680,011217,1.9,E*55
$GPGSA,A,2,5,13,15,20,28,30,,,,,,,1.7,1.4,1.0*09
$GPGBS,172301.00,2.840,4.246,,,,,*63
{"class":"TPV","status":2,"mode":2,"time":"2017-12-01T17:23:01.000Z","leapseconds":18,"ept":0.005,"lat":45.218572775,"lon":5.807171387,"altHAE":278.8702,"altMSL":230.2223,"alt":230.2223,"epx":2.840,"epy":4.246,"track":164.6800,"magtrack":166.5853,"magvar":1.9,"speed":0.030,"eps":0.01,"eph":6.460,"sep":7.932}
{"class":"SKY","time":"2017-12-01T17:22:53.000Z","gdop":1.86,"hdop":1.36,"pdop":1.67,"tdop":0.83,"xdop":0.76,"ydop":1.13,"vdop":0.96}
{"class":"SKY","time":"2017-12-01T17:22:53.000Z","gdop":1.86,"hdop":1.36,"pdop":1.67,"tdop":0.83,"xdop":0.76,"ydop":1.13,"vdop":0.96}
$GPZDA,172301.00,01,12,2017,00,00*66
$GPGGA,172301.00,4513.1143665,N,00548.4302832,E,2,06,1.36,230.22,M,48.648,M,,*68
$GPRMC,172301.00,A,4513.1143665,N,0548.4302832,E,0.0583,164.680,011217,1.9,E*55
$GPGSA,A,2,5,13,15,20,28,30,,,,,,,1.7,1.4,1.0*09
$GPGBS,172301.00,2.840,4.246,,,,,*63
{"class":"TPV","status":2,"mode":2,"time":"2017-12-01T17:23:01.000Z","leapseconds":18,"ept":0.005,"lat":45.218572775,"lon":5.807171387,"altHAE":278.8702,"altMSL":230.2223,"alt":230.2223,"epx":2.840,"epy":4.246,"track":164.6800,"magtrack":166.5853,"magvar":1.9,"speed":0.030,"eps":8.49,"eph":6.460,"sep":7.932}
$GPZDA,172302.00,01,12,2017,00,00*65
$GPGGA,172302.00,4513.1144339,N,00548.4302362,E,2,06,1.36,230.23,M,48.648,M,,*6F
$GPRMC,172302.00,A,4513.1144339,N,0548.4302362,E,0.0583,164.680,011217,1.9,E*53
$GPGSA,A,2,5,13,15,20,28,30,,,,,,,1.7,1.4,1.0*09
$GPGBS,172302.00,2.840,4.246,,,,,*60
{"class":"TPV","status":2,"mode":2,"time":"2017-12-01T17:23:02.000Z","leapseconds":18,"ept":0.005,"lat":45.218573899,"lon":5.807170604,"altHAE":278.8730,"altMSL":230.2252,"alt":230.2252,"epx":2.840,"epy":4.246,"track":164.6800,"magtrack":166.5853,"magvar":1.9,"speed":0.030,"eps":0.01,"eph":6.460,"sep":7.932}
{"class":"SKY","time":"2017-12-01T17:22:53.000Z","gdop":1.86,"hdop":1.36,"pdop":1.67,"tdop":0.83,"xdop":0.76,"ydop":1.13,"vdop":0.96}
{"class":"SKY","time":"2017-12-01T17:22:53.000Z","gdop":1.86,"hdop":1.36,"pdop":1.67,"tdop":0.83,"xdop":0.76,"ydop":1.13,"vdop":0.96}
$GPZDA,172302.00,01,12,2017,00,00*65
$GPGGA,172302.00,4513.1144339,N,00548.4302362,E,2,06,1.36,230.23,M,48.648,M,,*6F
$GPRMC,172302.00,A,4513.1144339,N,0548.4302362,E,0.0583,164.680,011217,1.9,E*53
$GPGSA,A,2,5,13,15,20,28,30,,,,,,,1.7,1.4,1.0*09
$GPGBS,172302.00,2.840,4.246,,,,,*60
{"class":"TPV","status":2,"mode":2,"time":"2017-12-01T17:23:02.000Z","leapseconds":18,"ept":0.005,"lat":45.218573899,"lon":5.807170604,"altHAE":278.8730,"altMSL":230.2252,"alt":230.2252,"epx":2.840,"epy":4.246,"track":164.6800,"magtrack":166.5853,"magvar":1.9,"speed":0.030,"eps":8.49,"eph":6.460,"sep":7.932}
$GPZDA,172303.00,01,12,2017,00,00*64
$GPGGA,172303.00,4513.1144938,N,00548.4301884,E,2,07,1.36,230.23,M,48.648,M,,*64
$GPRMC,172303.00,A,4513.1144938,N,0548.4301884,E,0.0583,164.680,011217,1.9,E*59
$GPGSA,A,2,5,13,15,20,28,30,,,,,,,1.6,1.4,1.0*08
$GPGBS,172303.00,2.840,4.246,,,,,*61
{"class":"TPV","status":2,"mode":2,"time":"2017-12-01T17:23:03.000Z","leapseconds":18,"ept":0.005,"lat":45.218574896,"lon":5.807169807,"altHAE":278.8758,"altMSL":230.2279,"alt":230.2279,"epx":2.840,"epy":4.246,"track":164.6800,"magtrack":166.5853,"magvar":1.9,"speed":0.030,"eps":0.01,"eph":6.460,"sep":7.458}
{"class":"SKY","time":"2017-12-01T17:22:53.000Z","gdop":1.86,"hdop":1.36,"pdop":1.57,"tdop":0.83,"xdop":0.76,"ydop":1.13,"vdop":0.96}
$GPGSV,6,1,23,05,44,201,38,07,10,065,25,08,05,028,00,13,72,321,31*72
$GPGSV,6,2,23,15,40,301,25,17,02,130,00,18,03,326,00,20,44,281,22*7B
$GPGSV,6,3,23,21,06,304,00,24,09,253,20,28,56,086,35,30,37,061,23*76
$GPGSV,6,4,23,33,34,209,00,36,32,146,45,37,36,158,00,70,48,155,35*71
$GPGSV,6,5,23,71,74,308,21,72,22,324,00,73,76,251,31,74,21,228,20*7D
$GPGSV,6,6,23,80,44,037,27,81,07,032,25,88,04,346,00*4C
{"class":"SKY","time":"2017-12-01T17:23:03.000Z","gdop":1.86,"hdop":1.36,"pdop":1.57,"tdop":0.83,"xdop":0.76,"ydop":1.13,"vdop":0.96,"nSat":26,"uSat":7,"satellites":[{"PRN":5,"gnssid":0,"svid":5,"az":201.0,"el":44.0,"ss":38.0,"used":true,"health":1},{"PRN":7,"gnssid":0,"svid":7,"az":65.0,"el":10.0,"ss":25.0,"used":true,"health":1},{"PRN":8,"gnssid":0,"svid":8,"az":28.0,"el":5.0,"ss":0.0,"used":false,"health":1},{"PRN":13,"gnssid":0,"svid":13,"az":321.0,"el":72.0,"ss":31.0,"used":true,"health":1},{"PRN":15,"gnssid":0,"svid":15,"az":301.0,"el":40.0,"ss":25.0,"used":true,"health":1},{"PRN":17,"gnssid":0,"svid":17,"az":130.0,"el":2.0,"ss":0.0,"used":false,"health":1},{"PRN":18,"gnssid":0,"svid":18,"az":326.0,"el":3.0,"ss":0.0,"used":false,"health":1},{"PRN":20,"gnssid":0,"svid":20,"az":281.0,"el":44.0,"ss":22.0,"used":true,"health":1},{"PRN":21,"gnssid":0,"svid":21,"az":304.0,"el":6.0,"ss":0.0,"used":false,"health":1},{"PRN":24,"gnssid":0,"svid":24,"az":253.0,"el":9.0,"ss":20.0,"used":false,"health":1},{"PRN":28,"gnssid":0,"svid":28,"az":86.0,"el":56.0,"ss":35.0,"used":true,"health":1},{"PRN":30,"gnssid":0,"svid":30,"az":61.0,"el":37.0,"ss":23.0,"used":true,"health":1},{"PRN":33,"gnssid":1,"svid":120,"az":209.0,"el":34.0,"ss":0.0,"used":false,"health":1},{"PRN":36,"gnssid":1,"svid":123,"az":146.0,"el":32.0,"ss":45.0,"used":false,"health":1},{"PRN":37,"gnssid":1,"svid":124,"az":158.0,"el":36.0,"ss":0.0,"used":false,"health":2},{"PRN":193,"gnssid":5,"svid":1,"az":0.0,"ss":0.0,"used":false,"health":2},{"PRN":195,"gnssid":5,"svid":3,"az":0.0,"ss":0.0,"used":false,"health":2},{"PRN":197,"gnssid":5,"svid":5,"az":0.0,"ss":0.0,"used":false,"health":2},{"PRN":70,"gnssid":6,"svid":6,"az":155.0,"el":48.0,"ss":35.0,"used":false,"health":1},{"PRN":71,"gnssid":6,"svid":7,"az":308.0,"el":74.0,"ss":21.0,"used":false,"health":1},{"PRN":72,"gnssid":6,"svid":8,"az":324.0,"el":22.0,"ss":0.0,"used":false,"health":1},{"PRN":73,"gnssid":6,"svid":9,"az":251.0,"el":76.0,"ss":31.0,"used":false,"health":1},{"PRN":74,"gnssid":6,"svid":10,"az":228.0,"el":21.0,"ss":20.0,"used":false,"health":1},{"PRN":80,"gnssid":6,"svid":16,"az":37.0,"el":44.0,"ss":27.0,"used":false,"health":1},{"PRN":81,"gnssid":6,"svid":17,"az":32.0,"el":7.0,"ss":25.0,"used":false,"health":1},{"PRN":88,"gnssid":6,"svid":24,"az":346.0,"el":4.0,"ss":0.0,"used":false,"health":1}]}
{"class":"SKY","time":"2017-12-01T17:23:03.000Z","gdop":1.73,"hdop":1.29,"pdop":1.57,"tdop":0.73,"xdop":0.76,"ydop":1.13,"vdop":0.89}
$GPZDA,172303.00,01,12,2017,00,00*64
$GPGGA,172303.00,4513.1144938,N,00548.4301884,E,2,07,1.29,230.23,M,48.648,M,,*6A
$GPRMC,172303.00,A,4513.1144938,N,0548.4301884,E,0.0583,164.680,011217,1.9,E*59
$GPGSA,A,2,5,7,13,15,20,28,30,,,,,,1.6,1.3,0.9*30
$GPGBS,172303.00,2.840,4.246,,,,,*61
{"class":"TPV","status":2,"mode":2,"time":"2017-12-01T17:23:03.000Z","leapseconds":18,"ept":0.005,"lat":45.218574896,"lon":5.807169807,"altHAE":278.8758,"altMSL":230.2279,"alt":230.2279,"epx":2.840,"epy":4.246,"track":164.6800,"magtrack":166.5853,"magvar":1.9,"speed":0.030,"eps":8.49,"eph":6.460,"sep":7.458}
$GPZDA,172304.00,01,12,2017,00,00*63
$GPGGA,172304.00,4513.1145502,N,00548.4301323,E,2,07,1.29,230.24,M,48.648,M,,*68
$GPRMC,172304.00,A,4513.1145502,N,0548.4301323,E,0.0583,164.680,011217,1.9,E*5C
$GPGSA,A,2,5,7,13,15,20,28,30,,,,,,1.6,1.3,0.9*30
$GPGBS,172304.00,2.840,4.246,,,,,*66
{"class":"TPV","status":2,"mode":2,"time":"2017-12-01T17:23:04.000Z","leapseconds":18,"ept":0.005,"lat":45.218575836,"lon":5.807168871,"altHAE":278.8848,"altMSL":230.2369,"alt":230.2369,"epx":2.840,"epy":4.246,"track":164.6800,"magtrack":166.5853,"magvar":1.9,"speed":0.030,"eps":0.01,"eph":6.128,"sep":7.458}
{"class":"SKY","time":"2017-12-01T17:23:03.000Z","gdop":1.73,"hdop":1.29,"pdop":1.57,"tdop":0.73,"xdop":0.76,"ydop":1.13,"vdop":0.89}
{"class":"SKY","time":"2017-12-01T17:23:03.000Z","gdop":1.73,"hdop":1.29,"pdop":1.57,"tdop":0.73,"xdop":0.76,"ydop":1.13,"vdop":0.89}
$GPZDA,172305.00,01,12,2017,00,00*62
$GPGGA,172305.00,4513.1146028,N,00548.4300761,E,2,07,1.29,230.24,M,48.648,M,,*64
$GPRMC,172305.00,A,4513.1146028,N,0548.4300761,E,0.0583,164.680,011217,1.9,E*50
$GPGSA,A,2,5,7,13,15,20,28,30,,,,,,1.6,1.3,0.9*30
$GPGBS,172305.00,2.840,4.246,,,,,*67
{"class":"TPV","status":2,"mode":2,"time":"2017-12-01T17:23:05.000Z","leapseconds":18,"ept":0.005,"lat":45.218576713,"lon":5.807167935,"altHAE":278.8867,"altMSL":230.2389,"alt":230.2389,"epx":2.840,"epy":4.246,"track":164.6800,"magtrack":166.5853,"magvar":1.9,"speed":0.030,"eps":0.01,"eph":6.128,"sep":7.458}
{"class":"SKY","time":"2017-12-01T17:23:03.000Z","gdop":1.73,"hdop":1.29,"pdop":1.57,"tdop":0.73,"xdop":0.76,"ydop":1.13,"vdop":0.89}
{"class":"SKY","time":"2017-12-01T17:23:03.000Z","gdop":1.73,"hdop":1.29,"pdop":1.57,"tdop":0.73,"xdop":0.76,"ydop":1.13,"vdop":0.89}
$GPZDA,172305.00,01,12,2017,00,00*62
$GPGGA,172305.00,4513.1146028,N,00548.4300761,E,2,07,1.29,230.24,M,48.648,M,,*64
$GPRMC,172305.00,A,4513.1146028,N,0548.4300761,E,0.0583,164.680,011217,1.9,E*50
$GPGSA,A,2,5,7,13,15,20,28,30,,,,,,1.6,1.3,0.9*30
$GPGBS,172305.00,2.840,4.246,,,,,*67
{"class":"TPV","status":2,"mode":2,"time":"2017-12-01T17:23:05.000Z","leapseconds":18,"ept":0.005,"lat":45.218576713,"lon":5.807167935,"altHAE":278.8867,"altMSL":230.2389,"alt":230.2389,"epx":2.840,"epy":4.246,"track":164.6800,"magtrack":166.5853,"magvar":1.9,"speed":0.030,"eps":8.49,"eph":6.128,"sep":7.458}
$GPZDA,172306.00,01,12,2017,00,00*61
$GPGGA,172306.00,4513.1146630,N,00548.4300215,E,2,07,1.29,230.23,M,48.648,M,,*69
$GPRMC,172306.00,A,4513.1146630,N,0548.4300215,E,0.0459,157.771,011217,1.9,E*53
$GPGSA,A,2,5,7,13,15,20,28,30,,,,,,1.6,1.3,0.9*30
$GPGBS,172306.00,2.840,4.246,,,,,*64
{"class":"TPV","status":2,"mode":2,"time":"2017-12-01T17:23:06.000Z","leapseconds":18,"ept":0.005,"lat":45.218577716,"lon":5.807167025,"altHAE":278.8747,"altMSL":230.2268,"alt":230.2268,"epx":2.840,"epy":4.246,"track":157.7713,"magtrack":159.6766,"magvar":1.9,"speed":0.024,"eps":0.01,"eph":6.128,"sep":7.458}
{"class":"SKY","time":"2017-12-01T17:23:03.000Z","gdop":1.73,"hdop":1.29,"pdop":1.57,"tdop":0.73,"xdop":0.76,"ydop":1.13,"vdop":0.89}
{"class":"SKY","time":"2017-12-01T17:23:03.000Z","gdop":1.73,"hdop":1.29,"pdop":1.57,"tdop":0.73,"xdop":0.76,"ydop":1.13,"vdop":0.89}
$GPZDA,172306.00,01,12,2017,00,00*61
$GPGGA,172306.00,4513.1146630,N,00548.4300215,E,2,07,1.29,230.23,M,48.648,M,,*69
$GPRMC,172306.00,A,4513.1146630,N,0548.4300215,E,0.0459,157.771,011217,1.9,E*53
$GPGSA,A,2,5,7,13,15,20,28,30,,,,,,1.6,1.3,0.9*30
$GPGBS,172306.00,2.840,4.246,,,,,*64
{"class":"TPV","status":2,"mode":2,"time":"2017-12-01T17:23:06.000Z","leapseconds":18,"ept":0.005,"lat":45.218577716,"lon":5.807167025,"altHAE":278.8747,"altMSL":230.2268,"alt":230.2268,"epx":2.840,"epy":4.246,"track":157.7713,"magtrack":159.6766,"magvar":1.9,"speed":0.024,"eps":8.49,"eph":6.128,"sep":7.458}
$GPZDA,172307.00,01,12,2017,00,00*60
$GPGGA,172307.00,4513.1147194,N,00548.4299661,E,2,07,1.29,230.22,M,48.648,M,,*67
$GPRMC,172307.00,A,4513.1147194,N,0548.4299661,E,0.0459,157.771,011217,1.9,E*5C
$GPGSA,A,2,5,7,13,15,20,28,30,,,,,,1.6,1.3,0.9*30
$GPGBS,172307.00,2.840,4.246,,,,,*65
{"class":"TPV","status":2,"mode":2,"time":"2017-12-01T17:23:07.000Z","leapseconds":18,"ept":0.005,"lat":45.218578656,"lon":5.807166102,"altHAE":278.8696,"altMSL":230.2217,"alt":230.2217,"epx":2.840,"epy":4.246,"track":157.7713,"magtrack":159.6766,"magvar":1.9,"speed":0.024,"eps":0.01,"eph":6.128,"sep":7.458}
{"class":"SKY","time":"2017-12-01T17:23:03.000Z","gdop":1.73,"hdop":1.29,"pdop":1.57,"tdop":0.73,"xdop":0.76,"ydop":1.13,"vdop":0.89}
{"class":"SKY","time":"2017-12-01T17:23:03.000Z","gdop":1.73,"hdop":1.29,"pdop":1.57,"tdop":0.73,"xdop":0.76,"ydop":1.13,"vdop":0.89}
$GPZDA,172307.00,01,12,2017,00,00*60
$GPGGA,172307.00,4513.1147194,N,00548.4299661,E,2,07,1.29,230.22,M,48.648,M,,*67
$GPRMC,172307.00,A,4513.1147194,N,0548.4299661,E,0.0459,157.771,011217,1.9,E*5C
$GPGSA,A,2,5,7,13,15,20,28,30,,,,,,1.6,1.3,0.9*30
$GPGBS,172307.00,2.840,4.246,,,,,*65
{"class":"TPV","status":2,"mode":2,"time":"2017-12-01T17:23:07.000Z","leapseconds":18,"ept":0.005,"lat":45.218578656,"lon":5.807166102,"altHAE":278.8696,"altMSL":230.2217,"alt":230.2217,"epx":2.840,"epy":4.246,"track":157.7713,"magtrack":159.6766,"magvar":1.9,"speed":0.024,"eps":8.49,"eph":6.128,"sep":7.458}
$GPZDA,172308.00,01,12,2017,00,00*6F
$GPGGA,172308.00,4513.1148211,N,00548.4299245,E,2,07,1.29,230.19,M,48.648,M,,*63
$GPRMC,172308.00,A,4513.1148211,N,0548.4299245,E,0.0336,148.915,011217,1.9,E*5C
$GPGSA,A,2,5,7,13,15,20,28,30,,,,,,1.6,1.3,0.9*30
$GPGBS,172308.00,2.840,4.246,,,,,*6A
{"class":"TPV","status":2,"mode":2,"time":"2017-12-01T17:23:08.000Z","leapseconds":18,"ept":0.005,"lat":45.218580352,"lon":5.807165409,"altHAE":278.8376,"altMSL":230.1897,"alt":230.1897,"epx":2.840,"epy":4.246,"track":148.9153,"magtrack":150.8206,"magvar":1.9,"speed":0.017,"eps":0.01,"eph":6.128,"sep":7.458}
{"class":"SKY","time":"2017-12-01T17:23:03.000Z","gdop":1.73,"hdop":1.29,"pdop":1.57,"tdop":0.73,"xdop":0.76,"ydop":1.13,"vdop":0.89}
{"class":"SKY","time":"2017-12-01T17:23:03.000Z","gdop":1.73,"hdop":1.29,"pdop":1.57,"tdop":0.73,"xdop":0.76,"ydop":1.13,"vdop":0.89}
$GPZDA,172308.00,01,12,2017,00,00*6F
$GPGGA,172308.00,4513.1148211,N,00548.4299245,E,2,07,1.29,230.19,M,48.648,M,,*63
$GPRMC,172308.00,A,4513.1148211,N,0548.4299245,E,0.0336,148.915,011217,1.9,E*5C
$GPGSA,A,2,5,7,13,15,20,28,30,,,,,,1.6,1.3,0.9*30
$GPGBS,172308.00,2.840,4.246,,,,,*6A
{"class":"TPV","status":2,"mode":2,"time":"2017-12-01T17:23:08.000Z","leapseconds":18,"ept":0.005,"lat":45.218580352,"lon":5.807165409,"altHAE":278.8376,"altMSL":230.1897,"alt":230.1897,"epx":2.840,"epy":4.246,"track":148.9153,"magtrack":150.8206,"magvar":1.9,"speed":0.017,"eps":8.49,"eph":6.128,"sep":7.458}
$GPZDA,172309.00,01,12,2017,00,00*6E
$GPGGA,172309.00,4513.1149072,N,00548.4298874,E,2,07,1.29,230.19,M,48.648,M,,*6D
$GPRMC,172309.00,A,4513.1149072,N,0548.4298874,E,0.0336,148.915,011217,1.9,E*52
$GPGSA,A,2,5,7,13,15,20,28,30,,,,,,1.6,1.3,0.9*30
$GPGBS,172309.00,2.840,4.246,,,,,*6B
{"class":"TPV","status":2,"mode":2,"time":"2017-12-01T17:23:09.000Z","leapseconds":18,"ept":0.005,"lat":45.218581787,"lon":5.807164790,"altHAE":278.8343,"altMSL":230.1864,"alt":230.1864,"epx":2.840,"epy":4.246,"track":148.9153,"magtrack":150.8206,"magvar":1.9,"speed":0.017,"eps":0.01,"eph":6.128,"sep":7.458}
{"class":"SKY","time":"2017-12-01T17:23:03.000Z","gdop":1.73,"hdop":1.29,"pdop":1.57,"tdop":0.73,"xdop":0.76,"ydop":1.13,"vdop":0.89}
{"class":"SKY","time":"2017-12-01T17:23:03.000Z","gdop":1.73,"hdop":1.29,"pdop":1.57,"tdop":0.73,"xdop":0.76,"ydop":1.13,"vdop":0.89}
$GPZDA,172309.00,01,12,2017,00,00*6E
$GPGGA,172309.00,4513.1149072,N,00548.4298874,E,2,07,1.29,230.19,M,48.648,M,,*6D
$GPRMC,172309.00,A,4513.1149072,N,0548.4298874,E,0.0336,148.915,011217,1.9,E*52
$GPGSA,A,2,5,7,13,15,20,28,30,,,,,,1.6,1.3,0.9*30
$GPGBS,172309.00,2.840,4.246,,,,,*6B
{"class":"TPV","status":2,"mode":2,"time":"2017-12-01T17:23:09.000Z","leapseconds":18,"ept":0.005,"lat":45.218581787,"lon":5.807164790,"altHAE":278.8343,"altMSL":230.1864,"alt":230.1864,"epx":2.840,"epy":4.246,"track":148.9153,"magtrack":150.8206,"magvar":1.9,"speed":0.017,"eps":8.49,"eph":6.128,"sep":7.458}
$GPZDA,172310.00,01,12,2017,00,00*66
$GPGGA,172310.00,4513.1149864,N,00548.4298336,E,2,07,1.29,230.20,M,48.648,M,,*6D
$GPRMC,172310.00,A,4513.1149864,N,0548.4298336,E,0.0336,148.915,011217,1.9,E*58
$GPGSA,A,2,5,7,13,15,20,28,30,,,,,,1.6,1.3,0.9*30
$GPGBS,172310.00,2.840,4.246,,,,,*63
{"class":"TPV","status":2,"mode":2,"time":"2017-12-01T17:23:10.000Z","leapseconds":18,"ept":0.005,"lat":45.218583107,"lon":5.807163893,"altHAE":278.8436,"altMSL":230.1957,"alt":230.1957,"epx":2.840,"epy":4.246,"track":148.9153,"magtrack":150.8206,"magvar":1.9,"speed":0.017,"eps":0.01,"eph":6.128,"sep":7.458}
{"class":"SKY","time":"2017-12-01T17:23:03.000Z","gdop":1.73,"hdop":1.29,"pdop":1.57,"tdop":0.73,"xdop":0.76,"ydop":1.13,"vdop":0.89}
{"class":"SKY","time":"2017-12-01T17:23:03.000Z","gdop":1.73,"hdop":1.29,"pdop":1.57,"tdop":0.73,"xdop":0.76,"ydop":1.13,"vdop":0.89}
$GPZDA,172310.00,01,12,2017,00,00*66
$GPGGA,172310.00,4513.1149864,N,00548.4298336,E,2,07,1.29,230.20,M,48.648,M,,*6D
$GPRMC,172310.00,A,4513.1149864,N,0548.4298336,E,0.0336,148.915,011217,1.9,E*58
$GPGSA,A,2,5,7,13,15,20,28,30,,,,,,1.6,1.3,0.9*30
$GPGBS,172310.00,2.840,4.246,,,,,*63
{"class":"TPV","status":2,"mode":2,"time":"2017-12-01T17:23:10.000Z","leapseconds":18,"ept":0.005,"lat":45.218583107,"lon":5.807163893,"altHAE":278.8436,"altMSL":230.1957,"alt":230.1957,"epx":2.840,"epy":4.246,"track":148.9153,"magtrack":150.8206,"magvar":1.9,"speed":0.017,"eps":8.49,"eph":6.128,"sep":7.458}
$GPZDA,172311.00,01,12,2017,00,00*67
$GPGGA,172311.00,4513.1150535,N,00548.4297942,E,2,07,1.29,230.20,M,48.648,M,,*6B
$GPRMC,172311.00,A,4513.1150535,N,0548.4297942,E,0.0336,148.915,011217,1.9,E*5E
$GPGSA,A,2,5,7,13,15,20,28,30,,,,,,1.6,1.3,0.9*30
$GPGBS,172311.00,2.840,4.246,,,,,*62
{"class":"TPV","status":2,"mode":2,"time":"2017-12-01T17:23:11.000Z","leapseconds":18,"ept":0.005,"lat":45.218584225,"lon":5.807163236,"altHAE":278.8471,"altMSL":230.1993,"alt":230.1993,"epx":2.840,"epy":4.246,"track":148.9153,"magtrack":150.8206,"magvar":1.9,"speed":0.017,"eps":0.01,"eph":6.128,"sep":7.458}
{"class":"SKY","time":"2017-12-01T17:23:03.000Z","gdop":1.73,"hdop":1.29,"pdop":1.57,"tdop":0.73,"xdop":0.76,"ydop":1.13,"vdop":0.89}
{"class":"SKY","time":"2017-12-01T17:23:03.000Z","gdop":1.73,"hdop":1.29,"pdop":1.57,"tdop":0.73,"xdop":0.76,"ydop":1.13,"vdop":0.89}
$GPZDA,172311.00,01,12,2017,00,00*67
$GPGGA,172311.00,4513.1150535,N,00548.4297942,E,2,07,1.29,230.20,M,48.648,M,,*6B
$GPRMC,172311.00,A,4513.1150535,N,0548.4297942,E,0.0336,148.915,011217,1.9,E*5E
$GPGSA,A,2,5,7,13,15,20,28,30,,,,,,1.6,1.3,0.9*30
$GPGBS,172311.00,2.840,4.246,,,,,*62
{"class":"TPV","status":2,"mode":2,"time":"2017-12-01T17:23:11.000Z","leapseconds":18,"ept":0.005,"lat":45.218584225,"lon":5.807163236,"altHAE":278.8471,"altMSL":230.1993,"alt":230.1993,"epx":2.840,"epy":4.246,"track":148.9153,"magtrack":150.8206,"magvar":1.9,"speed":0.017,"eps":8.49,"eph":6.128,"sep":7.458}
$GPZDA,172312.00,01,12,2017,00,00*64
$GPGGA,172312.00,4513.1151015,N,00548.4297524,E,2,07,1.29,230.21,M,48.648,M,,*63
$GPRMC,172312.00,A,4513.1151015,N,0548.4297524,E,0.0336,148.915,011217,1.9,E*57
$GPGSA,A,2,5,7,13,15,20,28,30,,,,,,1.6,1.3,0.9*30
$GPGBS,172312.00,2.840,4.246,,,,,*61
{"class":"TPV","status":2,"mode":2,"time":"2017-12-01T17:23:12.000Z","leapseconds":18,"ept":0.005,"lat":45.218585025,"lon":5.807162541,"altHAE":278.8575,"altMSL":230.2096,"alt":230.2096,"epx":2.840,"epy":4.246,"track":148.9153,"magtrack":150.8206,"magvar":1.9,"speed":0.017,"eps":0.01,"eph":6.128,"sep":7.458}
{"class":"SKY","time":"2017-12-01T17:23:03.000Z","gdop":1.73,"hdop":1.29,"pdop":1.57,"tdop":0.73,"xdop":0.76,"ydop":1.13,"vdop":0.89}
{"class":"SKY","time":"2017-12-01T17:23:03.000Z","gdop":1.73,"hdop":1.29,"pdop":1.57,"tdop":0.73,"xdop":0.76,"ydop":1.13,"vdop":0.89}
$GPZDA,172312.00,01,12,2017,00,00*64
$GPGGA,172312.00,4513.1151015,N,00548.4297524,E,2,07,1.29,230.21,M,48.648,M,,*63
$GPRMC,172312.00,A,4513.1151015,N,0548.4297524,E,0.0336,148.915,011217,1.9,E*57
$GPGSA,A,2,5,7,13,15,20,28,30,,,,,,1.6,1.3,0.9*30
$GPGBS,172312.00,2.840,4.246,,,,,*61
{"class":"TPV","status":2,"mode":2,"time":"2017-12-01T17:23:12.000Z","leapseconds":18,"ept":0.005,"lat":45.218585025,"lon":5.807162541,"altHAE":278.8575,"altMSL":230.2096,"alt":230.2096,"epx":2.840,"epy":4.246,"track":148.9153,"magtrack":150.8206,"magvar":1.9,"speed":0.017,"eps":8.49,"eph":6.128,"sep":7.458}
$GPZDA,172313.00,01,12,2017,00,00*65
$GPGGA,172313.00,4513.1151613,N,00548.4297039,E,2,07,1.29,230.23,M,48.648,M,,*69
$GPRMC,172313.00,A,4513.1151613,N,0548.4297039,E,0.0336,148.915,011217,1.9,E*5F
$GPGSA,A,2,5,7,13,15,20,28,30,,,,,,1.6,1.3,0.9*30
$GPGBS,172313.00,2.840,4.246,,,,,*60
{"class":"TPV","status":2,"mode":2,"time":"2017-12-01T17:23:13.000Z","leapseconds":18,"ept":0.005,"lat":45.218586022,"lon":5.807161732,"altHAE":278.8743,"altMSL":230.2265,"alt":230.2265,"epx":2.840,"epy":4.246,"track":148.9153,"magtrack":150.8206,"magvar":1.9,"speed":0.017,"eps":0.01,"eph":6.128,"sep":7.458}
{"class":"SKY","time":"2017-12-01T17:23:03.000Z","gdop":1.73,"hdop":1.29,"pdop":1.57,"tdop":0.73,"xdop":0.76,"ydop":1.13,"vdop":0.89}
$GPGSV,6,1,23,05,44,201,39,07,10,065,26,08,05,028,00,13,72,321,31*70
$GPGSV,6,2,23,15,40,301,27,17,02,130,00,18,03,326,00,20,44,281,23*78
$GPGSV,6,3,23,21,06,304,00,24,09,253,19,28,56,086,34,30,37,061,21*7F
$GPGSV,6,4,23,33,34,209,00,36,32,146,45,37,36,158,00,70,48,155,35*71
$GPGSV,6,5,23,71,74,308,18,72,22,324,00,73,76,251,32,74,21,228,23*77
$GPGSV,6,6,23,80,44,037,27,81,07,032,23,88,04,346,00*4A
