$GPZDA,181855.50,10,06,2021,00,00*65
$GPGGA,181855.50,5008.1051,N,01425.7968,E,1,00,,304.59,M,44.594,M,,*7E
$GPRMC,181855.50,A,5008.1051,N,01425.7968,E,0.0564,0.000,100621,4.2,E*62
$GPGSA,A,3,,,,,,,,,,,,,,,*1C
{"class":"TPV","mode":3,"time":"2021-06-10T18:18:55.500Z","ept":0.005,"lat":50.135085100,"lon":14.429946600,"altHAE":348.8570,"altMSL":304.5870,"alt":304.5870,"epv":4.903,"track":0.0000,"magtrack":4.1640,"magvar":4.2,"speed":0.029,"eps":0.31,"geoidSep":44.594,"eph":2.517}
$GPGSV,6,1,21,01,56,148,33,03,83,352,33,04,49,198,31,06,09,311,00*79
$GPGSV,6,2,21,09,16,215,23,12,02,355,00,17,40,270,27,19,33,300,29*77
$GPGSV,6,3,21,21,36,147,32,22,61,083,35,31,29,079,19,32,01,045,00*7E
$GPGSV,6,4,21,69,40,047,26,70,70,270,00,71,21,242,00,77,00,341,00*76
$GPGSV,6,5,21,78,16,029,00,79,12,079,00,84,25,168,00,85,71,244,18*7D
$GPGSV,6,6,21,86,36,323,00*43
{"class":"SKY","time":"2019-04-11T18:18:55.500Z","xdop":0.72,"ydop":0.83,"vdop":2.23,"tdop":1.72,"hdop":1.10,"gdop":3.02,"pdop":2.48,"nSat":21,"uSat":9,"satellites":[{"PRN":1,"el":56.0,"az":148.0,"ss":33.0,"used":true,"gnssid":0,"svid":1,"health":1},{"PRN":3,"el":83.0,"az":352.0,"ss":33.0,"used":true,"gnssid":0,"svid":3,"health":1},{"PRN":4,"el":49.0,"az":198.0,"ss":31.0,"used":true,"gnssid":0,"svid":4,"health":1},{"PRN":6,"el":9.0,"az":311.0,"ss":0.0,"used":false,"gnssid":0,"svid":6,"health":1},{"PRN":9,"el":16.0,"az":215.0,"ss":23.0,"used":false,"gnssid":0,"svid":9,"health":1},{"PRN":12,"el":2.0,"az":355.0,"ss":0.0,"used":false,"gnssid":0,"svid":12,"health":1},{"PRN":17,"el":40.0,"az":270.0,"ss":27.0,"used":true,"gnssid":0,"svid":17,"health":1},{"PRN":19,"el":33.0,"az":300.0,"ss":29.0,"used":true,"gnssid":0,"svid":19,"health":1},{"PRN":21,"el":36.0,"az":147.0,"ss":32.0,"used":true,"gnssid":0,"svid":21,"health":1},{"PRN":22,"el":61.0,"az":83.0,"ss":35.0,"used":true,"gnssid":0,"svid":22,"health":1},{"PRN":31,"el":29.0,"az":79.0,"ss":19.0,"used":false,"gnssid":0,"svid":31,"health":1},{"PRN":32,"el":1.0,"az":45.0,"ss":0.0,"used":false,"gnssid":0,"svid":32,"health":1},{"PRN":69,"el":40.0,"az":47.0,"ss":26.0,"used":true,"gnssid":6,"svid":5,"health":1},{"PRN":70,"el":70.0,"az":270.0,"ss":0.0,"used":false,"gnssid":6,"svid":6,"health":1},{"PRN":71,"el":21.0,"az":242.0,"ss":0.0,"used":false,"gnssid":6,"svid":7,"health":1},{"PRN":77,"el":0.0,"az":341.0,"ss":0.0,"used":false,"gnssid":6,"svid":13,"health":1},{"PRN":78,"el":16.0,"az":29.0,"ss":0.0,"used":false,"gnssid":6,"svid":14,"health":1},{"PRN":79,"el":12.0,"az":79.0,"ss":0.0,"used":false,"gnssid":6,"svid":15,"health":1},{"PRN":84,"el":25.0,"az":168.0,"ss":0.0,"used":false,"gnssid":6,"svid":20,"health":1},{"PRN":85,"el":71.0,"az":244.0,"ss":18.0,"used":true,"gnssid":6,"svid":21,"health":1},{"PRN":86,"el":36.0,"az":323.0,"ss":0.0,"used":false,"gnssid":6,"svid":22,"health":1}]}
$GPZDA,181855.75,10,06,2021,00,00*62
$GPGGA,181855.75,5008.1051,N,01425.7968,E,1,09,1.09,304.57,M,44.594,M,,*68
$GPRMC,181855.75,A,5008.1051,N,01425.7968,E,0.0486,0.000,100621,4.2,E*68
$GPGSA,A,3,1,3,4,17,19,21,22,,,,,,2.5,1.1,2.2*0E
$GPGBS,181855.75,10.737,12.477,4.901,,,,*4A
{"class":"TPV","mode":3,"time":"2021-06-10T18:18:55.750Z","leapseconds":18,"ept":0.005,"lat":50.135085000,"lon":14.429946600,"altHAE":348.8390,"altMSL":304.5680,"alt":304.5680,"epx":10.737,"epy":12.477,"epv":4.901,"track":0.0000,"magtrack":4.1640,"magvar":4.2,"speed":0.025,"climb":-0.072,"eps":0.38,"epc":39.22,"geoidSep":44.594,"eph":2.517,"sep":47.310}
$GPGSV,6,1,21,01,56,148,33,03,83,352,33,04,49,198,30,06,09,311,00*78
$GPGSV,6,2,21,09,16,215,23,12,02,355,00,17,40,270,27,19,33,300,29*77
$GPGSV,6,3,21,21,36,147,33,22,61,083,35,31,29,079,19,32,01,045,00*7F
$GPGSV,6,4,21,69,40,047,26,70,70,270,00,71,21,242,00,77,00,341,00*76
$GPGSV,6,5,21,78,16,029,00,79,12,079,00,84,25,168,00,85,71,244,18*7D
$GPGSV,6,6,21,86,36,323,00*43
{"class":"SKY","time":"2021-06-10T18:18:55.750Z","xdop":0.72,"ydop":0.83,"vdop":2.23,"tdop":1.72,"hdop":1.09,"gdop":3.02,"pdop":2.49,"nSat":21,"uSat":9,"satellites":[{"PRN":1,"el":56.0,"az":148.0,"ss":33.0,"used":true,"gnssid":0,"svid":1,"health":1},{"PRN":3,"el":83.0,"az":352.0,"ss":33.0,"used":true,"gnssid":0,"svid":3,"health":1},{"PRN":4,"el":49.0,"az":198.0,"ss":30.0,"used":true,"gnssid":0,"svid":4,"health":1},{"PRN":6,"el":9.0,"az":311.0,"ss":0.0,"used":false,"gnssid":0,"svid":6,"health":1},{"PRN":9,"el":16.0,"az":215.0,"ss":23.0,"used":false,"gnssid":0,"svid":9,"health":1},{"PRN":12,"el":2.0,"az":355.0,"ss":0.0,"used":false,"gnssid":0,"svid":12,"health":1},{"PRN":17,"el":40.0,"az":270.0,"ss":27.0,"used":true,"gnssid":0,"svid":17,"health":1},{"PRN":19,"el":33.0,"az":300.0,"ss":29.0,"used":true,"gnssid":0,"svid":19,"health":1},{"PRN":21,"el":36.0,"az":147.0,"ss":33.0,"used":true,"gnssid":0,"svid":21,"health":1},{"PRN":22,"el":61.0,"az":83.0,"ss":35.0,"used":true,"gnssid":0,"svid":22,"health":1},{"PRN":31,"el":29.0,"az":79.0,"ss":19.0,"used":false,"gnssid":0,"svid":31,"health":1},{"PRN":32,"el":1.0,"az":45.0,"ss":0.0,"used":false,"gnssid":0,"svid":32,"health":1},{"PRN":69,"el":40.0,"az":47.0,"ss":26.0,"used":true,"gnssid":6,"svid":5,"health":1},{"PRN":70,"el":70.0,"az":270.0,"ss":0.0,"used":false,"gnssid":6,"svid":6,"health":1},{"PRN":71,"el":21.0,"az":242.0,"ss":0.0,"used":false,"gnssid":6,"svid":7,"health":1},{"PRN":77,"el":0.0,"az":341.0,"ss":0.0,"used":false,"gnssid":6,"svid":13,"health":1},{"PRN":78,"el":16.0,"az":29.0,"ss":0.0,"used":false,"gnssid":6,"svid":14,"health":1},{"PRN":79,"el":12.0,"az":79.0,"ss":0.0,"used":false,"gnssid":6,"svid":15,"health":1},{"PRN":84,"el":25.0,"az":168.0,"ss":0.0,"used":false,"gnssid":6,"svid":20,"health":1},{"PRN":85,"el":71.0,"az":244.0,"ss":18.0,"used":true,"gnssid":6,"svid":21,"health":1},{"PRN":86,"el":36.0,"az":323.0,"ss":0.0,"used":false,"gnssid":6,"svid":22,"health":1}]}
$GPZDA,181856.00,10,06,2021,00,00*63
$GPGGA,181856.00,5008.1051,N,01425.7968,E,1,09,1.09,304.59,M,44.594,M,,*67
$GPRMC,181856.00,A,5008.1051,N,01425.7968,E,0.0272,0.000,100621,4.2,E*64
$GPGSA,A,3,1,3,4,17,19,21,22,,,,,,2.5,1.1,2.2*0E
$GPGBS,181856.00,10.737,12.477,4.900,,,,*4A
{"class":"TPV","mode":3,"time":"2021-06-10T18:18:56.000Z","leapseconds":18,"ept":0.005,"lat":50.135085000,"lon":14.429946700,"altHAE":348.8610,"altMSL":304.5910,"alt":304.5910,"epx":10.737,"epy":12.477,"epv":4.900,"track":0.0000,"magtrack":4.1640,"magvar":4.2,"speed":0.014,"climb":0.088,"eps":0.28,"epc":39.20,"geoidSep":44.594,"eph":2.517,"sep":47.310}
$GPGSV,6,1,21,01,56,148,33,03,83,352,33,04,49,198,30,06,09,311,00*78
$GPGSV,6,2,21,09,16,215,23,12,02,355,00,17,40,270,27,19,33,300,29*77
$GPGSV,6,3,21,21,36,147,33,22,61,083,35,31,29,079,19,32,01,045,00*7F
$GPGSV,6,4,21,69,40,047,26,70,70,270,00,71,21,242,00,77,00,341,00*76
$GPGSV,6,5,21,78,16,029,00,79,12,079,00,84,25,168,00,85,71,244,18*7D
$GPGSV,6,6,21,86,36,323,00*43
{"class":"SKY","time":"2021-06-10T18:18:56.000Z","xdop":0.72,"ydop":0.83,"vdop":2.23,"tdop":1.72,"hdop":1.09,"gdop":3.02,"pdop":2.49,"nSat":21,"uSat":9,"satellites":[{"PRN":1,"el":56.0,"az":148.0,"ss":33.0,"used":true,"gnssid":0,"svid":1,"health":1},{"PRN":3,"el":83.0,"az":352.0,"ss":33.0,"used":true,"gnssid":0,"svid":3,"health":1},{"PRN":4,"el":49.0,"az":198.0,"ss":30.0,"used":true,"gnssid":0,"svid":4,"health":1},{"PRN":6,"el":9.0,"az":311.0,"ss":0.0,"used":false,"gnssid":0,"svid":6,"health":1},{"PRN":9,"el":16.0,"az":215.0,"ss":23.0,"used":false,"gnssid":0,"svid":9,"health":1},{"PRN":12,"el":2.0,"az":355.0,"ss":0.0,"used":false,"gnssid":0,"svid":12,"health":1},{"PRN":17,"el":40.0,"az":270.0,"ss":27.0,"used":true,"gnssid":0,"svid":17,"health":1},{"PRN":19,"el":33.0,"az":300.0,"ss":29.0,"used":true,"gnssid":0,"svid":19,"health":1},{"PRN":21,"el":36.0,"az":147.0,"ss":33.0,"used":true,"gnssid":0,"svid":21,"health":1},{"PRN":22,"el":61.0,"az":83.0,"ss":35.0,"used":true,"gnssid":0,"svid":22,"health":1},{"PRN":31,"el":29.0,"az":79.0,"ss":19.0,"used":false,"gnssid":0,"svid":31,"health":1},{"PRN":32,"el":1.0,"az":45.0,"ss":0.0,"used":false,"gnssid":0,"svid":32,"health":1},{"PRN":69,"el":40.0,"az":47.0,"ss":26.0,"used":true,"gnssid":6,"svid":5,"health":1},{"PRN":70,"el":70.0,"az":270.0,"ss":0.0,"used":false,"gnssid":6,"svid":6,"health":1},{"PRN":71,"el":21.0,"az":242.0,"ss":0.0,"used":false,"gnssid":6,"svid":7,"health":1},{"PRN":77,"el":0.0,"az":341.0,"ss":0.0,"used":false,"gnssid":6,"svid":13,"health":1},{"PRN":78,"el":16.0,"az":29.0,"ss":0.0,"used":false,"gnssid":6,"svid":14,"health":1},{"PRN":79,"el":12.0,"az":79.0,"ss":0.0,"used":false,"gnssid":6,"svid":15,"health":1},{"PRN":84,"el":25.0,"az":168.0,"ss":0.0,"used":false,"gnssid":6,"svid":20,"health":1},{"PRN":85,"el":71.0,"az":244.0,"ss":18.0,"used":true,"gnssid":6,"svid":21,"health":1},{"PRN":86,"el":36.0,"az":323.0,"ss":0.0,"used":false,"gnssid":6,"svid":22,"health":1}]}
$GPZDA,181856.25,10,06,2021,00,00*64
$GPGGA,181856.25,5008.1051,N,01425.7968,E,1,09,1.09,304.63,M,44.594,M,,*69
$GPRMC,181856.25,A,5008.1051,N,01425.7968,E,0.0739,0.000,100621,4.2,E*69
$GPGSA,A,3,1,3,4,17,19,21,22,,,,,,2.5,1.1,2.2*0E
$GPGBS,181856.25,10.737,12.477,4.899,,,,*4C
{"class":"TPV","mode":3,"time":"2021-06-10T18:18:56.250Z","leapseconds":18,"ept":0.005,"lat":50.135084700,"lon":14.429946800,"altHAE":348.8970,"altMSL":304.6270,"alt":304.6270,"epx":10.737,"epy":12.477,"epv":4.899,"track":0.0000,"magtrack":4.1640,"magvar":4.2,"speed":0.038,"climb":0.144,"eps":0.36,"epc":39.20,"geoidSep":44.594,"eph":2.516,"sep":47.310}
$GPGSV,6,1,21,01,56,148,33,03,83,352,33,04,49,198,31,06,09,311,00*79
$GPGSV,6,2,21,09,16,215,23,12,02,355,00,17,40,270,27,19,33,300,29*77
$GPGSV,6,3,21,21,36,147,32,22,61,083,35,31,29,079,19,32,01,045,00*7E
$GPGSV,6,4,21,69,40,047,26,70,70,270,00,71,21,242,00,77,00,341,00*76
$GPGSV,6,5,21,78,16,029,00,79,12,079,00,84,25,168,00,85,71,244,18*7D
$GPGSV,6,6,21,86,36,323,00*43
{"class":"SKY","time":"2021-06-10T18:18:56.250Z","xdop":0.72,"ydop":0.83,"vdop":2.23,"tdop":1.72,"hdop":1.09,"gdop":3.02,"pdop":2.49,"nSat":21,"uSat":9,"satellites":[{"PRN":1,"el":56.0,"az":148.0,"ss":33.0,"used":true,"gnssid":0,"svid":1,"health":1},{"PRN":3,"el":83.0,"az":352.0,"ss":33.0,"used":true,"gnssid":0,"svid":3,"health":1},{"PRN":4,"el":49.0,"az":198.0,"ss":31.0,"used":true,"gnssid":0,"svid":4,"health":1},{"PRN":6,"el":9.0,"az":311.0,"ss":0.0,"used":false,"gnssid":0,"svid":6,"health":1},{"PRN":9,"el":16.0,"az":215.0,"ss":23.0,"used":false,"gnssid":0,"svid":9,"health":1},{"PRN":12,"el":2.0,"az":355.0,"ss":0.0,"used":false,"gnssid":0,"svid":12,"health":1},{"PRN":17,"el":40.0,"az":270.0,"ss":27.0,"used":true,"gnssid":0,"svid":17,"health":1},{"PRN":19,"el":33.0,"az":300.0,"ss":29.0,"used":true,"gnssid":0,"svid":19,"health":1},{"PRN":21,"el":36.0,"az":147.0,"ss":32.0,"used":true,"gnssid":0,"svid":21,"health":1},{"PRN":22,"el":61.0,"az":83.0,"ss":35.0,"used":true,"gnssid":0,"svid":22,"health":1},{"PRN":31,"el":29.0,"az":79.0,"ss":19.0,"used":false,"gnssid":0,"svid":31,"health":1},{"PRN":32,"el":1.0,"az":45.0,"ss":0.0,"used":false,"gnssid":0,"svid":32,"health":1},{"PRN":69,"el":40.0,"az":47.0,"ss":26.0,"used":true,"gnssid":6,"svid":5,"health":1},{"PRN":70,"el":70.0,"az":270.0,"ss":0.0,"used":false,"gnssid":6,"svid":6,"health":1},{"PRN":71,"el":21.0,"az":242.0,"ss":0.0,"used":false,"gnssid":6,"svid":7,"health":1},{"PRN":77,"el":0.0,"az":341.0,"ss":0.0,"used":false,"gnssid":6,"svid":13,"health":1},{"PRN":78,"el":16.0,"az":29.0,"ss":0.0,"used":false,"gnssid":6,"svid":14,"health":1},{"PRN":79,"el":12.0,"az":79.0,"ss":0.0,"used":false,"gnssid":6,"svid":15,"health":1},{"PRN":84,"el":25.0,"az":168.0,"ss":0.0,"used":false,"gnssid":6,"svid":20,"health":1},{"PRN":85,"el":71.0,"az":244.0,"ss":18.0,"used":true,"gnssid":6,"svid":21,"health":1},{"PRN":86,"el":36.0,"az":323.0,"ss":0.0,"used":false,"gnssid":6,"svid":22,"health":1}]}
$GPZDA,181856.50,10,06,2021,00,00*66
$GPGGA,181856.50,5008.1051,N,01425.7968,E,1,09,1.09,304.65,M,44.594,M,,*6D
$GPRMC,181856.50,A,5008.1051,N,01425.7968,E,0.0564,0.000,100621,4.2,E*61
$GPGSA,A,3,1,3,4,17,19,21,22,,,,,,2.5,1.1,2.2*0E
$GPGBS,181856.50,10.737,12.477,4.898,,,,*4F
{"class":"TPV","mode":3,"time":"2021-06-10T18:18:56.500Z","leapseconds":18,"ept":0.005,"lat":50.135084600,"lon":14.429946800,"altHAE":348.9210,"altMSL":304.6510,"alt":304.6510,"epx":10.737,"epy":12.477,"epv":4.898,"track":0.0000,"magtrack":4.1640,"magvar":4.2,"speed":0.029,"climb":0.096,"eps":0.30,"epc":39.19,"geoidSep":44.594,"eph":2.516,"sep":47.310}
$GPGSV,6,1,21,01,56,148,33,03,83,352,33,04,49,198,31,06,09,311,00*79
$GPGSV,6,2,21,09,16,215,23,12,02,355,00,17,40,270,27,19,33,300,29*77
$GPGSV,6,3,21,21,36,147,32,22,61,083,35,31,29,079,18,32,01,045,00*7F
$GPGSV,6,4,21,69,40,047,26,70,70,270,00,71,21,242,00,77,00,341,00*76
$GPGSV,6,5,21,78,16,029,00,79,12,079,00,84,25,168,00,85,71,244,18*7D
$GPGSV,6,6,21,86,36,323,00*43
{"class":"SKY","time":"2021-06-10T18:18:56.500Z","xdop":0.72,"ydop":0.83,"vdop":2.23,"tdop":1.72,"hdop":1.09,"gdop":3.02,"pdop":2.49,"nSat":21,"uSat":9,"satellites":[{"PRN":1,"el":56.0,"az":148.0,"ss":33.0,"used":true,"gnssid":0,"svid":1,"health":1},{"PRN":3,"el":83.0,"az":352.0,"ss":33.0,"used":true,"gnssid":0,"svid":3,"health":1},{"PRN":4,"el":49.0,"az":198.0,"ss":31.0,"used":true,"gnssid":0,"svid":4,"health":1},{"PRN":6,"el":9.0,"az":311.0,"ss":0.0,"used":false,"gnssid":0,"svid":6,"health":1},{"PRN":9,"el":16.0,"az":215.0,"ss":23.0,"used":false,"gnssid":0,"svid":9,"health":1},{"PRN":12,"el":2.0,"az":355.0,"ss":0.0,"used":false,"gnssid":0,"svid":12,"health":1},{"PRN":17,"el":40.0,"az":270.0,"ss":27.0,"used":true,"gnssid":0,"svid":17,"health":1},{"PRN":19,"el":33.0,"az":300.0,"ss":29.0,"used":true,"gnssid":0,"svid":19,"health":1},{"PRN":21,"el":36.0,"az":147.0,"ss":32.0,"used":true,"gnssid":0,"svid":21,"health":1},{"PRN":22,"el":61.0,"az":83.0,"ss":35.0,"used":true,"gnssid":0,"svid":22,"health":1},{"PRN":31,"el":29.0,"az":79.0,"ss":18.0,"used":false,"gnssid":0,"svid":31,"health":1},{"PRN":32,"el":1.0,"az":45.0,"ss":0.0,"used":false,"gnssid":0,"svid":32,"health":1},{"PRN":69,"el":40.0,"az":47.0,"ss":26.0,"used":true,"gnssid":6,"svid":5,"health":1},{"PRN":70,"el":70.0,"az":270.0,"ss":0.0,"used":false,"gnssid":6,"svid":6,"health":1},{"PRN":71,"el":21.0,"az":242.0,"ss":0.0,"used":false,"gnssid":6,"svid":7,"health":1},{"PRN":77,"el":0.0,"az":341.0,"ss":0.0,"used":false,"gnssid":6,"svid":13,"health":1},{"PRN":78,"el":16.0,"az":29.0,"ss":0.0,"used":false,"gnssid":6,"svid":14,"health":1},{"PRN":79,"el":12.0,"az":79.0,"ss":0.0,"used":false,"gnssid":6,"svid":15,"health":1},{"PRN":84,"el":25.0,"az":168.0,"ss":0.0,"used":false,"gnssid":6,"svid":20,"health":1},{"PRN":85,"el":71.0,"az":244.0,"ss":18.0,"used":true,"gnssid":6,"svid":21,"health":1},{"PRN":86,"el":36.0,"az":323.0,"ss":0.0,"used":false,"gnssid":6,"svid":22,"health":1}]}
$GPZDA,181856.75,10,06,2021,00,00*61
$GPGGA,181856.75,5008.1051,N,01425.7968,E,1,09,1.09,304.65,M,44.594,M,,*6A
$GPRMC,181856.75,A,5008.1051,N,01425.7968,E,0.0350,0.000,100621,4.2,E*67
$GPGSA,A,3,1,3,4,17,19,21,22,,,,,,2.5,1.1,2.2*0E
$GPGBS,181856.75,10.737,12.477,4.896,,,,*46
{"class":"TPV","mode":3,"time":"2021-06-10T18:18:56.750Z","leapseconds":18,"ept":0.005,"lat":50.135084700,"lon":14.429946800,"altHAE":348.9200,"altMSL":304.6500,"alt":304.6500,"epx":10.737,"epy":12.477,"epv":4.896,"track":0.0000,"magtrack":4.1640,"magvar":4.2,"speed":0.018,"climb":-0.004,"eps":0.35,"epc":39.18,"geoidSep":44.594,"eph":2.515,"sep":47.310}
$GPGSV,6,1,21,01,56,148,33,03,83,352,33,04,49,198,31,06,09,311,00*79
$GPGSV,6,2,21,09,16,215,23,12,02,355,00,17,40,270,27,19,33,300,29*77
$GPGSV,6,3,21,21,36,147,33,22,61,083,35,31,29,079,18,32,01,045,00*7E
$GPGSV,6,4,21,69,40,047,26,70,70,270,00,71,21,242,00,77,00,341,00*76
$GPGSV,6,5,21,78,16,029,00,79,12,079,00,84,25,168,00,85,71,244,18*7D
$GPGSV,6,6,21,86,36,323,00*43
{"class":"SKY","time":"2021-06-10T18:18:56.750Z","xdop":0.72,"ydop":0.83,"vdop":2.23,"tdop":1.72,"hdop":1.09,"gdop":3.02,"pdop":2.49,"nSat":21,"uSat":9,"satellites":[{"PRN":1,"el":56.0,"az":148.0,"ss":33.0,"used":true,"gnssid":0,"svid":1,"health":1},{"PRN":3,"el":83.0,"az":352.0,"ss":33.0,"used":true,"gnssid":0,"svid":3,"health":1},{"PRN":4,"el":49.0,"az":198.0,"ss":31.0,"used":true,"gnssid":0,"svid":4,"health":1},{"PRN":6,"el":9.0,"az":311.0,"ss":0.0,"used":false,"gnssid":0,"svid":6,"health":1},{"PRN":9,"el":16.0,"az":215.0,"ss":23.0,"used":false,"gnssid":0,"svid":9,"health":1},{"PRN":12,"el":2.0,"az":355.0,"ss":0.0,"used":false,"gnssid":0,"svid":12,"health":1},{"PRN":17,"el":40.0,"az":270.0,"ss":27.0,"used":true,"gnssid":0,"svid":17,"health":1},{"PRN":19,"el":33.0,"az":300.0,"ss":29.0,"used":true,"gnssid":0,"svid":19,"health":1},{"PRN":21,"el":36.0,"az":147.0,"ss":33.0,"used":true,"gnssid":0,"svid":21,"health":1},{"PRN":22,"el":61.0,"az":83.0,"ss":35.0,"used":true,"gnssid":0,"svid":22,"health":1},{"PRN":31,"el":29.0,"az":79.0,"ss":18.0,"used":false,"gnssid":0,"svid":31,"health":1},{"PRN":32,"el":1.0,"az":45.0,"ss":0.0,"used":false,"gnssid":0,"svid":32,"health":1},{"PRN":69,"el":40.0,"az":47.0,"ss":26.0,"used":true,"gnssid":6,"svid":5,"health":1},{"PRN":70,"el":70.0,"az":270.0,"ss":0.0,"used":false,"gnssid":6,"svid":6,"health":1},{"PRN":71,"el":21.0,"az":242.0,"ss":0.0,"used":false,"gnssid":6,"svid":7,"health":1},{"PRN":77,"el":0.0,"az":341.0,"ss":0.0,"used":false,"gnssid":6,"svid":13,"health":1},{"PRN":78,"el":16.0,"az":29.0,"ss":0.0,"used":false,"gnssid":6,"svid":14,"health":1},{"PRN":79,"el":12.0,"az":79.0,"ss":0.0,"used":false,"gnssid":6,"svid":15,"health":1},{"PRN":84,"el":25.0,"az":168.0,"ss":0.0,"used":false,"gnssid":6,"svid":20,"health":1},{"PRN":85,"el":71.0,"az":244.0,"ss":18.0,"used":true,"gnssid":6,"svid":21,"health":1},{"PRN":86,"el":36.0,"az":323.0,"ss":0.0,"used":false,"gnssid":6,"svid":22,"health":1}]}
$GPZDA,181857.00,10,06,2021,00,00*62
$GPGGA,181857.00,5008.1051,N,01425.7968,E,1,09,1.09,304.67,M,44.594,M,,*6B
$GPRMC,181857.00,A,5008.1051,N,01425.7968,E,0.0467,0.000,100621,4.2,E*67
$GPGSA,A,3,1,3,4,17,19,21,22,,,,,,2.5,1.1,2.2*0E
$GPGBS,181857.00,10.737,12.477,4.894,,,,*47
{"class":"TPV","mode":3,"time":"2021-06-10T18:18:57.000Z","leapseconds":18,"ept":0.005,"lat":50.135084500,"lon":14.429946900,"altHAE":348.9410,"altMSL":304.6710,"alt":304.6710,"epx":10.737,"epy":12.477,"epv":4.894,"track":0.0000,"magtrack":4.1640,"magvar":4.2,"speed":0.024,"climb":0.084,"eps":0.28,"epc":39.16,"geoidSep":44.594,"eph":2.513,"sep":47.310}
$GPGSV,6,1,21,01,56,148,33,03,83,352,33,04,49,198,31,06,09,311,00*79
$GPGSV,6,2,21,09,16,215,22,12,02,355,00,17,40,270,27,19,33,300,29*76
$GPGSV,6,3,21,21,36,147,33,22,61,083,36,31,29,079,18,32,01,045,00*7D
$GPGSV,6,4,21,69,40,047,26,70,70,270,00,71,21,242,00,77,00,341,00*76
$GPGSV,6,5,21,78,16,029,00,79,12,079,00,84,25,168,00,85,71,244,18*7D
$GPGSV,6,6,21,86,36,323,00*43
{"class":"SKY","time":"2021-06-10T18:18:57.000Z","xdop":0.72,"ydop":0.83,"vdop":2.23,"tdop":1.72,"hdop":1.09,"gdop":3.02,"pdop":2.49,"nSat":21,"uSat":9,"satellites":[{"PRN":1,"el":56.0,"az":148.0,"ss":33.0,"used":true,"gnssid":0,"svid":1,"health":1},{"PRN":3,"el":83.0,"az":352.0,"ss":33.0,"used":true,"gnssid":0,"svid":3,"health":1},{"PRN":4,"el":49.0,"az":198.0,"ss":31.0,"used":true,"gnssid":0,"svid":4,"health":1},{"PRN":6,"el":9.0,"az":311.0,"ss":0.0,"used":false,"gnssid":0,"svid":6,"health":1},{"PRN":9,"el":16.0,"az":215.0,"ss":22.0,"used":false,"gnssid":0,"svid":9,"health":1},{"PRN":12,"el":2.0,"az":355.0,"ss":0.0,"used":false,"gnssid":0,"svid":12,"health":1},{"PRN":17,"el":40.0,"az":270.0,"ss":27.0,"used":true,"gnssid":0,"svid":17,"health":1},{"PRN":19,"el":33.0,"az":300.0,"ss":29.0,"used":true,"gnssid":0,"svid":19,"health":1},{"PRN":21,"el":36.0,"az":147.0,"ss":33.0,"used":true,"gnssid":0,"svid":21,"health":1},{"PRN":22,"el":61.0,"az":83.0,"ss":36.0,"used":true,"gnssid":0,"svid":22,"health":1},{"PRN":31,"el":29.0,"az":79.0,"ss":18.0,"used":false,"gnssid":0,"svid":31,"health":1},{"PRN":32,"el":1.0,"az":45.0,"ss":0.0,"used":false,"gnssid":0,"svid":32,"health":1},{"PRN":69,"el":40.0,"az":47.0,"ss":26.0,"used":true,"gnssid":6,"svid":5,"health":1},{"PRN":70,"el":70.0,"az":270.0,"ss":0.0,"used":false,"gnssid":6,"svid":6,"health":1},{"PRN":71,"el":21.0,"az":242.0,"ss":0.0,"used":false,"gnssid":6,"svid":7,"health":1},{"PRN":77,"el":0.0,"az":341.0,"ss":0.0,"used":false,"gnssid":6,"svid":13,"health":1},{"PRN":78,"el":16.0,"az":29.0,"ss":0.0,"used":false,"gnssid":6,"svid":14,"health":1},{"PRN":79,"el":12.0,"az":79.0,"ss":0.0,"used":false,"gnssid":6,"svid":15,"health":1},{"PRN":84,"el":25.0,"az":168.0,"ss":0.0,"used":false,"gnssid":6,"svid":20,"health":1},{"PRN":85,"el":71.0,"az":244.0,"ss":18.0,"used":true,"gnssid":6,"svid":21,"health":1},{"PRN":86,"el":36.0,"az":323.0,"ss":0.0,"used":false,"gnssid":6,"svid":22,"health":1}]}
$GPZDA,181857.25,10,06,2021,00,00*65
$GPGGA,181857.25,5008.1051,N,01425.7968,E,1,09,1.09,304.67,M,44.594,M,,*6C
$GPRMC,181857.25,A,5008.1051,N,01425.7968,E,0.0233,0.000,100621,4.2,E*67
$GPGSA,A,3,1,3,4,17,19,21,22,,,,,,2.5,1.1,2.2*0E
$GPGBS,181857.25,10.737,12.477,4.893,,,,*47
{"class":"TPV","mode":3,"time":"2021-06-10T18:18:57.250Z","leapseconds":18,"ept":0.005,"lat":50.135084500,"lon":14.429946800,"altHAE":348.9440,"altMSL":304.6730,"alt":304.6730,"epx":10.737,"epy":12.477,"epv":4.893,"track":0.0000,"magtrack":4.1640,"magvar":4.2,"speed":0.012,"climb":0.012,"eps":0.33,"epc":39.15,"geoidSep":44.594,"eph":2.512,"sep":47.310}
$GPGSV,6,1,21,01,56,148,33,03,83,352,33,04,49,198,31,06,09,311,00*79
$GPGSV,6,2,21,09,16,215,22,12,02,355,00,17,40,270,27,19,33,300,29*76
$GPGSV,6,3,21,21,36,147,33,22,61,083,36,31,29,079,18,32,01,045,00*7D
$GPGSV,6,4,21,69,40,047,26,70,70,270,00,71,21,242,00,77,00,341,00*76
$GPGSV,6,5,21,78,16,029,00,79,12,079,00,84,25,168,00,85,71,244,18*7D
$GPGSV,6,6,21,86,36,323,00*43
{"class":"SKY","time":"2021-06-10T18:18:57.250Z","xdop":0.72,"ydop":0.83,"vdop":2.23,"tdop":1.72,"hdop":1.09,"gdop":3.02,"pdop":2.49,"nSat":21,"uSat":9,"satellites":[{"PRN":1,"el":56.0,"az":148.0,"ss":33.0,"used":true,"gnssid":0,"svid":1,"health":1},{"PRN":3,"el":83.0,"az":352.0,"ss":33.0,"used":true,"gnssid":0,"svid":3,"health":1},{"PRN":4,"el":49.0,"az":198.0,"ss":31.0,"used":true,"gnssid":0,"svid":4,"health":1},{"PRN":6,"el":9.0,"az":311.0,"ss":0.0,"used":false,"gnssid":0,"svid":6,"health":1},{"PRN":9,"el":16.0,"az":215.0,"ss":22.0,"used":false,"gnssid":0,"svid":9,"health":1},{"PRN":12,"el":2.0,"az":355.0,"ss":0.0,"used":false,"gnssid":0,"svid":12,"health":1},{"PRN":17,"el":40.0,"az":270.0,"ss":27.0,"used":true,"gnssid":0,"svid":17,"health":1},{"PRN":19,"el":33.0,"az":300.0,"ss":29.0,"used":true,"gnssid":0,"svid":19,"health":1},{"PRN":21,"el":36.0,"az":147.0,"ss":33.0,"used":true,"gnssid":0,"svid":21,"health":1},{"PRN":22,"el":61.0,"az":83.0,"ss":36.0,"used":true,"gnssid":0,"svid":22,"health":1},{"PRN":31,"el":29.0,"az":79.0,"ss":18.0,"used":false,"gnssid":0,"svid":31,"health":1},{"PRN":32,"el":1.0,"az":45.0,"ss":0.0,"used":false,"gnssid":0,"svid":32,"health":1},{"PRN":69,"el":40.0,"az":47.0,"ss":26.0,"used":true,"gnssid":6,"svid":5,"health":1},{"PRN":70,"el":70.0,"az":270.0,"ss":0.0,"used":false,"gnssid":6,"svid":6,"health":1},{"PRN":71,"el":21.0,"az":242.0,"ss":0.0,"used":false,"gnssid":6,"svid":7,"health":1},{"PRN":77,"el":0.0,"az":341.0,"ss":0.0,"used":false,"gnssid":6,"svid":13,"health":1},{"PRN":78,"el":16.0,"az":29.0,"ss":0.0,"used":false,"gnssid":6,"svid":14,"health":1},{"PRN":79,"el":12.0,"az":79.0,"ss":0.0,"used":false,"gnssid":6,"svid":15,"health":1},{"PRN":84,"el":25.0,"az":168.0,"ss":0.0,"used":false,"gnssid":6,"svid":20,"health":1},{"PRN":85,"el":71.0,"az":244.0,"ss":18.0,"used":true,"gnssid":6,"svid":21,"health":1},{"PRN":86,"el":36.0,"az":323.0,"ss":0.0,"used":false,"gnssid":6,"svid":22,"health":1}]}
$GPZDA,181857.50,10,06,2021,00,00*67
$GPGGA,181857.50,5008.1051,N,01425.7968,E,1,09,1.09,304.65,M,44.594,M,,*6C
$GPRMC,181857.50,A,5008.1051,N,01425.7968,E,0.0622,0.000,100621,4.2,E*61
$GPGSA,A,3,1,3,4,17,19,21,22,,,,,,2.5,1.1,2.2*0E
$GPGBS,181857.50,10.737,12.477,4.891,,,,*47
{"class":"TPV","mode":3,"time":"2021-06-10T18:18:57.500Z","leapseconds":18,"ept":0.005,"lat":50.135084500,"lon":14.429946700,"altHAE":348.9230,"altMSL":304.6530,"alt":304.6530,"epx":10.737,"epy":12.477,"epv":4.891,"track":0.0000,"magtrack":4.1640,"magvar":4.2,"speed":0.032,"climb":-0.084,"eps":0.36,"epc":39.14,"geoidSep":44.594,"eph":2.510,"sep":47.310}
$GPGSV,6,1,21,01,56,148,33,03,83,352,33,04,49,198,31,06,09,311,00*79
$GPGSV,6,2,21,09,16,215,22,12,02,355,00,17,40,270,27,19,33,300,29*76
$GPGSV,6,3,21,21,36,147,33,22,61,083,36,31,29,079,18,32,01,045,00*7D
$GPGSV,6,4,21,69,40,047,26,70,70,270,00,71,21,242,00,77,00,341,00*76
$GPGSV,6,5,21,78,16,029,00,79,12,079,00,84,25,168,00,85,71,244,18*7D
$GPGSV,6,6,21,86,36,323,00*43
{"class":"SKY","time":"2021-06-10T18:18:57.500Z","xdop":0.72,"ydop":0.83,"vdop":2.23,"tdop":1.72,"hdop":1.09,"gdop":3.02,"pdop":2.49,"nSat":21,"uSat":9,"satellites":[{"PRN":1,"el":56.0,"az":148.0,"ss":33.0,"used":true,"gnssid":0,"svid":1,"health":1},{"PRN":3,"el":83.0,"az":352.0,"ss":33.0,"used":true,"gnssid":0,"svid":3,"health":1},{"PRN":4,"el":49.0,"az":198.0,"ss":31.0,"used":true,"gnssid":0,"svid":4,"health":1},{"PRN":6,"el":9.0,"az":311.0,"ss":0.0,"used":false,"gnssid":0,"svid":6,"health":1},{"PRN":9,"el":16.0,"az":215.0,"ss":22.0,"used":false,"gnssid":0,"svid":9,"health":1},{"PRN":12,"el":2.0,"az":355.0,"ss":0.0,"used":false,"gnssid":0,"svid":12,"health":1},{"PRN":17,"el":40.0,"az":270.0,"ss":27.0,"used":true,"gnssid":0,"svid":17,"health":1},{"PRN":19,"el":33.0,"az":300.0,"ss":29.0,"used":true,"gnssid":0,"svid":19,"health":1},{"PRN":21,"el":36.0,"az":147.0,"ss":33.0,"used":true,"gnssid":0,"svid":21,"health":1},{"PRN":22,"el":61.0,"az":83.0,"ss":36.0,"used":true,"gnssid":0,"svid":22,"health":1},{"PRN":31,"el":29.0,"az":79.0,"ss":18.0,"used":false,"gnssid":0,"svid":31,"health":1},{"PRN":32,"el":1.0,"az":45.0,"ss":0.0,"used":false,"gnssid":0,"svid":32,"health":1},{"PRN":69,"el":40.0,"az":47.0,"ss":26.0,"used":true,"gnssid":6,"svid":5,"health":1},{"PRN":70,"el":70.0,"az":270.0,"ss":0.0,"used":false,"gnssid":6,"svid":6,"health":1},{"PRN":71,"el":21.0,"az":242.0,"ss":0.0,"used":false,"gnssid":6,"svid":7,"health":1},{"PRN":77,"el":0.0,"az":341.0,"ss":0.0,"used":false,"gnssid":6,"svid":13,"health":1},{"PRN":78,"el":16.0,"az":29.0,"ss":0.0,"used":false,"gnssid":6,"svid":14,"health":1},{"PRN":79,"el":12.0,"az":79.0,"ss":0.0,"used":false,"gnssid":6,"svid":15,"health":1},{"PRN":84,"el":25.0,"az":168.0,"ss":0.0,"used":false,"gnssid":6,"svid":20,"health":1},{"PRN":85,"el":71.0,"az":244.0,"ss":18.0,"used":true,"gnssid":6,"svid":21,"health":1},{"PRN":86,"el":36.0,"az":323.0,"ss":0.0,"used":false,"gnssid":6,"svid":22,"health":1}]}
$GPZDA,181857.75,10,06,2021,00,00*60
$GPGGA,181857.75,5008.1051,N,01425.7968,E,1,09,1.09,304.67,M,44.594,M,,*69
$GPRMC,181857.75,A,5008.1051,N,01425.7968,E,0.0408,0.000,100621,4.2,E*6C
$GPGSA,A,3,1,3,4,17,19,21,22,,,,,,2.5,1.1,2.2*0E
$GPGBS,181857.75,10.737,12.477,4.889,,,,*49
{"class":"TPV","mode":3,"time":"2021-06-10T18:18:57.750Z","leapseconds":18,"ept":0.005,"lat":50.135084300,"lon":14.429946600,"altHAE":348.9430,"altMSL":304.6730,"alt":304.6730,"epx":10.737,"epy":12.477,"epv":4.889,"track":0.0000,"magtrack":4.1640,"magvar":4.2,"speed":0.021,"climb":0.080,"eps":0.34,"epc":39.12,"geoidSep":44.594,"eph":2.509,"sep":47.310}
$GPGSV,6,1,21,01,56,148,33,03,83,352,33,04,49,198,31,06,09,311,00*79
$GPGSV,6,2,21,09,16,215,22,12,02,355,00,17,40,270,27,19,33,300,29*76
$GPGSV,6,3,21,21,36,147,33,22,61,083,36,31,29,079,19,32,01,045,00*7C
$GPGSV,6,4,21,69,40,047,26,70,70,270,00,71,21,242,00,77,00,341,00*76
$GPGSV,6,5,21,78,16,029,00,79,12,079,00,84,25,168,00,85,71,244,18*7D
$GPGSV,6,6,21,86,36,323,00*43
{"class":"SKY","time":"2021-06-10T18:18:57.750Z","xdop":0.72,"ydop":0.83,"vdop":2.23,"tdop":1.72,"hdop":1.09,"gdop":3.02,"pdop":2.49,"nSat":21,"uSat":9,"satellites":[{"PRN":1,"el":56.0,"az":148.0,"ss":33.0,"used":true,"gnssid":0,"svid":1,"health":1},{"PRN":3,"el":83.0,"az":352.0,"ss":33.0,"used":true,"gnssid":0,"svid":3,"health":1},{"PRN":4,"el":49.0,"az":198.0,"ss":31.0,"used":true,"gnssid":0,"svid":4,"health":1},{"PRN":6,"el":9.0,"az":311.0,"ss":0.0,"used":false,"gnssid":0,"svid":6,"health":1},{"PRN":9,"el":16.0,"az":215.0,"ss":22.0,"used":false,"gnssid":0,"svid":9,"health":1},{"PRN":12,"el":2.0,"az":355.0,"ss":0.0,"used":false,"gnssid":0,"svid":12,"health":1},{"PRN":17,"el":40.0,"az":270.0,"ss":27.0,"used":true,"gnssid":0,"svid":17,"health":1},{"PRN":19,"el":33.0,"az":300.0,"ss":29.0,"used":true,"gnssid":0,"svid":19,"health":1},{"PRN":21,"el":36.0,"az":147.0,"ss":33.0,"used":true,"gnssid":0,"svid":21,"health":1},{"PRN":22,"el":61.0,"az":83.0,"ss":36.0,"used":true,"gnssid":0,"svid":22,"health":1},{"PRN":31,"el":29.0,"az":79.0,"ss":19.0,"used":false,"gnssid":0,"svid":31,"health":1},{"PRN":32,"el":1.0,"az":45.0,"ss":0.0,"used":false,"gnssid":0,"svid":32,"health":1},{"PRN":69,"el":40.0,"az":47.0,"ss":26.0,"used":true,"gnssid":6,"svid":5,"health":1},{"PRN":70,"el":70.0,"az":270.0,"ss":0.0,"used":false,"gnssid":6,"svid":6,"health":1},{"PRN":71,"el":21.0,"az":242.0,"ss":0.0,"used":false,"gnssid":6,"svid":7,"health":1},{"PRN":77,"el":0.0,"az":341.0,"ss":0.0,"used":false,"gnssid":6,"svid":13,"health":1},{"PRN":78,"el":16.0,"az":29.0,"ss":0.0,"used":false,"gnssid":6,"svid":14,"health":1},{"PRN":79,"el":12.0,"az":79.0,"ss":0.0,"used":false,"gnssid":6,"svid":15,"health":1},{"PRN":84,"el":25.0,"az":168.0,"ss":0.0,"used":false,"gnssid":6,"svid":20,"health":1},{"PRN":85,"el":71.0,"az":244.0,"ss":18.0,"used":true,"gnssid":6,"svid":21,"health":1},{"PRN":86,"el":36.0,"az":323.0,"ss":0.0,"used":false,"gnssid":6,"svid":22,"health":1}]}
$GPZDA,181858.00,10,06,2021,00,00*6D
$GPGGA,181858.00,5008.1051,N,01425.7968,E,1,09,1.09,304.71,M,44.594,M,,*63
$GPRMC,181858.00,A,5008.1051,N,01425.7968,E,0.0330,0.000,100621,4.2,E*6D
$GPGSA,A,3,1,3,4,17,19,21,22,,,,,,2.5,1.1,2.2*0E
$GPGBS,181858.00,10.737,12.477,4.887,,,,*4A
{"class":"TPV","mode":3,"time":"2021-06-10T18:18:58.000Z","leapseconds":18,"ept":0.005,"lat":50.135084200,"lon":14.429946500,"altHAE":348.9840,"altMSL":304.7140,"alt":304.7140,"epx":10.737,"epy":12.477,"epv":4.887,"track":0.0000,"magtrack":4.1640,"magvar":4.2,"speed":0.017,"climb":0.164,"eps":0.33,"epc":39.10,"geoidSep":44.594,"eph":2.507,"sep":47.310}
$GPGSV,6,1,21,01,56,148,33,03,83,352,33,04,49,198,31,06,09,311,00*79
$GPGSV,6,2,21,09,16,215,22,12,02,355,00,17,40,270,27,19,33,300,29*76
$GPGSV,6,3,21,21,36,147,33,22,61,083,36,31,29,079,19,32,01,045,00*7C
$GPGSV,6,4,21,69,40,047,26,70,70,270,00,71,21,242,00,77,00,341,00*76
$GPGSV,6,5,21,78,16,029,00,79,12,079,00,84,25,168,00,85,71,244,18*7D
$GPGSV,6,6,21,86,36,323,00*43
{"class":"SKY","time":"2021-06-10T18:18:58.000Z","xdop":0.72,"ydop":0.83,"vdop":2.23,"tdop":1.72,"hdop":1.09,"gdop":3.02,"pdop":2.49,"nSat":21,"uSat":9,"satellites":[{"PRN":1,"el":56.0,"az":148.0,"ss":33.0,"used":true,"gnssid":0,"svid":1,"health":1},{"PRN":3,"el":83.0,"az":352.0,"ss":33.0,"used":true,"gnssid":0,"svid":3,"health":1},{"PRN":4,"el":49.0,"az":198.0,"ss":31.0,"used":true,"gnssid":0,"svid":4,"health":1},{"PRN":6,"el":9.0,"az":311.0,"ss":0.0,"used":false,"gnssid":0,"svid":6,"health":1},{"PRN":9,"el":16.0,"az":215.0,"ss":22.0,"used":false,"gnssid":0,"svid":9,"health":1},{"PRN":12,"el":2.0,"az":355.0,"ss":0.0,"used":false,"gnssid":0,"svid":12,"health":1},{"PRN":17,"el":40.0,"az":270.0,"ss":27.0,"used":true,"gnssid":0,"svid":17,"health":1},{"PRN":19,"el":33.0,"az":300.0,"ss":29.0,"used":true,"gnssid":0,"svid":19,"health":1},{"PRN":21,"el":36.0,"az":147.0,"ss":33.0,"used":true,"gnssid":0,"svid":21,"health":1},{"PRN":22,"el":61.0,"az":83.0,"ss":36.0,"used":true,"gnssid":0,"svid":22,"health":1},{"PRN":31,"el":29.0,"az":79.0,"ss":19.0,"used":false,"gnssid":0,"svid":31,"health":1},{"PRN":32,"el":1.0,"az":45.0,"ss":0.0,"used":false,"gnssid":0,"svid":32,"health":1},{"PRN":69,"el":40.0,"az":47.0,"ss":26.0,"used":true,"gnssid":6,"svid":5,"health":1},{"PRN":70,"el":70.0,"az":270.0,"ss":0.0,"used":false,"gnssid":6,"svid":6,"health":1},{"PRN":71,"el":21.0,"az":242.0,"ss":0.0,"used":false,"gnssid":6,"svid":7,"health":1},{"PRN":77,"el":0.0,"az":341.0,"ss":0.0,"used":false,"gnssid":6,"svid":13,"health":1},{"PRN":78,"el":16.0,"az":29.0,"ss":0.0,"used":false,"gnssid":6,"svid":14,"health":1},{"PRN":79,"el":12.0,"az":79.0,"ss":0.0,"used":false,"gnssid":6,"svid":15,"health":1},{"PRN":84,"el":25.0,"az":168.0,"ss":0.0,"used":false,"gnssid":6,"svid":20,"health":1},{"PRN":85,"el":71.0,"az":244.0,"ss":18.0,"used":true,"gnssid":6,"svid":21,"health":1},{"PRN":86,"el":36.0,"az":323.0,"ss":0.0,"used":false,"gnssid":6,"svid":22,"health":1}]}
$GPZDA,181858.25,10,06,2021,00,00*6A
$GPGGA,181858.25,5008.1050,N,01425.7968,E,1,09,1.09,304.73,M,44.594,M,,*67
$GPRMC,181858.25,A,5008.1050,N,01425.7968,E,0.0467,0.000,100621,4.2,E*6E
$GPGSA,A,3,1,3,4,17,19,21,22,,,,,,2.5,1.1,2.2*0E
$GPGBS,181858.25,10.737,12.477,4.886,,,,*4C
{"class":"TPV","mode":3,"time":"2021-06-10T18:18:58.250Z","leapseconds":18,"ept":0.005,"lat":50.135084100,"lon":14.429946400,"altHAE":349.0040,"altMSL":304.7340,"alt":304.7340,"epx":10.737,"epy":12.477,"epv":4.886,"track":0.0000,"magtrack":4.1640,"magvar":4.2,"speed":0.024,"climb":0.080,"eps":0.32,"epc":39.09,"geoidSep":44.594,"eph":2.507,"sep":47.310}
$GPGSV,6,1,21,01,56,148,33,03,83,352,33,04,49,198,30,06,09,311,00*78
$GPGSV,6,2,21,09,16,215,22,12,02,355,00,17,40,270,27,19,33,300,29*76
$GPGSV,6,3,21,21,36,147,33,22,61,083,35,31,29,079,19,32,01,045,00*7F
$GPGSV,6,4,21,69,40,047,26,70,70,270,00,71,21,242,00,77,00,341,00*76
$GPGSV,6,5,21,78,16,029,00,79,12,079,00,84,25,168,00,85,71,244,18*7D
$GPGSV,6,6,21,86,36,323,00*43
{"class":"SKY","time":"2021-06-10T18:18:58.250Z","xdop":0.72,"ydop":0.83,"vdop":2.23,"tdop":1.72,"hdop":1.09,"gdop":3.02,"pdop":2.49,"nSat":21,"uSat":9,"satellites":[{"PRN":1,"el":56.0,"az":148.0,"ss":33.0,"used":true,"gnssid":0,"svid":1,"health":1},{"PRN":3,"el":83.0,"az":352.0,"ss":33.0,"used":true,"gnssid":0,"svid":3,"health":1},{"PRN":4,"el":49.0,"az":198.0,"ss":30.0,"used":true,"gnssid":0,"svid":4,"health":1},{"PRN":6,"el":9.0,"az":311.0,"ss":0.0,"used":false,"gnssid":0,"svid":6,"health":1},{"PRN":9,"el":16.0,"az":215.0,"ss":22.0,"used":false,"gnssid":0,"svid":9,"health":1},{"PRN":12,"el":2.0,"az":355.0,"ss":0.0,"used":false,"gnssid":0,"svid":12,"health":1},{"PRN":17,"el":40.0,"az":270.0,"ss":27.0,"used":true,"gnssid":0,"svid":17,"health":1},{"PRN":19,"el":33.0,"az":300.0,"ss":29.0,"used":true,"gnssid":0,"svid":19,"health":1},{"PRN":21,"el":36.0,"az":147.0,"ss":33.0,"used":true,"gnssid":0,"svid":21,"health":1},{"PRN":22,"el":61.0,"az":83.0,"ss":35.0,"used":true,"gnssid":0,"svid":22,"health":1},{"PRN":31,"el":29.0,"az":79.0,"ss":19.0,"used":false,"gnssid":0,"svid":31,"health":1},{"PRN":32,"el":1.0,"az":45.0,"ss":0.0,"used":false,"gnssid":0,"svid":32,"health":1},{"PRN":69,"el":40.0,"az":47.0,"ss":26.0,"used":true,"gnssid":6,"svid":5,"health":1},{"PRN":70,"el":70.0,"az":270.0,"ss":0.0,"used":false,"gnssid":6,"svid":6,"health":1},{"PRN":71,"el":21.0,"az":242.0,"ss":0.0,"used":false,"gnssid":6,"svid":7,"health":1},{"PRN":77,"el":0.0,"az":341.0,"ss":0.0,"used":false,"gnssid":6,"svid":13,"health":1},{"PRN":78,"el":16.0,"az":29.0,"ss":0.0,"used":false,"gnssid":6,"svid":14,"health":1},{"PRN":79,"el":12.0,"az":79.0,"ss":0.0,"used":false,"gnssid":6,"svid":15,"health":1},{"PRN":84,"el":25.0,"az":168.0,"ss":0.0,"used":false,"gnssid":6,"svid":20,"health":1},{"PRN":85,"el":71.0,"az":244.0,"ss":18.0,"used":true,"gnssid":6,"svid":21,"health":1},{"PRN":86,"el":36.0,"az":323.0,"ss":0.0,"used":false,"gnssid":6,"svid":22,"health":1}]}
$GPZDA,181858.50,10,06,2021,00,00*68
$GPGGA,181858.50,5008.1050,N,01425.7968,E,1,09,1.09,304.77,M,44.594,M,,*61
$GPRMC,181858.50,A,5008.1050,N,01425.7968,E,0.0175,0.000,100621,4.2,E*6A
$GPGSA,A,3,1,3,4,17,19,21,22,,,,,,2.5,1.1,2.2*0E
$GPGBS,181858.50,10.737,12.477,4.884,,,,*4C
{"class":"TPV","mode":3,"time":"2021-06-10T18:18:58.500Z","leapseconds":18,"ept":0.005,"lat":50.135083800,"lon":14.429946200,"altHAE":349.0370,"altMSL":304.7670,"alt":304.7670,"epx":10.737,"epy":12.477,"epv":4.884,"track":0.0000,"magtrack":4.1640,"magvar":4.2,"speed":0.009,"climb":0.132,"eps":0.31,"epc":39.08,"geoidSep":44.594,"eph":2.507,"sep":47.310}
$GPGSV,6,1,21,01,56,148,33,03,83,352,33,04,49,198,30,06,09,311,00*78
$GPGSV,6,2,21,09,16,215,22,12,02,355,00,17,40,270,27,19,33,300,29*76
$GPGSV,6,3,21,21,36,147,33,22,61,083,35,31,29,079,18,32,01,045,00*7E
$GPGSV,6,4,21,69,40,047,26,70,70,270,00,71,21,242,00,77,00,341,00*76
$GPGSV,6,5,21,78,16,029,00,79,12,079,00,84,25,168,00,85,71,244,18*7D
$GPGSV,6,6,21,86,36,323,00*43
{"class":"SKY","time":"2021-06-10T18:18:58.500Z","xdop":0.72,"ydop":0.83,"vdop":2.23,"tdop":1.72,"hdop":1.09,"gdop":3.02,"pdop":2.49,"nSat":21,"uSat":9,"satellites":[{"PRN":1,"el":56.0,"az":148.0,"ss":33.0,"used":true,"gnssid":0,"svid":1,"health":1},{"PRN":3,"el":83.0,"az":352.0,"ss":33.0,"used":true,"gnssid":0,"svid":3,"health":1},{"PRN":4,"el":49.0,"az":198.0,"ss":30.0,"used":true,"gnssid":0,"svid":4,"health":1},{"PRN":6,"el":9.0,"az":311.0,"ss":0.0,"used":false,"gnssid":0,"svid":6,"health":1},{"PRN":9,"el":16.0,"az":215.0,"ss":22.0,"used":false,"gnssid":0,"svid":9,"health":1},{"PRN":12,"el":2.0,"az":355.0,"ss":0.0,"used":false,"gnssid":0,"svid":12,"health":1},{"PRN":17,"el":40.0,"az":270.0,"ss":27.0,"used":true,"gnssid":0,"svid":17,"health":1},{"PRN":19,"el":33.0,"az":300.0,"ss":29.0,"used":true,"gnssid":0,"svid":19,"health":1},{"PRN":21,"el":36.0,"az":147.0,"ss":33.0,"used":true,"gnssid":0,"svid":21,"health":1},{"PRN":22,"el":61.0,"az":83.0,"ss":35.0,"used":true,"gnssid":0,"svid":22,"health":1},{"PRN":31,"el":29.0,"az":79.0,"ss":18.0,"used":false,"gnssid":0,"svid":31,"health":1},{"PRN":32,"el":1.0,"az":45.0,"ss":0.0,"used":false,"gnssid":0,"svid":32,"health":1},{"PRN":69,"el":40.0,"az":47.0,"ss":26.0,"used":true,"gnssid":6,"svid":5,"health":1},{"PRN":70,"el":70.0,"az":270.0,"ss":0.0,"used":false,"gnssid":6,"svid":6,"health":1},{"PRN":71,"el":21.0,"az":242.0,"ss":0.0,"used":false,"gnssid":6,"svid":7,"health":1},{"PRN":77,"el":0.0,"az":341.0,"ss":0.0,"used":false,"gnssid":6,"svid":13,"health":1},{"PRN":78,"el":16.0,"az":29.0,"ss":0.0,"used":false,"gnssid":6,"svid":14,"health":1},{"PRN":79,"el":12.0,"az":79.0,"ss":0.0,"used":false,"gnssid":6,"svid":15,"health":1},{"PRN":84,"el":25.0,"az":168.0,"ss":0.0,"used":false,"gnssid":6,"svid":20,"health":1},{"PRN":85,"el":71.0,"az":244.0,"ss":18.0,"used":true,"gnssid":6,"svid":21,"health":1},{"PRN":86,"el":36.0,"az":323.0,"ss":0.0,"used":false,"gnssid":6,"svid":22,"health":1}]}
$GPZDA,181858.75,10,06,2021,00,00*6F
$GPGGA,181858.75,5008.1050,N,01425.7968,E,1,09,1.09,304.79,M,44.594,M,,*68
$GPRMC,181858.75,A,5008.1050,N,01425.7968,E,0.0175,0.000,100621,4.2,E*6D
$GPGSA,A,3,1,3,4,17,19,21,22,,,,,,2.5,1.1,2.2*0E
$GPGBS,181858.75,10.737,12.477,4.882,,,,*4D
{"class":"TPV","mode":3,"time":"2021-06-10T18:18:58.750Z","leapseconds":18,"ept":0.005,"lat":50.135083500,"lon":14.429946000,"altHAE":349.0590,"altMSL":304.7890,"alt":304.7890,"epx":10.737,"epy":12.477,"epv":4.882,"track":0.0000,"magtrack":4.1640,"magvar":4.2,"speed":0.009,"climb":0.088,"eps":0.33,"epc":39.06,"geoidSep":44.594,"eph":2.506,"sep":47.310}
$GPGSV,6,1,21,01,56,148,33,03,83,352,33,04,49,198,31,06,09,311,00*79
$GPGSV,6,2,21,09,16,215,22,12,02,355,00,17,40,270,27,19,33,300,29*76
$GPGSV,6,3,21,21,36,147,33,22,61,083,35,31,29,079,19,32,01,045,00*7F
$GPGSV,6,4,21,69,40,047,26,70,70,270,00,71,21,242,00,77,00,341,00*76
$GPGSV,6,5,21,78,16,029,00,79,12,079,00,84,25,168,00,85,71,244,18*7D
$GPGSV,6,6,21,86,36,323,00*43
{"class":"SKY","time":"2021-06-10T18:18:58.750Z","xdop":0.72,"ydop":0.83,"vdop":2.23,"tdop":1.72,"hdop":1.09,"gdop":3.02,"pdop":2.49,"nSat":21,"uSat":9,"satellites":[{"PRN":1,"el":56.0,"az":148.0,"ss":33.0,"used":true,"gnssid":0,"svid":1,"health":1},{"PRN":3,"el":83.0,"az":352.0,"ss":33.0,"used":true,"gnssid":0,"svid":3,"health":1},{"PRN":4,"el":49.0,"az":198.0,"ss":31.0,"used":true,"gnssid":0,"svid":4,"health":1},{"PRN":6,"el":9.0,"az":311.0,"ss":0.0,"used":false,"gnssid":0,"svid":6,"health":1},{"PRN":9,"el":16.0,"az":215.0,"ss":22.0,"used":false,"gnssid":0,"svid":9,"health":1},{"PRN":12,"el":2.0,"az":355.0,"ss":0.0,"used":false,"gnssid":0,"svid":12,"health":1},{"PRN":17,"el":40.0,"az":270.0,"ss":27.0,"used":true,"gnssid":0,"svid":17,"health":1},{"PRN":19,"el":33.0,"az":300.0,"ss":29.0,"used":true,"gnssid":0,"svid":19,"health":1},{"PRN":21,"el":36.0,"az":147.0,"ss":33.0,"used":true,"gnssid":0,"svid":21,"health":1},{"PRN":22,"el":61.0,"az":83.0,"ss":35.0,"used":true,"gnssid":0,"svid":22,"health":1},{"PRN":31,"el":29.0,"az":79.0,"ss":19.0,"used":false,"gnssid":0,"svid":31,"health":1},{"PRN":32,"el":1.0,"az":45.0,"ss":0.0,"used":false,"gnssid":0,"svid":32,"health":1},{"PRN":69,"el":40.0,"az":47.0,"ss":26.0,"used":true,"gnssid":6,"svid":5,"health":1},{"PRN":70,"el":70.0,"az":270.0,"ss":0.0,"used":false,"gnssid":6,"svid":6,"health":1},{"PRN":71,"el":21.0,"az":242.0,"ss":0.0,"used":false,"gnssid":6,"svid":7,"health":1},{"PRN":77,"el":0.0,"az":341.0,"ss":0.0,"used":false,"gnssid":6,"svid":13,"health":1},{"PRN":78,"el":16.0,"az":29.0,"ss":0.0,"used":false,"gnssid":6,"svid":14,"health":1},{"PRN":79,"el":12.0,"az":79.0,"ss":0.0,"used":false,"gnssid":6,"svid":15,"health":1},{"PRN":84,"el":25.0,"az":168.0,"ss":0.0,"used":false,"gnssid":6,"svid":20,"health":1},{"PRN":85,"el":71.0,"az":244.0,"ss":18.0,"used":true,"gnssid":6,"svid":21,"health":1},{"PRN":86,"el":36.0,"az":323.0,"ss":0.0,"used":false,"gnssid":6,"svid":22,"health":1}]}
$GPZDA,181859.00,10,06,2021,00,00*6C
$GPGGA,181859.00,5008.1050,N,01425.7967,E,1,09,1.09,304.84,M,44.594,M,,*66
$GPRMC,181859.00,A,5008.1050,N,01425.7967,E,0.0408,0.000,100621,4.2,E*6E
$GPGSA,A,3,1,3,4,17,19,21,22,,,,,,2.5,1.1,2.2*0E
$GPGBS,181859.00,10.737,12.477,4.881,,,,*4D
{"class":"TPV","mode":3,"time":"2021-06-10T18:18:59.000Z","leapseconds":18,"ept":0.005,"lat":50.135083200,"lon":14.429945800,"altHAE":349.1140,"altMSL":304.8430,"alt":304.8430,"epx":10.737,"epy":12.477,"epv":4.881,"track":0.0000,"magtrack":4.1640,"magvar":4.2,"speed":0.021,"climb":0.220,"eps":0.39,"epc":39.05,"geoidSep":44.594,"eph":2.505,"sep":47.310}
$GPGSV,6,1,21,01,56,148,32,03,83,352,33,04,49,198,31,06,09,311,00*78
$GPGSV,6,2,21,09,16,215,22,12,02,355,00,17,40,270,27,19,33,300,29*76
$GPGSV,6,3,21,21,36,147,33,22,61,083,36,31,29,079,18,32,01,045,00*7D
$GPGSV,6,4,21,69,40,047,26,70,70,270,00,71,21,242,00,77,00,341,00*76
$GPGSV,6,5,21,78,16,029,00,79,12,079,00,84,25,168,00,85,71,244,17*72
$GPGSV,6,6,21,86,36,323,00*43
{"class":"SKY","time":"2021-06-10T18:18:59.000Z","xdop":0.72,"ydop":0.83,"vdop":2.23,"tdop":1.72,"hdop":1.09,"gdop":3.02,"pdop":2.49,"nSat":21,"uSat":9,"satellites":[{"PRN":1,"el":56.0,"az":148.0,"ss":32.0,"used":true,"gnssid":0,"svid":1,"health":1},{"PRN":3,"el":83.0,"az":352.0,"ss":33.0,"used":true,"gnssid":0,"svid":3,"health":1},{"PRN":4,"el":49.0,"az":198.0,"ss":31.0,"used":true,"gnssid":0,"svid":4,"health":1},{"PRN":6,"el":9.0,"az":311.0,"ss":0.0,"used":false,"gnssid":0,"svid":6,"health":1},{"PRN":9,"el":16.0,"az":215.0,"ss":22.0,"used":false,"gnssid":0,"svid":9,"health":1},{"PRN":12,"el":2.0,"az":355.0,"ss":0.0,"used":false,"gnssid":0,"svid":12,"health":1},{"PRN":17,"el":40.0,"az":270.0,"ss":27.0,"used":true,"gnssid":0,"svid":17,"health":1},{"PRN":19,"el":33.0,"az":300.0,"ss":29.0,"used":true,"gnssid":0,"svid":19,"health":1},{"PRN":21,"el":36.0,"az":147.0,"ss":33.0,"used":true,"gnssid":0,"svid":21,"health":1},{"PRN":22,"el":61.0,"az":83.0,"ss":36.0,"used":true,"gnssid":0,"svid":22,"health":1},{"PRN":31,"el":29.0,"az":79.0,"ss":18.0,"used":false,"gnssid":0,"svid":31,"health":1},{"PRN":32,"el":1.0,"az":45.0,"ss":0.0,"used":false,"gnssid":0,"svid":32,"health":1},{"PRN":69,"el":40.0,"az":47.0,"ss":26.0,"used":true,"gnssid":6,"svid":5,"health":1},{"PRN":70,"el":70.0,"az":270.0,"ss":0.0,"used":false,"gnssid":6,"svid":6,"health":1},{"PRN":71,"el":21.0,"az":242.0,"ss":0.0,"used":false,"gnssid":6,"svid":7,"health":1},{"PRN":77,"el":0.0,"az":341.0,"ss":0.0,"used":false,"gnssid":6,"svid":13,"health":1},{"PRN":78,"el":16.0,"az":29.0,"ss":0.0,"used":false,"gnssid":6,"svid":14,"health":1},{"PRN":79,"el":12.0,"az":79.0,"ss":0.0,"used":false,"gnssid":6,"svid":15,"health":1},{"PRN":84,"el":25.0,"az":168.0,"ss":0.0,"used":false,"gnssid":6,"svid":20,"health":1},{"PRN":85,"el":71.0,"az":244.0,"ss":17.0,"used":true,"gnssid":6,"svid":21,"health":1},{"PRN":86,"el":36.0,"az":323.0,"ss":0.0,"used":false,"gnssid":6,"svid":22,"health":1}]}
$GPZDA,181859.25,10,06,2021,00,00*6B
$GPGGA,181859.25,5008.1050,N,01425.7967,E,1,09,1.09,304.89,M,44.594,M,,*6C
$GPRMC,181859.25,A,5008.1050,N,01425.7967,E,0.0758,0.000,100621,4.2,E*6F
$GPGSA,A,3,1,3,4,17,19,21,22,,,,,,2.5,1.1,2.2*0E
$GPGBS,181859.25,10.737,12.477,4.880,,,,*4B
{"class":"TPV","mode":3,"time":"2021-06-10T18:18:59.250Z","leapseconds":18,"ept":0.005,"lat":50.135083000,"lon":14.429945700,"altHAE":349.1570,"altMSL":304.8860,"alt":304.8860,"epx":10.737,"epy":12.477,"epv":4.880,"track":0.0000,"magtrack":4.1640,"magvar":4.2,"speed":0.039,"climb":0.172,"eps":0.40,"epc":39.04,"geoidSep":44.594,"eph":2.504,"sep":47.310}
$GPGSV,6,1,21,01,56,148,32,03,83,352,33,04,49,198,30,06,09,311,00*79
$GPGSV,6,2,21,09,16,215,22,12,02,355,00,17,40,270,27,19,33,300,29*76
$GPGSV,6,3,21,21,36,147,33,22,61,083,36,31,29,079,18,32,01,045,00*7D
$GPGSV,6,4,21,69,40,047,26,70,70,270,00,71,21,242,00,77,00,341,00*76
$GPGSV,6,5,21,78,16,029,00,79,12,079,00,84,25,168,00,85,71,244,17*72
$GPGSV,6,6,21,86,36,323,00*43
{"class":"SKY","time":"2021-06-10T18:18:59.250Z","xdop":0.72,"ydop":0.83,"vdop":2.23,"tdop":1.72,"hdop":1.09,"gdop":3.02,"pdop":2.49,"nSat":21,"uSat":9,"satellites":[{"PRN":1,"el":56.0,"az":148.0,"ss":32.0,"used":true,"gnssid":0,"svid":1,"health":1},{"PRN":3,"el":83.0,"az":352.0,"ss":33.0,"used":true,"gnssid":0,"svid":3,"health":1},{"PRN":4,"el":49.0,"az":198.0,"ss":30.0,"used":true,"gnssid":0,"svid":4,"health":1},{"PRN":6,"el":9.0,"az":311.0,"ss":0.0,"used":false,"gnssid":0,"svid":6,"health":1},{"PRN":9,"el":16.0,"az":215.0,"ss":22.0,"used":false,"gnssid":0,"svid":9,"health":1},{"PRN":12,"el":2.0,"az":355.0,"ss":0.0,"used":false,"gnssid":0,"svid":12,"health":1},{"PRN":17,"el":40.0,"az":270.0,"ss":27.0,"used":true,"gnssid":0,"svid":17,"health":1},{"PRN":19,"el":33.0,"az":300.0,"ss":29.0,"used":true,"gnssid":0,"svid":19,"health":1},{"PRN":21,"el":36.0,"az":147.0,"ss":33.0,"used":true,"gnssid":0,"svid":21,"health":1},{"PRN":22,"el":61.0,"az":83.0,"ss":36.0,"used":true,"gnssid":0,"svid":22,"health":1},{"PRN":31,"el":29.0,"az":79.0,"ss":18.0,"used":false,"gnssid":0,"svid":31,"health":1},{"PRN":32,"el":1.0,"az":45.0,"ss":0.0,"used":false,"gnssid":0,"svid":32,"health":1},{"PRN":69,"el":40.0,"az":47.0,"ss":26.0,"used":true,"gnssid":6,"svid":5,"health":1},{"PRN":70,"el":70.0,"az":270.0,"ss":0.0,"used":false,"gnssid":6,"svid":6,"health":1},{"PRN":71,"el":21.0,"az":242.0,"ss":0.0,"used":false,"gnssid":6,"svid":7,"health":1},{"PRN":77,"el":0.0,"az":341.0,"ss":0.0,"used":false,"gnssid":6,"svid":13,"health":1},{"PRN":78,"el":16.0,"az":29.0,"ss":0.0,"used":false,"gnssid":6,"svid":14,"health":1},{"PRN":79,"el":12.0,"az":79.0,"ss":0.0,"used":false,"gnssid":6,"svid":15,"health":1},{"PRN":84,"el":25.0,"az":168.0,"ss":0.0,"used":false,"gnssid":6,"svid":20,"health":1},{"PRN":85,"el":71.0,"az":244.0,"ss":17.0,"used":true,"gnssid":6,"svid":21,"health":1},{"PRN":86,"el":36.0,"az":323.0,"ss":0.0,"used":false,"gnssid":6,"svid":22,"health":1}]}
$GPZDA,181859.50,10,06,2021,00,00*69
$GPGGA,181859.50,5008.1050,N,01425.7967,E,1,09,1.09,304.92,M,44.594,M,,*64
$GPRMC,181859.50,A,5008.1050,N,01425.7967,E,0.0505,0.000,100621,4.2,E*67
$GPGSA,A,3,1,3,4,17,19,21,22,,,,,,2.5,1.1,2.2*0E
$GPGBS,181859.50,10.737,12.477,4.878,,,,*4E
{"class":"TPV","mode":3,"time":"2021-06-10T18:18:59.500Z","leapseconds":18,"ept":0.005,"lat":50.135082800,"lon":14.429945700,"altHAE":349.1880,"altMSL":304.9180,"alt":304.9180,"epx":10.737,"epy":12.477,"epv":4.878,"track":0.0000,"magtrack":4.1640,"magvar":4.2,"speed":0.026,"climb":0.124,"eps":0.40,"epc":39.03,"geoidSep":44.594,"eph":2.504,"sep":47.310}
$GPGSV,6,1,21,01,56,148,33,03,83,352,33,04,49,198,30,06,09,311,00*78
$GPGSV,6,2,21,09,16,215,22,12,02,355,00,17,40,270,27,19,33,300,29*76
$GPGSV,6,3,21,21,36,147,33,22,61,083,35,31,29,079,18,32,01,045,00*7E
$GPGSV,6,4,21,69,40,047,26,70,70,270,00,71,21,242,00,77,00,341,00*76
$GPGSV,6,5,21,78,16,029,00,79,12,079,00,84,25,168,00,85,71,244,17*72
$GPGSV,6,6,21,86,36,323,00*43
{"class":"SKY","time":"2021-06-10T18:18:59.500Z","xdop":0.72,"ydop":0.83,"vdop":2.23,"tdop":1.72,"hdop":1.09,"gdop":3.02,"pdop":2.49,"nSat":21,"uSat":9,"satellites":[{"PRN":1,"el":56.0,"az":148.0,"ss":33.0,"used":true,"gnssid":0,"svid":1,"health":1},{"PRN":3,"el":83.0,"az":352.0,"ss":33.0,"used":true,"gnssid":0,"svid":3,"health":1},{"PRN":4,"el":49.0,"az":198.0,"ss":30.0,"used":true,"gnssid":0,"svid":4,"health":1},{"PRN":6,"el":9.0,"az":311.0,"ss":0.0,"used":false,"gnssid":0,"svid":6,"health":1},{"PRN":9,"el":16.0,"az":215.0,"ss":22.0,"used":false,"gnssid":0,"svid":9,"health":1},{"PRN":12,"el":2.0,"az":355.0,"ss":0.0,"used":false,"gnssid":0,"svid":12,"health":1},{"PRN":17,"el":40.0,"az":270.0,"ss":27.0,"used":true,"gnssid":0,"svid":17,"health":1},{"PRN":19,"el":33.0,"az":300.0,"ss":29.0,"used":true,"gnssid":0,"svid":19,"health":1},{"PRN":21,"el":36.0,"az":147.0,"ss":33.0,"used":true,"gnssid":0,"svid":21,"health":1},{"PRN":22,"el":61.0,"az":83.0,"ss":35.0,"used":true,"gnssid":0,"svid":22,"health":1},{"PRN":31,"el":29.0,"az":79.0,"ss":18.0,"used":false,"gnssid":0,"svid":31,"health":1},{"PRN":32,"el":1.0,"az":45.0,"ss":0.0,"used":false,"gnssid":0,"svid":32,"health":1},{"PRN":69,"el":40.0,"az":47.0,"ss":26.0,"used":true,"gnssid":6,"svid":5,"health":1},{"PRN":70,"el":70.0,"az":270.0,"ss":0.0,"used":false,"gnssid":6,"svid":6,"health":1},{"PRN":71,"el":21.0,"az":242.0,"ss":0.0,"used":false,"gnssid":6,"svid":7,"health":1},{"PRN":77,"el":0.0,"az":341.0,"ss":0.0,"used":false,"gnssid":6,"svid":13,"health":1},{"PRN":78,"el":16.0,"az":29.0,"ss":0.0,"used":false,"gnssid":6,"svid":14,"health":1},{"PRN":79,"el":12.0,"az":79.0,"ss":0.0,"used":false,"gnssid":6,"svid":15,"health":1},{"PRN":84,"el":25.0,"az":168.0,"ss":0.0,"used":false,"gnssid":6,"svid":20,"health":1},{"PRN":85,"el":71.0,"az":244.0,"ss":17.0,"used":true,"gnssid":6,"svid":21,"health":1},{"PRN":86,"el":36.0,"az":323.0,"ss":0.0,"used":false,"gnssid":6,"svid":22,"health":1}]}
$GPZDA,181859.75,10,06,2021,00,00*6E
$GPGGA,181859.75,5008.1049,N,01425.7967,E,1,09,1.09,304.99,M,44.594,M,,*60
$GPRMC,181859.75,A,5008.1049,N,01425.7967,E,0.0272,0.000,100621,4.2,E*6F
$GPGSA,A,3,1,3,4,17,19,21,22,,,,,,2.5,1.1,2.2*0E
$GPGBS,181859.75,10.737,12.477,4.876,,,,*47
{"class":"TPV","mode":3,"time":"2021-06-10T18:18:59.750Z","leapseconds":18,"ept":0.005,"lat":50.135082500,"lon":14.429945800,"altHAE":349.2590,"altMSL":304.9890,"alt":304.9890,"epx":10.737,"epy":12.477,"epv":4.876,"track":0.0000,"magtrack":4.1640,"magvar":4.2,"speed":0.014,"climb":0.284,"eps":0.37,"epc":39.02,"geoidSep":44.594,"eph":2.504,"sep":47.310}
$GPGSV,6,1,21,01,56,148,33,03,83,352,33,04,49,198,30,06,09,311,00*78
$GPGSV,6,2,21,09,16,215,22,12,02,355,00,17,40,270,27,19,33,300,29*76
$GPGSV,6,3,21,21,36,147,33,22,61,083,35,31,29,079,18,32,01,045,00*7E
$GPGSV,6,4,21,69,40,047,27,70,70,270,00,71,21,242,00,77,00,341,00*77
$GPGSV,6,5,21,78,16,029,00,79,12,079,00,84,25,168,00,85,71,244,17*72
$GPGSV,6,6,21,86,36,323,00*43
{"class":"SKY","time":"2021-06-10T18:18:59.750Z","xdop":0.72,"ydop":0.83,"vdop":2.23,"tdop":1.72,"hdop":1.09,"gdop":3.02,"pdop":2.49,"nSat":21,"uSat":9,"satellites":[{"PRN":1,"el":56.0,"az":148.0,"ss":33.0,"used":true,"gnssid":0,"svid":1,"health":1},{"PRN":3,"el":83.0,"az":352.0,"ss":33.0,"used":true,"gnssid":0,"svid":3,"health":1},{"PRN":4,"el":49.0,"az":198.0,"ss":30.0,"used":true,"gnssid":0,"svid":4,"health":1},{"PRN":6,"el":9.0,"az":311.0,"ss":0.0,"used":false,"gnssid":0,"svid":6,"health":1},{"PRN":9,"el":16.0,"az":215.0,"ss":22.0,"used":false,"gnssid":0,"svid":9,"health":1},{"PRN":12,"el":2.0,"az":355.0,"ss":0.0,"used":false,"gnssid":0,"svid":12,"health":1},{"PRN":17,"el":40.0,"az":270.0,"ss":27.0,"used":true,"gnssid":0,"svid":17,"health":1},{"PRN":19,"el":33.0,"az":300.0,"ss":29.0,"used":true,"gnssid":0,"svid":19,"health":1},{"PRN":21,"el":36.0,"az":147.0,"ss":33.0,"used":true,"gnssid":0,"svid":21,"health":1},{"PRN":22,"el":61.0,"az":83.0,"ss":35.0,"used":true,"gnssid":0,"svid":22,"health":1},{"PRN":31,"el":29.0,"az":79.0,"ss":18.0,"used":false,"gnssid":0,"svid":31,"health":1},{"PRN":32,"el":1.0,"az":45.0,"ss":0.0,"used":false,"gnssid":0,"svid":32,"health":1},{"PRN":69,"el":40.0,"az":47.0,"ss":27.0,"used":true,"gnssid":6,"svid":5,"health":1},{"PRN":70,"el":70.0,"az":270.0,"ss":0.0,"used":false,"gnssid":6,"svid":6,"health":1},{"PRN":71,"el":21.0,"az":242.0,"ss":0.0,"used":false,"gnssid":6,"svid":7,"health":1},{"PRN":77,"el":0.0,"az":341.0,"ss":0.0,"used":false,"gnssid":6,"svid":13,"health":1},{"PRN":78,"el":16.0,"az":29.0,"ss":0.0,"used":false,"gnssid":6,"svid":14,"health":1},{"PRN":79,"el":12.0,"az":79.0,"ss":0.0,"used":false,"gnssid":6,"svid":15,"health":1},{"PRN":84,"el":25.0,"az":168.0,"ss":0.0,"used":false,"gnssid":6,"svid":20,"health":1},{"PRN":85,"el":71.0,"az":244.0,"ss":17.0,"used":true,"gnssid":6,"svid":21,"health":1},{"PRN":86,"el":36.0,"az":323.0,"ss":0.0,"used":false,"gnssid":6,"svid":22,"health":1}]}
$GPZDA,181900.00,10,06,2021,00,00*61
$GPGGA,181900.00,5008.1049,N,01425.7967,E,1,09,1.09,305.00,M,44.594,M,,*6E
$GPRMC,181900.00,A,5008.1049,N,01425.7967,E,0.0447,0.000,100621,4.2,E*60
$GPGSA,A,3,1,3,4,17,19,21,22,,,,,,2.5,1.1,2.2*0E
$GPGBS,181900.00,10.737,12.477,4.875,,,,*4B
{"class":"TPV","mode":3,"time":"2021-06-10T18:19:00.000Z","leapseconds":18,"ept":0.005,"lat":50.135082400,"lon":14.429945800,"altHAE":349.2680,"altMSL":304.9980,"alt":304.9980,"epx":10.737,"epy":12.477,"epv":4.875,"track":0.0000,"magtrack":4.1640,"magvar":4.2,"speed":0.023,"climb":0.036,"eps":0.32,"epc":39.00,"geoidSep":44.594,"eph":2.503,"sep":47.310}
$GPGSV,6,1,21,01,56,148,33,03,83,352,33,04,49,198,30,06,09,311,00*78
$GPGSV,6,2,21,09,16,215,22,12,02,355,00,17,40,270,27,19,33,300,28*77
$GPGSV,6,3,21,21,36,147,33,22,61,083,35,31,29,079,18,32,01,045,00*7E
$GPGSV,6,4,21,69,40,047,27,70,70,270,00,71,21,242,00,77,00,341,00*77
$GPGSV,6,5,21,78,16,029,00,79,12,079,00,84,25,168,00,85,71,244,17*72
$GPGSV,6,6,21,86,36,323,00*43
{"class":"SKY","time":"2021-06-10T18:19:00.000Z","xdop":0.72,"ydop":0.83,"vdop":2.23,"tdop":1.72,"hdop":1.09,"gdop":3.02,"pdop":2.49,"nSat":21,"uSat":9,"satellites":[{"PRN":1,"el":56.0,"az":148.0,"ss":33.0,"used":true,"gnssid":0,"svid":1,"health":1},{"PRN":3,"el":83.0,"az":352.0,"ss":33.0,"used":true,"gnssid":0,"svid":3,"health":1},{"PRN":4,"el":49.0,"az":198.0,"ss":30.0,"used":true,"gnssid":0,"svid":4,"health":1},{"PRN":6,"el":9.0,"az":311.0,"ss":0.0,"used":false,"gnssid":0,"svid":6,"health":1},{"PRN":9,"el":16.0,"az":215.0,"ss":22.0,"used":false,"gnssid":0,"svid":9,"health":1},{"PRN":12,"el":2.0,"az":355.0,"ss":0.0,"used":false,"gnssid":0,"svid":12,"health":1},{"PRN":17,"el":40.0,"az":270.0,"ss":27.0,"used":true,"gnssid":0,"svid":17,"health":1},{"PRN":19,"el":33.0,"az":300.0,"ss":28.0,"used":true,"gnssid":0,"svid":19,"health":1},{"PRN":21,"el":36.0,"az":147.0,"ss":33.0,"used":true,"gnssid":0,"svid":21,"health":1},{"PRN":22,"el":61.0,"az":83.0,"ss":35.0,"used":true,"gnssid":0,"svid":22,"health":1},{"PRN":31,"el":29.0,"az":79.0,"ss":18.0,"used":false,"gnssid":0,"svid":31,"health":1},{"PRN":32,"el":1.0,"az":45.0,"ss":0.0,"used":false,"gnssid":0,"svid":32,"health":1},{"PRN":69,"el":40.0,"az":47.0,"ss":27.0,"used":true,"gnssid":6,"svid":5,"health":1},{"PRN":70,"el":70.0,"az":270.0,"ss":0.0,"used":false,"gnssid":6,"svid":6,"health":1},{"PRN":71,"el":21.0,"az":242.0,"ss":0.0,"used":false,"gnssid":6,"svid":7,"health":1},{"PRN":77,"el":0.0,"az":341.0,"ss":0.0,"used":false,"gnssid":6,"svid":13,"health":1},{"PRN":78,"el":16.0,"az":29.0,"ss":0.0,"used":false,"gnssid":6,"svid":14,"health":1},{"PRN":79,"el":12.0,"az":79.0,"ss":0.0,"used":false,"gnssid":6,"svid":15,"health":1},{"PRN":84,"el":25.0,"az":168.0,"ss":0.0,"used":false,"gnssid":6,"svid":20,"health":1},{"PRN":85,"el":71.0,"az":244.0,"ss":17.0,"used":true,"gnssid":6,"svid":21,"health":1},{"PRN":86,"el":36.0,"az":323.0,"ss":0.0,"used":false,"gnssid":6,"svid":22,"health":1}]}
$GPZDA,181900.25,10,06,2021,00,00*66
$GPGGA,181900.25,5008.1049,N,01425.7967,E,1,09,1.09,305.06,M,44.594,M,,*6F
$GPRMC,181900.25,A,5008.1049,N,01425.7967,E,0.0680,0.000,100621,4.2,E*6E
$GPGSA,A,3,1,3,4,17,19,21,22,,,,,,2.5,1.1,2.2*0E
$GPGBS,181900.25,10.737,12.477,4.873,,,,*4A
{"class":"TPV","mode":3,"time":"2021-06-10T18:19:00.250Z","leapseconds":18,"ept":0.005,"lat":50.135082100,"lon":14.429945800,"altHAE":349.3330,"altMSL":305.0620,"alt":305.0620,"epx":10.737,"epy":12.477,"epv":4.873,"track":0.0000,"magtrack":4.1640,"magvar":4.2,"speed":0.035,"climb":0.260,"eps":0.37,"epc":38.99,"geoidSep":44.594,"eph":2.503,"sep":47.310}
$GPGSV,6,1,21,01,56,148,32,03,83,352,33,04,49,198,31,06,09,311,00*78
$GPGSV,6,2,21,09,16,215,23,12,02,355,00,17,40,270,27,19,33,300,28*76
$GPGSV,6,3,21,21,36,147,33,22,61,083,35,31,29,079,18,32,01,045,00*7E
$GPGSV,6,4,21,69,40,047,27,70,70,270,00,71,21,242,00,77,00,341,00*77
$GPGSV,6,5,21,78,16,029,00,79,12,079,00,84,25,168,00,85,71,244,17*72
$GPGSV,6,6,21,86,36,323,00*43
{"class":"SKY","time":"2021-06-10T18:19:00.250Z","xdop":0.72,"ydop":0.83,"vdop":2.23,"tdop":1.72,"hdop":1.09,"gdop":3.02,"pdop":2.49,"nSat":21,"uSat":9,"satellites":[{"PRN":1,"el":56.0,"az":148.0,"ss":32.0,"used":true,"gnssid":0,"svid":1,"health":1},{"PRN":3,"el":83.0,"az":352.0,"ss":33.0,"used":true,"gnssid":0,"svid":3,"health":1},{"PRN":4,"el":49.0,"az":198.0,"ss":31.0,"used":true,"gnssid":0,"svid":4,"health":1},{"PRN":6,"el":9.0,"az":311.0,"ss":0.0,"used":false,"gnssid":0,"svid":6,"health":1},{"PRN":9,"el":16.0,"az":215.0,"ss":23.0,"used":false,"gnssid":0,"svid":9,"health":1},{"PRN":12,"el":2.0,"az":355.0,"ss":0.0,"used":false,"gnssid":0,"svid":12,"health":1},{"PRN":17,"el":40.0,"az":270.0,"ss":27.0,"used":true,"gnssid":0,"svid":17,"health":1},{"PRN":19,"el":33.0,"az":300.0,"ss":28.0,"used":true,"gnssid":0,"svid":19,"health":1},{"PRN":21,"el":36.0,"az":147.0,"ss":33.0,"used":true,"gnssid":0,"svid":21,"health":1},{"PRN":22,"el":61.0,"az":83.0,"ss":35.0,"used":true,"gnssid":0,"svid":22,"health":1},{"PRN":31,"el":29.0,"az":79.0,"ss":18.0,"used":false,"gnssid":0,"svid":31,"health":1},{"PRN":32,"el":1.0,"az":45.0,"ss":0.0,"used":false,"gnssid":0,"svid":32,"health":1},{"PRN":69,"el":40.0,"az":47.0,"ss":27.0,"used":true,"gnssid":6,"svid":5,"health":1},{"PRN":70,"el":70.0,"az":270.0,"ss":0.0,"used":false,"gnssid":6,"svid":6,"health":1},{"PRN":71,"el":21.0,"az":242.0,"ss":0.0,"used":false,"gnssid":6,"svid":7,"health":1},{"PRN":77,"el":0.0,"az":341.0,"ss":0.0,"used":false,"gnssid":6,"svid":13,"health":1},{"PRN":78,"el":16.0,"az":29.0,"ss":0.0,"used":false,"gnssid":6,"svid":14,"health":1},{"PRN":79,"el":12.0,"az":79.0,"ss":0.0,"used":false,"gnssid":6,"svid":15,"health":1},{"PRN":84,"el":25.0,"az":168.0,"ss":0.0,"used":false,"gnssid":6,"svid":20,"health":1},{"PRN":85,"el":71.0,"az":244.0,"ss":17.0,"used":true,"gnssid":6,"svid":21,"health":1},{"PRN":86,"el":36.0,"az":323.0,"ss":0.0,"used":false,"gnssid":6,"svid":22,"health":1}]}
$GPZDA,181900.50,10,06,2021,00,00*64
$GPGGA,181900.50,5008.1049,N,01425.7967,E,1,09,1.09,305.14,M,44.594,M,,*6E
$GPRMC,181900.50,A,5008.1049,N,01425.7967,E,0.0447,0.000,100621,4.2,E*65
$GPGSA,A,3,1,3,4,17,19,21,22,,,,,,2.5,1.1,2.2*0E
$GPGBS,181900.50,10.737,12.477,4.872,,,,*49
{"class":"TPV","mode":3,"time":"2021-06-10T18:19:00.500Z","leapseconds":18,"ept":0.005,"lat":50.135081800,"lon":14.429945500,"altHAE":349.4080,"altMSL":305.1380,"alt":305.1380,"epx":10.737,"epy":12.477,"epv":4.872,"track":0.0000,"magtrack":4.1640,"magvar":4.2,"speed":0.023,"climb":0.300,"eps":0.28,"epc":38.98,"geoidSep":44.594,"eph":2.502,"sep":47.310}
