{"class":"IMU","timeTag":"13808410","acc_x":0.035,"acc_y":0.185,"acc_z":10.058,"gyro_x":-0.168,"gyro_y":-0.648,"gyro_z":0.076}
{"class":"IMU","timeTag":"16969412","acc_x":0.047,"acc_y":0.194,"acc_z":10.035}
{"class":"IMU","timeTag":"16969407","gyro_x":-0.108,"gyro_y":-0.667,"gyro_z":-0.024}
{"class":"IMU","timeTag":"13810966","acc_x":0.054,"acc_y":0.168,"acc_z":10.040,"gyro_x":-0.107,"gyro_y":-0.671,"gyro_z":0.008}
{"class":"IMU","timeTag":"16969512","acc_x":0.027,"acc_y":0.209,"acc_z":10.029}
{"class":"IMU","timeTag":"16969507","gyro_x":-0.124,"gyro_y":-0.695,"gyro_z":-0.033}
{"class":"IMU","timeTag":"13813520","acc_x":0.033,"acc_y":0.234,"acc_z":10.046,"gyro_x":-0.053,"gyro_y":-0.755,"gyro_z":-0.122}
{"class":"IMU","timeTag":"16969612","acc_x":0.041,"acc_y":0.213,"acc_z":10.039}
{"class":"IMU","timeTag":"16969607","gyro_x":-0.072,"gyro_y":-0.703,"gyro_z":-0.014}
$GPZDA,165244.00,26,05,2021,00,00*66
$GPGGA,165244.00,5135.4610,N,00001.4782,W,2,00,,7.57,M,45.536,M,,*6E
$GPRMC,165244.00,A,5135.4610,N,00001.4782,W,0.0253,314.262,260521,-0.1,W*4B
$GPGSA,A,3,,,,,,,,,,,,,,,*1C
{"class":"TPV","status":2,"mode":3,"time":"2021-05-26T16:52:44.000Z","ept":0.005,"lat":51.591017300,"lon":-0.024636000,"altHAE":53.0770,"altMSL":7.5700,"alt":7.5700,"epv":2.817,"track":314.2616,"magtrack":314.1273,"magvar":-0.1,"speed":0.013,"eps":0.24,"geoidSep":45.536,"eph":2.113}
$GPGSV,7,1,26,01,64,286,42,03,30,218,00,08,48,162,25,10,15,051,39*74
$GPGSV,7,2,26,14,29,293,30,17,14,312,26,21,86,003,26,22,61,211,28*7F
$GPGSV,7,3,26,24,02,007,26,27,16,147,35,28,24,312,00,32,35,075,42*77
$GPGSV,7,4,26,33,29,199,00,36,24,142,33,40,12,119,00,49,31,174,00*73
$GPGSV,7,5,26,68,08,025,21,69,52,054,38,70,48,168,22,71,04,192,00*73
$GPGSV,7,6,26,75,04,251,00,76,20,300,00,77,13,351,00,84,38,105,22*7A
$GPGSV,7,7,26,85,71,340,31,86,24,306,00*7E
{"class":"SKY","time":"2019-04-10T16:52:44.000Z","xdop":0.65,"ydop":0.70,"vdop":1.36,"tdop":1.02,"hdop":0.96,"gdop":1.95,"pdop":1.66,"nSat":26,"uSat":11,"satellites":[{"PRN":1,"el":64.0,"az":286.0,"ss":42.0,"used":true,"gnssid":0,"svid":1,"health":1},{"PRN":3,"el":30.0,"az":218.0,"ss":0.0,"used":false,"gnssid":0,"svid":3,"health":1},{"PRN":8,"el":48.0,"az":162.0,"ss":25.0,"used":true,"gnssid":0,"svid":8,"health":1},{"PRN":10,"el":15.0,"az":51.0,"ss":39.0,"used":true,"gnssid":0,"svid":10,"health":1},{"PRN":14,"el":29.0,"az":293.0,"ss":30.0,"used":true,"gnssid":0,"svid":14,"health":1},{"PRN":17,"el":14.0,"az":312.0,"ss":26.0,"used":false,"gnssid":0,"svid":17,"health":1},{"PRN":21,"el":86.0,"az":3.0,"ss":26.0,"used":true,"gnssid":0,"svid":21,"health":1},{"PRN":22,"el":61.0,"az":211.0,"ss":28.0,"used":true,"gnssid":0,"svid":22,"health":1},{"PRN":24,"el":2.0,"az":7.0,"ss":26.0,"used":false,"gnssid":0,"svid":24,"health":1},{"PRN":27,"el":16.0,"az":147.0,"ss":35.0,"used":true,"gnssid":0,"svid":27,"health":1},{"PRN":28,"el":24.0,"az":312.0,"ss":0.0,"used":false,"gnssid":0,"svid":28,"health":1},{"PRN":32,"el":35.0,"az":75.0,"ss":42.0,"used":true,"gnssid":0,"svid":32,"health":1},{"PRN":33,"el":29.0,"az":199.0,"ss":0.0,"used":false,"gnssid":1,"svid":120},{"PRN":36,"el":24.0,"az":142.0,"ss":33.0,"used":false,"gnssid":1,"svid":123,"health":1},{"PRN":40,"el":12.0,"az":119.0,"ss":0.0,"used":false,"gnssid":1,"svid":127},{"PRN":49,"el":31.0,"az":174.0,"ss":0.0,"used":false,"gnssid":1,"svid":136,"health":1},{"PRN":68,"el":8.0,"az":25.0,"ss":21.0,"used":false,"gnssid":6,"svid":4,"health":1},{"PRN":69,"el":52.0,"az":54.0,"ss":38.0,"used":true,"gnssid":6,"svid":5,"health":1},{"PRN":70,"el":48.0,"az":168.0,"ss":22.0,"used":false,"gnssid":6,"svid":6,"health":1},{"PRN":71,"el":4.0,"az":192.0,"ss":0.0,"used":false,"gnssid":6,"svid":7,"health":1},{"PRN":75,"el":4.0,"az":251.0,"ss":0.0,"used":false,"gnssid":6,"svid":11,"health":2},{"PRN":76,"el":20.0,"az":300.0,"ss":0.0,"used":false,"gnssid":6,"svid":12,"health":1},{"PRN":77,"el":13.0,"az":351.0,"ss":0.0,"used":false,"gnssid":6,"svid":13,"health":1},{"PRN":84,"el":38.0,"az":105.0,"ss":22.0,"used":true,"gnssid":6,"svid":20,"health":1},{"PRN":85,"el":71.0,"az":340.0,"ss":31.0,"used":true,"gnssid":6,"svid":21,"health":1},{"PRN":86,"el":24.0,"az":306.0,"ss":0.0,"used":false,"gnssid":6,"svid":22,"health":1}]}
{"class":"IMU","timeTag":"13816089","acc_x":0.018,"acc_y":0.225,"acc_z":10.008,"gyro_x":-0.137,"gyro_y":-0.656,"gyro_z":-0.008}
{"class":"IMU","timeTag":"16969712","acc_x":0.032,"acc_y":0.193,"acc_z":10.039}
{"class":"IMU","timeTag":"16969707","gyro_x":-0.076,"gyro_y":-0.713,"gyro_z":-0.070}
{"class":"IMU","timeTag":"13818642","acc_x":0.048,"acc_y":0.210,"acc_z":10.036,"gyro_x":-0.115,"gyro_y":-0.656,"gyro_z":-0.046}
{"class":"IMU","timeTag":"16969813","acc_x":0.031,"acc_y":0.206,"acc_z":10.031}
{"class":"IMU","timeTag":"16969808","gyro_x":-0.088,"gyro_y":-0.677,"gyro_z":-0.021}
{"class":"IMU","timeTag":"13821196","acc_x":0.013,"acc_y":0.207,"acc_z":10.034,"gyro_x":-0.107,"gyro_y":-0.694,"gyro_z":-0.092}
{"class":"IMU","timeTag":"16969913","acc_x":0.036,"acc_y":0.202,"acc_z":10.026}
{"class":"IMU","timeTag":"16969908","gyro_x":-0.123,"gyro_y":-0.718,"gyro_z":-0.043}
{"class":"IMU","timeTag":"13823774","acc_x":0.022,"acc_y":0.197,"acc_z":10.040,"gyro_x":-0.038,"gyro_y":-0.678,"gyro_z":-0.046}
{"class":"IMU","timeTag":"16970013","acc_x":0.040,"acc_y":0.203,"acc_z":10.038}
{"class":"IMU","timeTag":"16970008","gyro_x":-0.072,"gyro_y":-0.704,"gyro_z":-0.025}
{"class":"IMU","timeTag":"13826327","acc_x":0.022,"acc_y":0.182,"acc_z":10.051,"gyro_x":-0.176,"gyro_y":-0.717,"gyro_z":-0.076}
{"class":"IMU","timeTag":"16970114","acc_x":0.034,"acc_y":0.201,"acc_z":10.035}
{"class":"IMU","timeTag":"16970109","gyro_x":-0.123,"gyro_y":-0.690,"gyro_z":-0.027}
{"class":"IMU","timeTag":"13828880","acc_x":0.045,"acc_y":0.222,"acc_z":10.041,"gyro_x":-0.137,"gyro_y":-0.678,"gyro_z":-0.061}
{"class":"IMU","timeTag":"16970214","acc_x":0.032,"acc_y":0.204,"acc_z":10.032}
{"class":"IMU","timeTag":"16970209","gyro_x":-0.114,"gyro_y":-0.703,"gyro_z":-0.035}
{"class":"IMU","timeTag":"13831434","acc_x":0.062,"acc_y":0.208,"acc_z":10.035,"gyro_x":-0.137,"gyro_y":-0.671,"gyro_z":-0.069}
{"class":"IMU","timeTag":"16970314","acc_x":0.039,"acc_y":0.202,"acc_z":10.038}
{"class":"IMU","timeTag":"16970309","gyro_x":-0.096,"gyro_y":-0.690,"gyro_z":-0.011}
{"class":"IMU","timeTag":"13834012","acc_x":0.041,"acc_y":0.198,"acc_z":10.039,"gyro_x":-0.084,"gyro_y":-0.694,"gyro_z":-0.015}
{"class":"IMU","timeTag":"16970415","acc_x":0.039,"acc_y":0.208,"acc_z":10.025}
{"class":"IMU","timeTag":"16970410","gyro_x":-0.102,"gyro_y":-0.682,"gyro_z":-0.011}
{"class":"IMU","timeTag":"13836565","acc_x":0.045,"acc_y":0.216,"acc_z":10.033,"gyro_x":-0.153,"gyro_y":-0.656,"gyro_z":0.000}
{"class":"IMU","timeTag":"16970515","acc_x":0.042,"acc_y":0.199,"acc_z":10.026}
{"class":"IMU","timeTag":"16970510","gyro_x":-0.096,"gyro_y":-0.703,"gyro_z":-0.017}
{"class":"IMU","timeTag":"13839118","acc_x":0.059,"acc_y":0.200,"acc_z":10.035,"gyro_x":-0.145,"gyro_y":-0.694,"gyro_z":0.038}
{"class":"IMU","timeTag":"16970615","acc_x":0.037,"acc_y":0.197,"acc_z":10.032}
{"class":"IMU","timeTag":"16970610","gyro_x":-0.092,"gyro_y":-0.703,"gyro_z":-0.024}
$GPZDA,165245.00,26,05,2021,00,00*67
$GPGGA,165245.00,5135.4610,N,00001.4782,W,2,11,0.96,7.60,M,45.536,M,,*7A
$GPRMC,165245.00,A,5135.4610,N,00001.4782,W,0.0603,314.262,260521,-0.1,W*4B
$GPGSA,A,3,1,8,10,14,21,22,27,32,,,,,1.7,1.0,1.4*3A
$GPGBS,165245.00,2.452,2.628,2.837,,,,*41
{"class":"TPV","status":2,"mode":3,"time":"2021-05-26T16:52:45.000Z","leapseconds":18,"ept":0.005,"lat":51.591017200,"lon":-0.024636400,"altHAE":53.1100,"altMSL":7.6030,"alt":7.6030,"epx":2.452,"epy":2.628,"epv":2.837,"track":314.2616,"magtrack":314.1273,"magvar":-0.1,"speed":0.031,"climb":0.033,"eps":0.28,"epc":5.65,"ecefx":3970751.08,"ecefy":-1707.34,"ecefz":4974701.63,"ecefvx":0.00,"ecefvy":-0.01,"ecefvz":0.00,"ecefpAcc":3.52,"ecefvAcc":0.24,"geoidSep":45.536,"eph":2.121,"sep":7.898}
$GPGSV,7,1,26,01,64,286,42,03,30,218,00,08,48,162,25,10,15,051,39*74
$GPGSV,7,2,26,14,29,293,30,17,14,312,26,21,86,003,26,22,61,211,28*7F
$GPGSV,7,3,26,24,02,007,27,27,16,147,35,28,24,312,22,32,35,075,42*76
$GPGSV,7,4,26,33,29,199,00,36,24,142,33,40,12,119,00,49,31,174,00*73
$GPGSV,7,5,26,68,08,025,22,69,52,054,38,70,48,168,22,71,04,192,00*70
$GPGSV,7,6,26,75,04,251,00,76,20,300,00,77,13,351,00,84,38,105,23*7B
$GPGSV,7,7,26,85,71,340,31,86,24,306,00*7E
{"class":"SKY","time":"2021-05-26T16:52:45.000Z","xdop":0.65,"ydop":0.70,"vdop":1.36,"tdop":1.03,"hdop":0.96,"gdop":1.96,"pdop":1.67,"nSat":26,"uSat":11,"satellites":[{"PRN":1,"el":64.0,"az":286.0,"ss":42.0,"used":true,"gnssid":0,"svid":1,"health":1},{"PRN":3,"el":30.0,"az":218.0,"ss":0.0,"used":false,"gnssid":0,"svid":3,"health":1},{"PRN":8,"el":48.0,"az":162.0,"ss":25.0,"used":true,"gnssid":0,"svid":8,"health":1},{"PRN":10,"el":15.0,"az":51.0,"ss":39.0,"used":true,"gnssid":0,"svid":10,"health":1},{"PRN":14,"el":29.0,"az":293.0,"ss":30.0,"used":true,"gnssid":0,"svid":14,"health":1},{"PRN":17,"el":14.0,"az":312.0,"ss":26.0,"used":false,"gnssid":0,"svid":17,"health":1},{"PRN":21,"el":86.0,"az":3.0,"ss":26.0,"used":true,"gnssid":0,"svid":21,"health":1},{"PRN":22,"el":61.0,"az":211.0,"ss":28.0,"used":true,"gnssid":0,"svid":22,"health":1},{"PRN":24,"el":2.0,"az":7.0,"ss":27.0,"used":false,"gnssid":0,"svid":24,"health":1},{"PRN":27,"el":16.0,"az":147.0,"ss":35.0,"used":true,"gnssid":0,"svid":27,"health":1},{"PRN":28,"el":24.0,"az":312.0,"ss":22.0,"used":false,"gnssid":0,"svid":28,"health":1},{"PRN":32,"el":35.0,"az":75.0,"ss":42.0,"used":true,"gnssid":0,"svid":32,"health":1},{"PRN":33,"el":29.0,"az":199.0,"ss":0.0,"used":false,"gnssid":1,"svid":120},{"PRN":36,"el":24.0,"az":142.0,"ss":33.0,"used":false,"gnssid":1,"svid":123,"health":1},{"PRN":40,"el":12.0,"az":119.0,"ss":0.0,"used":false,"gnssid":1,"svid":127},{"PRN":49,"el":31.0,"az":174.0,"ss":0.0,"used":false,"gnssid":1,"svid":136,"health":1},{"PRN":68,"el":8.0,"az":25.0,"ss":22.0,"used":false,"gnssid":6,"svid":4,"health":1},{"PRN":69,"el":52.0,"az":54.0,"ss":38.0,"used":true,"gnssid":6,"svid":5,"health":1},{"PRN":70,"el":48.0,"az":168.0,"ss":22.0,"used":false,"gnssid":6,"svid":6,"health":1},{"PRN":71,"el":4.0,"az":192.0,"ss":0.0,"used":false,"gnssid":6,"svid":7,"health":1},{"PRN":75,"el":4.0,"az":251.0,"ss":0.0,"used":false,"gnssid":6,"svid":11,"health":2},{"PRN":76,"el":20.0,"az":300.0,"ss":0.0,"used":false,"gnssid":6,"svid":12,"health":1},{"PRN":77,"el":13.0,"az":351.0,"ss":0.0,"used":false,"gnssid":6,"svid":13,"health":1},{"PRN":84,"el":38.0,"az":105.0,"ss":23.0,"used":true,"gnssid":6,"svid":20,"health":1},{"PRN":85,"el":71.0,"az":340.0,"ss":31.0,"used":true,"gnssid":6,"svid":21,"health":1},{"PRN":86,"el":24.0,"az":306.0,"ss":0.0,"used":false,"gnssid":6,"svid":22,"health":1}]}
{"class":"ATT","time":"2021-05-26T16:52:45.000Z","pitch":0.00,"yaw":0.00,"roll":0.00}
{"class":"IMU","timeTag":"13841696","acc_x":0.017,"acc_y":0.210,"acc_z":10.030,"gyro_x":-0.137,"gyro_y":-0.694,"gyro_z":-0.015}
{"class":"IMU","timeTag":"16970715","acc_x":0.027,"acc_y":0.214,"acc_z":10.035}
{"class":"IMU","timeTag":"16970710","gyro_x":-0.117,"gyro_y":-0.705,"gyro_z":-0.051}
{"class":"IMU","timeTag":"13844250","acc_x":0.021,"acc_y":0.216,"acc_z":10.023,"gyro_x":-0.053,"gyro_y":-0.648,"gyro_z":-0.084}
{"class":"IMU","timeTag":"16970816","acc_x":0.028,"acc_y":0.203,"acc_z":10.033}
{"class":"IMU","timeTag":"16970811","gyro_x":-0.068,"gyro_y":-0.676,"gyro_z":0.013}
{"class":"IMU","timeTag":"13846803","acc_x":0.029,"acc_y":0.213,"acc_z":10.013,"gyro_x":-0.153,"gyro_y":-0.717,"gyro_z":0.084}
{"class":"IMU","timeTag":"16970916","acc_x":0.033,"acc_y":0.196,"acc_z":10.026}
{"class":"IMU","timeTag":"16970911","gyro_x":-0.079,"gyro_y":-0.690,"gyro_z":0.006}
{"class":"IMU","timeTag":"13849356","acc_x":0.033,"acc_y":0.218,"acc_z":10.021,"gyro_x":-0.061,"gyro_y":-0.709,"gyro_z":0.000}
{"class":"IMU","timeTag":"16971016","acc_x":0.038,"acc_y":0.208,"acc_z":10.027}
{"class":"IMU","timeTag":"16971011","gyro_x":-0.069,"gyro_y":-0.717,"gyro_z":-0.037}
{"class":"IMU","timeTag":"13851935","acc_x":0.032,"acc_y":0.204,"acc_z":10.039,"gyro_x":-0.046,"gyro_y":-0.633,"gyro_z":-0.069}
{"class":"IMU","timeTag":"16971116","acc_x":0.043,"acc_y":0.203,"acc_z":10.035}
{"class":"IMU","timeTag":"16971111","gyro_x":-0.108,"gyro_y":-0.685,"gyro_z":-0.046}
{"class":"IMU","timeTag":"13854487","acc_x":0.028,"acc_y":0.197,"acc_z":10.021,"gyro_x":-0.214,"gyro_y":-0.686,"gyro_z":-0.038}
{"class":"IMU","timeTag":"16971217","acc_x":0.026,"acc_y":0.201,"acc_z":10.029}
{"class":"IMU","timeTag":"16971212","gyro_x":-0.114,"gyro_y":-0.694,"gyro_z":-0.003}
{"class":"IMU","timeTag":"13857041","acc_x":0.038,"acc_y":0.187,"acc_z":10.036,"gyro_x":-0.031,"gyro_y":-0.686,"gyro_z":-0.046}
{"class":"IMU","timeTag":"16971317","acc_x":0.035,"acc_y":0.201,"acc_z":10.037}
{"class":"IMU","timeTag":"16971312","gyro_x":-0.082,"gyro_y":-0.691,"gyro_z":-0.043}
{"class":"IMU","timeTag":"13859593","acc_x":0.032,"acc_y":0.225,"acc_z":10.030,"gyro_x":-0.153,"gyro_y":-0.694,"gyro_z":-0.076}
{"class":"IMU","timeTag":"16971417","acc_x":0.029,"acc_y":0.203,"acc_z":10.022}
{"class":"IMU","timeTag":"16971412","gyro_x":-0.098,"gyro_y":-0.682,"gyro_z":-0.028}
{"class":"IMU","timeTag":"13862172","acc_x":0.035,"acc_y":0.199,"acc_z":10.053,"gyro_x":-0.046,"gyro_y":-0.625,"gyro_z":0.015}
{"class":"IMU","timeTag":"16971517","acc_x":0.033,"acc_y":0.206,"acc_z":10.037}
{"class":"IMU","timeTag":"16971512","gyro_x":-0.067,"gyro_y":-0.666,"gyro_z":0.008}
{"class":"IMU","timeTag":"13864725","acc_x":0.025,"acc_y":0.203,"acc_z":10.020,"gyro_x":-0.122,"gyro_y":-0.762,"gyro_z":-0.061}
{"class":"IMU","timeTag":"16971618","acc_x":0.034,"acc_y":0.205,"acc_z":10.025}
{"class":"IMU","timeTag":"16971613","gyro_x":-0.083,"gyro_y":-0.694,"gyro_z":-0.022}
$GPZDA,165246.00,26,05,2021,00,00*64
$GPGGA,165246.00,5135.4610,N,00001.4782,W,2,11,0.96,7.60,M,45.536,M,,*79
$GPRMC,165246.00,A,5135.4610,N,00001.4782,W,0.0175,314.262,260521,-0.1,W*4E
$GPGSA,A,3,1,8,10,14,21,22,27,32,,,,,1.7,1.0,1.4*3A
$GPGBS,165246.00,2.452,2.628,2.822,,,,*46
{"class":"TPV","status":2,"mode":3,"time":"2021-05-26T16:52:46.000Z","leapseconds":18,"ept":0.005,"lat":51.591016900,"lon":-0.024637400,"altHAE":53.1050,"altMSL":7.5980,"alt":7.5980,"epx":2.452,"epy":2.628,"epv":2.822,"track":314.2616,"magtrack":314.1273,"magvar":-0.1,"speed":0.009,"climb":0.033,"eps":0.29,"epc":5.66,"ecefx":3970751.11,"ecefy":-1707.37,"ecefz":4974701.64,"ecefvx":-0.02,"ecefvy":0.00,"ecefvz":0.03,"ecefpAcc":3.54,"ecefvAcc":0.28,"geoidSep":45.536,"eph":2.111,"sep":7.898}
$GPGSV,7,1,26,01,64,286,42,03,30,218,00,08,48,162,24,10,15,051,40*7B
$GPGSV,7,2,26,14,29,293,30,17,14,312,26,21,86,003,26,22,61,211,28*7F
$GPGSV,7,3,26,24,02,007,26,27,16,147,36,28,24,312,00,32,35,075,42*74
$GPGSV,7,4,26,33,29,199,00,36,24,142,33,40,12,119,00,49,31,174,00*73
$GPGSV,7,5,26,68,07,025,21,69,52,054,38,70,48,168,21,71,04,192,00*7F
$GPGSV,7,6,26,75,04,251,00,76,20,300,00,77,13,351,00,84,38,105,22*7A
$GPGSV,7,7,26,85,71,340,31,86,24,306,00*7E
{"class":"SKY","time":"2021-05-26T16:52:46.000Z","xdop":0.65,"ydop":0.70,"vdop":1.36,"tdop":1.03,"hdop":0.96,"gdop":1.96,"pdop":1.67,"nSat":26,"uSat":11,"satellites":[{"PRN":1,"el":64.0,"az":286.0,"ss":42.0,"used":true,"gnssid":0,"svid":1,"health":1},{"PRN":3,"el":30.0,"az":218.0,"ss":0.0,"used":false,"gnssid":0,"svid":3,"health":1},{"PRN":8,"el":48.0,"az":162.0,"ss":24.0,"used":true,"gnssid":0,"svid":8,"health":1},{"PRN":10,"el":15.0,"az":51.0,"ss":40.0,"used":true,"gnssid":0,"svid":10,"health":1},{"PRN":14,"el":29.0,"az":293.0,"ss":30.0,"used":true,"gnssid":0,"svid":14,"health":1},{"PRN":17,"el":14.0,"az":312.0,"ss":26.0,"used":false,"gnssid":0,"svid":17,"health":1},{"PRN":21,"el":86.0,"az":3.0,"ss":26.0,"used":true,"gnssid":0,"svid":21,"health":1},{"PRN":22,"el":61.0,"az":211.0,"ss":28.0,"used":true,"gnssid":0,"svid":22,"health":1},{"PRN":24,"el":2.0,"az":7.0,"ss":26.0,"used":false,"gnssid":0,"svid":24,"health":1},{"PRN":27,"el":16.0,"az":147.0,"ss":36.0,"used":true,"gnssid":0,"svid":27,"health":1},{"PRN":28,"el":24.0,"az":312.0,"ss":0.0,"used":false,"gnssid":0,"svid":28,"health":1},{"PRN":32,"el":35.0,"az":75.0,"ss":42.0,"used":true,"gnssid":0,"svid":32,"health":1},{"PRN":33,"el":29.0,"az":199.0,"ss":0.0,"used":false,"gnssid":1,"svid":120},{"PRN":36,"el":24.0,"az":142.0,"ss":33.0,"used":false,"gnssid":1,"svid":123,"health":1},{"PRN":40,"el":12.0,"az":119.0,"ss":0.0,"used":false,"gnssid":1,"svid":127},{"PRN":49,"el":31.0,"az":174.0,"ss":0.0,"used":false,"gnssid":1,"svid":136,"health":1},{"PRN":68,"el":7.0,"az":25.0,"ss":21.0,"used":false,"gnssid":6,"svid":4,"health":1},{"PRN":69,"el":52.0,"az":54.0,"ss":38.0,"used":true,"gnssid":6,"svid":5,"health":1},{"PRN":70,"el":48.0,"az":168.0,"ss":21.0,"used":false,"gnssid":6,"svid":6,"health":1},{"PRN":71,"el":4.0,"az":192.0,"ss":0.0,"used":false,"gnssid":6,"svid":7,"health":1},{"PRN":75,"el":4.0,"az":251.0,"ss":0.0,"used":false,"gnssid":6,"svid":11,"health":2},{"PRN":76,"el":20.0,"az":300.0,"ss":0.0,"used":false,"gnssid":6,"svid":12,"health":1},{"PRN":77,"el":13.0,"az":351.0,"ss":0.0,"used":false,"gnssid":6,"svid":13,"health":1},{"PRN":84,"el":38.0,"az":105.0,"ss":22.0,"used":true,"gnssid":6,"svid":20,"health":1},{"PRN":85,"el":71.0,"az":340.0,"ss":31.0,"used":true,"gnssid":6,"svid":21,"health":1},{"PRN":86,"el":24.0,"az":306.0,"ss":0.0,"used":false,"gnssid":6,"svid":22,"health":1}]}
{"class":"IMU","timeTag":"13867277","acc_x":0.028,"acc_y":0.207,"acc_z":10.033,"gyro_x":-0.046,"gyro_y":-0.747,"gyro_z":-0.023}
{"class":"IMU","timeTag":"16971718","acc_x":0.035,"acc_y":0.204,"acc_z":10.027}
{"class":"IMU","timeTag":"16971713","gyro_x":-0.087,"gyro_y":-0.698,"gyro_z":-0.016}
{"class":"IMU","timeTag":"13869855","acc_x":0.030,"acc_y":0.208,"acc_z":10.040,"gyro_x":-0.092,"gyro_y":-0.686,"gyro_z":-0.015}
{"class":"IMU","timeTag":"16971818","acc_x":0.029,"acc_y":0.193,"acc_z":10.040}
{"class":"IMU","timeTag":"16971813","gyro_x":-0.085,"gyro_y":-0.692,"gyro_z":-0.027}
{"class":"IMU","timeTag":"13872408","acc_x":0.021,"acc_y":0.202,"acc_z":10.044,"gyro_x":-0.031,"gyro_y":-0.640,"gyro_z":0.030}
{"class":"IMU","timeTag":"16971919","acc_x":0.034,"acc_y":0.211,"acc_z":10.034}
{"class":"IMU","timeTag":"16971914","gyro_x":-0.063,"gyro_y":-0.692,"gyro_z":-0.014}
{"class":"IMU","timeTag":"13874961","acc_x":0.023,"acc_y":0.200,"acc_z":10.022,"gyro_x":-0.076,"gyro_y":-0.701,"gyro_z":0.030}
{"class":"IMU","timeTag":"16972019","acc_x":0.031,"acc_y":0.208,"acc_z":10.032}
{"class":"IMU","timeTag":"16972014","gyro_x":-0.090,"gyro_y":-0.694,"gyro_z":-0.022}
{"class":"IMU","timeTag":"13877514","acc_x":0.045,"acc_y":0.194,"acc_z":10.028,"gyro_x":-0.084,"gyro_y":-0.640,"gyro_z":-0.015}
{"class":"IMU","timeTag":"16972119","acc_x":0.038,"acc_y":0.206,"acc_z":10.029}
{"class":"IMU","timeTag":"16972114","gyro_x":-0.078,"gyro_y":-0.712,"gyro_z":-0.024}
{"class":"IMU","timeTag":"13880094","acc_x":0.035,"acc_y":0.191,"acc_z":10.037,"gyro_x":-0.046,"gyro_y":-0.724,"gyro_z":-0.061}
{"class":"IMU","timeTag":"16972219","acc_x":0.036,"acc_y":0.206,"acc_z":10.027}
{"class":"IMU","timeTag":"16972214","gyro_x":-0.081,"gyro_y":-0.705,"gyro_z":-0.035}
