$GPZDA,175503.00,11,12,2006,00,00*64
$GPRMC,175504.00,A,3825.60966,N,02708.53787,E,0.142,113.02,111206,,,A*6F
$GPVTG,113.02,T,,M,0.142,N,0.263,K,A*3C
$GPGGA,175504.00,3825.60966,N,02708.53787,E,1,07,1.24,58.1,M,37.7,M,,*61
{"class":"SKY","hdop":1.24,"uSat":7}
$GPGSA,A,3,19,11,25,14,01,31,22,,,,,,1.99,1.24,1.55*0C
{"class":"SKY","hdop":1.24,"pdop":1.99,"vdop":1.55,"uSat":7}
$GPGSV,3,1,10,19,62,212,26,11,40,306,25,03,35,184,,20,16,253,*7C
$GPGSV,3,2,10,28,05,310,,25,06,146,43,14,54,071,44,01,53,162,44*71
$GPGSV,3,3,10,31,05,137,41,22,28,055,35*73
{"class":"SKY","gdop":2.27,"hdop":1.24,"pdop":1.99,"tdop":1.11,"xdop":0.94,"ydop":0.79,"vdop":1.55,"nSat":10,"uSat":7,"satellites":[{"PRN":19,"gnssid":0,"svid":19,"az":212.0,"el":62.0,"ss":26.0,"used":true},{"PRN":11,"gnssid":0,"svid":11,"az":306.0,"el":40.0,"ss":25.0,"used":true},{"PRN":3,"gnssid":0,"svid":3,"az":184.0,"el":35.0,"ss":0.0,"used":false},{"PRN":20,"gnssid":0,"svid":20,"az":253.0,"el":16.0,"ss":0.0,"used":false},{"PRN":28,"gnssid":0,"svid":28,"az":310.0,"el":5.0,"ss":0.0,"used":false},{"PRN":25,"gnssid":0,"svid":25,"az":146.0,"el":6.0,"ss":43.0,"used":true},{"PRN":14,"gnssid":0,"svid":14,"az":71.0,"el":54.0,"ss":44.0,"used":true},{"PRN":1,"gnssid":0,"svid":1,"az":162.0,"el":53.0,"ss":44.0,"used":true},{"PRN":31,"gnssid":0,"svid":31,"az":137.0,"el":5.0,"ss":41.0,"used":true},{"PRN":22,"gnssid":0,"svid":22,"az":55.0,"el":28.0,"ss":35.0,"used":true}]}
$GPGLL,3825.60966,N,02708.53787,E,175504.00,A,A*6B
$GPZDA,175504.00,11,12,2006,00,00*63
{"class":"TPV","mode":3,"time":"2026-07-27T17:55:04.000Z","ept":0.005,"lat":38.426827667,"lon":27.142297833,"altHAE":95.8000,"altMSL":58.1000,"alt":58.1000,"epx":14.047,"epy":11.889,"epv":35.650,"track":113.0200,"magtrack":118.1287,"magvar":5.1,"speed":0.073,"geoidSep":37.700,"eph":23.560,"sep":37.810}
{"class":"SKY","gdop":2.27,"hdop":1.24,"pdop":1.99,"tdop":1.11,"xdop":0.94,"ydop":0.79,"vdop":1.55,"uSat":7}
$GPRMC,175505.00,A,3825.60968,N,02708.53789,E,0.106,112.88,111206,,,A*6D
$GPVTG,112.88,T,,M,0.106,N,0.196,K,A*36
$GPGGA,175505.00,3825.60968,N,02708.53789,E,1,07,1.24,58.1,M,37.7,M,,*60
{"class":"SKY","hdop":1.24,"uSat":7}
$GPGSA,A,3,19,11,25,14,01,31,22,,,,,,1.99,1.24,1.55*0C
{"class":"SKY","hdop":1.24,"pdop":1.99,"vdop":1.55,"uSat":7}
$GPGSV,3,1,10,19,62,212,26,11,40,306,24,03,35,184,,20,16,253,*7D
$GPGSV,3,2,10,28,05,310,,25,06,146,43,14,54,071,44,01,53,162,44*71
$GPGSV,3,3,10,31,05,137,41,22,28,055,36*70
{"class":"SKY","gdop":2.27,"hdop":1.24,"pdop":1.99,"tdop":1.11,"xdop":0.94,"ydop":0.79,"vdop":1.55,"nSat":10,"uSat":7,"satellites":[{"PRN":19,"gnssid":0,"svid":19,"az":212.0,"el":62.0,"ss":26.0,"used":true},{"PRN":11,"gnssid":0,"svid":11,"az":306.0,"el":40.0,"ss":24.0,"used":true},{"PRN":3,"gnssid":0,"svid":3,"az":184.0,"el":35.0,"ss":0.0,"used":false},{"PRN":20,"gnssid":0,"svid":20,"az":253.0,"el":16.0,"ss":0.0,"used":false},{"PRN":28,"gnssid":0,"svid":28,"az":310.0,"el":5.0,"ss":0.0,"used":false},{"PRN":25,"gnssid":0,"svid":25,"az":146.0,"el":6.0,"ss":43.0,"used":true},{"PRN":14,"gnssid":0,"svid":14,"az":71.0,"el":54.0,"ss":44.0,"used":true},{"PRN":1,"gnssid":0,"svid":1,"az":162.0,"el":53.0,"ss":44.0,"used":true},{"PRN":31,"gnssid":0,"svid":31,"az":137.0,"el":5.0,"ss":41.0,"used":true},{"PRN":22,"gnssid":0,"svid":22,"az":55.0,"el":28.0,"ss":36.0,"used":true}]}
$GPGLL,3825.60968,N,02708.53789,E,175505.00,A,A*6A
$GPZDA,175505.00,11,12,2006,00,00*62
{"class":"TPV","mode":3,"time":"2026-07-27T17:55:05.000Z","ept":0.005,"lat":38.426828000,"lon":27.142298167,"altHAE":95.8000,"altMSL":58.1000,"alt":58.1000,"epx":14.047,"epy":11.889,"epv":35.650,"track":112.8800,"magtrack":117.9887,"magvar":5.1,"speed":0.055,"climb":0.000,"eps":28.09,"epc":71.30,"geoidSep":37.700,"eph":23.560,"sep":37.810}
{"class":"SKY","gdop":2.27,"hdop":1.24,"pdop":1.99,"tdop":1.11,"xdop":0.94,"ydop":0.79,"vdop":1.55,"uSat":7}
$GPRMC,175506.00,A,3825.60969,N,02708.53794,E,0.074,112.93,111206,,,A*6D
$GPVTG,112.93,T,,M,0.074,N,0.137,K,A*33
$GPGGA,175506.00,3825.60969,N,02708.53794,E,1,07,1.24,58.2,M,37.7,M,,*6D
{"class":"SKY","hdop":1.24,"uSat":7}
$GPGSA,A,3,19,11,25,14,01,31,22,,,,,,1.99,1.24,1.55*0C
{"class":"SKY","hdop":1.24,"pdop":1.99,"vdop":1.55,"uSat":7}
$GPGSV,3,1,10,19,62,212,27,11,40,306,22,03,35,184,,20,16,253,*7A
$GPGSV,3,2,10,28,05,310,,25,06,146,43,14,54,071,44,01,53,162,44*71
$GPGSV,3,3,10,31,05,137,42,22,28,055,36*73
{"class":"SKY","gdop":2.27,"hdop":1.24,"pdop":1.99,"tdop":1.11,"xdop":0.94,"ydop":0.79,"vdop":1.55,"nSat":10,"uSat":7,"satellites":[{"PRN":19,"gnssid":0,"svid":19,"az":212.0,"el":62.0,"ss":27.0,"used":true},{"PRN":11,"gnssid":0,"svid":11,"az":306.0,"el":40.0,"ss":22.0,"used":true},{"PRN":3,"gnssid":0,"svid":3,"az":184.0,"el":35.0,"ss":0.0,"used":false},{"PRN":20,"gnssid":0,"svid":20,"az":253.0,"el":16.0,"ss":0.0,"used":false},{"PRN":28,"gnssid":0,"svid":28,"az":310.0,"el":5.0,"ss":0.0,"used":false},{"PRN":25,"gnssid":0,"svid":25,"az":146.0,"el":6.0,"ss":43.0,"used":true},{"PRN":14,"gnssid":0,"svid":14,"az":71.0,"el":54.0,"ss":44.0,"used":true},{"PRN":1,"gnssid":0,"svid":1,"az":162.0,"el":53.0,"ss":44.0,"used":true},{"PRN":31,"gnssid":0,"svid":31,"az":137.0,"el":5.0,"ss":42.0,"used":true},{"PRN":22,"gnssid":0,"svid":22,"az":55.0,"el":28.0,"ss":36.0,"used":true}]}
$GPGLL,3825.60969,N,02708.53794,E,175506.00,A,A*64
