$GPZDA,212756.00,10,06,2020,00,00*64
$GPGGA,212756.00,4404.1319,N,12118.8457,W,1,00,,1129.91,M,-22.154,M,,*70
$GPRMC,212756.00,A,4404.1319,N,12118.8457,W,0.0525,120.452,100620,14.4,E*42
$GPGSA,A,3,,,,,,,,,,,,,,,*1C
{"class":"TPV","mode":3,"time":"2020-06-10T21:27:56.000Z","ept":0.005,"lat":44.068865500,"lon":-121.314094800,"altHAE":1108.5610,"altMSL":1129.9110,"alt":1129.9110,"epv":7.133,"track":120.4520,"magtrack":134.8705,"magvar":14.4,"speed":0.027,"eps":0.52,"geoidSep":-22.154,"eph":5.215}
$GPZDA,212757.00,10,06,2020,00,00*65
$GPGGA,212757.00,4404.1319,N,12118.8457,W,1,00,0.79,1130.02,M,-22.154,M,,*63
$GPRMC,212757.00,A,4404.1319,N,12118.8457,W,0.0875,120.452,100620,14.4,E*4B
$GPGSA,A,3,,,,,,,,,,,,,1.5,0.8,1.3*3C
{"class":"TPV","mode":3,"time":"2020-06-10T21:27:57.000Z","leapseconds":18,"ept":0.005,"lat":44.068864900,"lon":-121.314095600,"altHAE":1108.6720,"altMSL":1130.0220,"alt":1130.0220,"epv":7.136,"track":120.4520,"magtrack":134.8705,"magvar":14.4,"speed":0.045,"climb":0.111,"eps":0.48,"epc":14.27,"ecefx":-2386053.35,"ecefy":-3922194.44,"ecefz":4414363.73,"ecefvx":0.05,"ecefvy":0.09,"ecefvz":-0.06,"ecefpAcc":8.84,"ecefvAcc":0.52,"geoidSep":-22.154,"eph":5.217,"sep":28.880}
{"class":"TPV","mode":3,"time":"2020-06-10T21:27:57.000Z","leapseconds":18,"ept":0.005,"lat":44.068864900,"lon":-121.314095600,"altHAE":1108.6720,"altMSL":1130.0220,"alt":1130.0220,"epv":7.136,"track":120.4520,"magtrack":134.8705,"magvar":14.4,"speed":0.045,"climb":0.111,"eps":0.48,"epc":14.27,"ecefx":-2386053.47,"ecefy":-3922194.52,"ecefz":4414363.75,"ecefvx":0.00,"ecefvy":0.07,"ecefvz":-0.08,"ecefpAcc":8.84,"ecefvAcc":0.48,"geoidSep":-22.154,"eph":5.217,"sep":28.880}
$GPZDA,212758.00,10,06,2020,00,00*6A
$GPGGA,212758.00,4404.1319,N,12118.8457,W,1,00,0.79,1129.95,M,-22.154,M,,*6A
$GPRMC,212758.00,A,4404.1319,N,12118.8457,W,0.1613,120.452,100620,14.4,E*4B
$GPGSA,A,3,,,,,,,,,,,,,1.5,0.8,1.3*3C
{"class":"TPV","mode":3,"time":"2020-06-10T21:27:58.000Z","leapseconds":18,"ept":0.005,"lat":44.068865400,"lon":-121.314095800,"altHAE":1108.6030,"altMSL":1129.9530,"alt":1129.9530,"epv":7.137,"track":120.4520,"magtrack":134.8705,"magvar":14.4,"speed":0.083,"climb":0.111,"eps":0.54,"epc":14.27,"ecefx":-2386053.47,"ecefy":-3922194.52,"ecefz":4414363.75,"ecefvx":0.00,"ecefvy":0.07,"ecefvz":-0.08,"ecefpAcc":8.84,"ecefvAcc":0.48,"geoidSep":-22.154,"eph":5.217,"sep":28.880}
$GPZDA,212759.00,10,06,2020,00,00*6B
$GPGGA,212759.00,4404.1319,N,12118.8458,W,1,00,0.79,1130.23,M,-22.154,M,,*61
$GPRMC,212759.00,A,4404.1319,N,12118.8458,W,0.2060,120.452,100620,14.4,E*44
$GPGSA,A,3,,,,,,,,,,,,,1.5,0.8,1.3*3C
{"class":"TPV","mode":3,"time":"2020-06-10T21:27:59.000Z","leapseconds":18,"ept":0.005,"lat":44.068864600,"lon":-121.314096600,"altHAE":1108.8780,"altMSL":1130.2280,"alt":1130.2280,"epv":7.146,"track":120.4520,"magtrack":134.8705,"magvar":14.4,"speed":0.106,"climb":0.111,"eps":0.45,"epc":14.28,"ecefx":-2386053.44,"ecefy":-3922194.43,"ecefz":4414363.75,"ecefvx":0.09,"ecefvy":0.10,"ecefvz":-0.02,"ecefpAcc":8.84,"ecefvAcc":0.54,"geoidSep":-22.154,"eph":5.224,"sep":28.880}
$GPGSV,9,1,35,02,50,053,14,05,46,124,21,06,15,052,00,12,58,165,23*78
$GPGSV,9,2,35,18,10,232,00,25,73,245,34,29,48,297,24,31,17,307,00*75
$GPGSV,9,3,35,301,27,316,00,303,11,077,00,305,03,029,00,308,04,125,00*71
$GPGSV,9,4,35,313,78,300,20,315,41,055,15,321,62,257,29,326,27,250,18*78
$GPGSV,9,5,35,327,35,177,19,417,52,250,00,419,12,155,28,420,30,106,25*79
$GPGSV,9,6,35,424,07,329,00,426,35,288,24,429,69,043,33,430,19,078,21*7B
$GPGSV,9,7,35,435,47,282,33,436,02,179,17,65,05,013,00,66,26,072,00*77
$GPGSV,9,8,35,67,14,124,00,73,23,327,00,79,20,188,22,80,54,247,27*7E
$GPGSV,9,9,35,81,30,054,00,82,64,347,19,83,35,274,00*48
{"class":"SKY","time":"2020-06-10T21:27:59.000Z","xdop":0.50,"ydop":0.61,"vdop":1.30,"tdop":0.96,"hdop":0.79,"gdop":1.80,"pdop":1.52,"nSat":35,"uSat":18,"satellites":[{"PRN":2,"el":50.0,"az":53.0,"ss":14.0,"used":true,"gnssid":0,"svid":2,"health":1},{"PRN":5,"el":46.0,"az":124.0,"ss":21.0,"used":true,"gnssid":0,"svid":5,"health":1},{"PRN":6,"el":15.0,"az":52.0,"ss":0.0,"used":false,"gnssid":0,"svid":6,"health":1},{"PRN":12,"el":58.0,"az":165.0,"ss":23.0,"used":true,"gnssid":0,"svid":12,"health":1},{"PRN":18,"el":10.0,"az":232.0,"ss":0.0,"used":false,"gnssid":0,"svid":18,"health":1},{"PRN":25,"el":73.0,"az":245.0,"ss":34.0,"used":true,"gnssid":0,"svid":25,"health":1},{"PRN":29,"el":48.0,"az":297.0,"ss":24.0,"used":true,"gnssid":0,"svid":29,"health":1},{"PRN":31,"el":17.0,"az":307.0,"ss":0.0,"used":false,"gnssid":0,"svid":31,"health":1},{"PRN":301,"el":27.0,"az":316.0,"ss":0.0,"used":false,"gnssid":2,"svid":1,"health":1},{"PRN":303,"el":11.0,"az":77.0,"ss":0.0,"used":false,"gnssid":2,"svid":3,"health":1},{"PRN":305,"el":3.0,"az":29.0,"ss":0.0,"used":false,"gnssid":2,"svid":5,"health":1},{"PRN":308,"el":4.0,"az":125.0,"ss":0.0,"used":false,"gnssid":2,"svid":8,"health":1},{"PRN":313,"el":78.0,"az":300.0,"ss":20.0,"used":true,"gnssid":2,"svid":13,"health":1},{"PRN":315,"el":41.0,"az":55.0,"ss":15.0,"used":true,"gnssid":2,"svid":15,"health":1},{"PRN":321,"el":62.0,"az":257.0,"ss":29.0,"used":true,"gnssid":2,"svid":21,"health":1},{"PRN":326,"el":27.0,"az":250.0,"ss":18.0,"used":false,"gnssid":2,"svid":26,"health":1},{"PRN":327,"el":35.0,"az":177.0,"ss":19.0,"used":true,"gnssid":2,"svid":27,"health":1},{"PRN":417,"el":52.0,"az":250.0,"ss":0.0,"used":false,"gnssid":3,"svid":17,"health":2},{"PRN":419,"el":12.0,"az":155.0,"ss":28.0,"used":true,"gnssid":3,"svid":19,"health":1},{"PRN":420,"el":30.0,"az":106.0,"ss":25.0,"used":true,"gnssid":3,"svid":20,"health":1},{"PRN":424,"el":7.0,"az":329.0,"ss":0.0,"used":false,"gnssid":3,"svid":24,"health":1},{"PRN":426,"el":35.0,"az":288.0,"ss":24.0,"used":true,"gnssid":3,"svid":26,"health":1},{"PRN":429,"el":69.0,"az":43.0,"ss":33.0,"used":true,"gnssid":3,"svid":29,"health":1},{"PRN":430,"el":19.0,"az":78.0,"ss":21.0,"used":true,"gnssid":3,"svid":30,"health":1},{"PRN":435,"el":47.0,"az":282.0,"ss":33.0,"used":true,"gnssid":3,"svid":35,"health":1},{"PRN":436,"el":2.0,"az":179.0,"ss":17.0,"used":false,"gnssid":3,"svid":36,"health":1},{"PRN":65,"el":5.0,"az":13.0,"ss":0.0,"used":false,"gnssid":6,"svid":1,"health":1},{"PRN":66,"el":26.0,"az":72.0,"ss":0.0,"used":false,"gnssid":6,"svid":2,"health":1},{"PRN":67,"el":14.0,"az":124.0,"ss":0.0,"used":false,"gnssid":6,"svid":3,"health":1},{"PRN":73,"el":23.0,"az":327.0,"ss":0.0,"used":false,"gnssid":6,"svid":9,"health":1},{"PRN":79,"el":20.0,"az":188.0,"ss":22.0,"used":true,"gnssid":6,"svid":15,"health":1},{"PRN":80,"el":54.0,"az":247.0,"ss":27.0,"used":true,"gnssid":6,"svid":16,"health":1},{"PRN":81,"el":30.0,"az":54.0,"ss":0.0,"used":false,"gnssid":6,"svid":17,"health":1},{"PRN":82,"el":64.0,"az":347.0,"ss":19.0,"used":true,"gnssid":6,"svid":18,"health":1},{"PRN":83,"el":35.0,"az":274.0,"ss":0.0,"used":false,"gnssid":6,"svid":19,"health":1}]}
{"class":"TPV","mode":3,"time":"2020-06-10T21:27:59.000Z","leapseconds":18,"ept":0.005,"lat":44.068864600,"lon":-121.314096600,"altHAE":1108.8780,"altMSL":1130.2280,"alt":1130.2280,"epx":7.489,"epy":9.150,"epv":7.146,"track":120.4520,"magtrack":134.8705,"magvar":14.4,"speed":0.106,"climb":0.111,"eps":0.45,"epc":14.28,"ecefx":-2386053.62,"ecefy":-3922194.63,"ecefz":4414363.88,"ecefvx":-0.10,"ecefvy":0.01,"ecefvz":-0.04,"ecefpAcc":8.85,"ecefvAcc":0.45,"geoidSep":-22.154,"eph":5.224,"sep":28.880}
$GPZDA,212800.00,10,06,2020,00,00*68
$GPGGA,212800.00,4404.1318,N,12118.8459,W,1,18,0.79,1130.33,M,-22.154,M,,*6A
$GPRMC,212800.00,A,4404.1318,N,12118.8459,W,0.2099,120.452,100620,14.4,E*41
$GPGSA,A,3,2,5,12,25,29,,,,,,,,1.5,0.8,1.3*34
$GPGBS,212800.00,7.489,9.150,7.152,,,,*46
{"class":"TPV","mode":3,"time":"2020-06-10T21:28:00.000Z","leapseconds":18,"ept":0.005,"lat":44.068863900,"lon":-121.314098100,"altHAE":1108.9760,"altMSL":1130.3260,"alt":1130.3260,"epx":7.489,"epy":9.150,"epv":7.152,"track":120.4520,"magtrack":134.8705,"magvar":14.4,"speed":0.108,"climb":0.111,"eps":0.44,"epc":14.30,"ecefx":-2386053.62,"ecefy":-3922194.63,"ecefz":4414363.88,"ecefvx":-0.10,"ecefvy":0.01,"ecefvz":-0.04,"ecefpAcc":8.85,"ecefvAcc":0.45,"geoidSep":-22.154,"eph":5.230,"sep":28.880}
{"class":"SUBFRAME","gnssId":0,"tSV":25,"frame":3,"TOW17":336498,"scaled":false,"EPHEM3":{"IODE":19,"IDOT":4294966672,"Cic":4294967197,"Omega0":493676421,"Cis":3,"i0":660074898,"Crc":6676,"omega":641263080,"Omegad":-22167}}
$GPZDA,212801.00,10,06,2020,00,00*69
$GPGGA,212801.00,4404.1319,N,12118.8459,W,1,18,0.79,1130.24,M,-22.154,M,,*6C
$GPRMC,212801.00,A,4404.1319,N,12118.8459,W,0.2002,120.452,100620,14.4,E*43
$GPGSA,A,3,2,5,12,25,29,,,,,,,,1.5,0.8,1.3*34
$GPGBS,212801.00,7.489,9.150,7.156,,,,*43
{"class":"TPV","mode":3,"time":"2020-06-10T21:28:01.000Z","leapseconds":18,"ept":0.005,"lat":44.068864600,"lon":-121.314098500,"altHAE":1108.8910,"altMSL":1130.2410,"alt":1130.2410,"epx":7.489,"epy":9.150,"epv":7.156,"track":120.4520,"magtrack":134.8705,"magvar":14.4,"speed":0.103,"climb":0.111,"eps":0.55,"epc":14.31,"ecefx":-2386053.80,"ecefy":-3922194.67,"ecefz":4414363.88,"ecefvx":-0.10,"ecefvy":0.02,"ecefvz":-0.04,"ecefpAcc":8.86,"ecefvAcc":0.44,"geoidSep":-22.154,"eph":5.236,"sep":28.880}
{"class":"TPV","mode":3,"time":"2020-06-10T21:28:01.000Z","leapseconds":18,"ept":0.005,"lat":44.068864600,"lon":-121.314098500,"altHAE":1108.8910,"altMSL":1130.2410,"alt":1130.2410,"epx":7.489,"epy":9.150,"epv":7.156,"track":120.4520,"magtrack":134.8705,"magvar":14.4,"speed":0.103,"climb":0.111,"eps":18.30,"epc":14.31,"ecefx":-2386053.76,"ecefy":-3922194.55,"ecefz":4414363.88,"ecefvx":0.08,"ecefvy":0.08,"ecefvz":0.03,"ecefpAcc":8.87,"ecefvAcc":0.55,"geoidSep":-22.154,"eph":5.236,"sep":28.880}
$GPZDA,212802.00,10,06,2020,00,00*6A
$GPGGA,212802.00,4404.1319,N,12118.8459,W,1,18,0.79,1130.22,M,-22.154,M,,*69
$GPRMC,212802.00,A,4404.1319,N,12118.8459,W,0.0641,120.452,100620,14.4,E*43
$GPGSA,A,3,2,5,12,25,29,,,,,,,,1.5,0.8,1.3*34
$GPGBS,212802.00,7.489,9.150,7.162,,,,*47
{"class":"TPV","mode":3,"time":"2020-06-10T21:28:02.000Z","leapseconds":18,"ept":0.005,"lat":44.068865300,"lon":-121.314098300,"altHAE":1108.8670,"altMSL":1130.2170,"alt":1130.2170,"epx":7.489,"epy":9.150,"epv":7.162,"track":120.4520,"magtrack":134.8705,"magvar":14.4,"speed":0.033,"climb":0.111,"eps":0.43,"epc":14.32,"ecefx":-2386053.76,"ecefy":-3922194.55,"ecefz":4414363.88,"ecefvx":0.08,"ecefvy":0.08,"ecefvz":0.03,"ecefpAcc":8.87,"ecefvAcc":0.55,"geoidSep":-22.154,"eph":5.243,"sep":28.880}
$GPALM,1,1,00,0061,00,0000,00,0000,0000,00000,000000,000000,000000,000,000*4C
{"class":"SUBFRAME","gnssId":3,"tSV":29,"frame":1,"WN":753,"SOW":336480,"scaled":true,"EPHEMERIS":{"sv":29,"AODC":1,"AODE":0,"af0":2.406896091998e-04,"af1":1.300737295651e-12,"af2":1.436567878543e-18,"alpha0":5.587935447693e-09,"alpha1":5.960464477539e-08,"alpha2":-5.364418029785e-07,"alpha3":1.013278961182e-06,"beta0":5.734400000000e+05,"beta1":-5.898240000000e+05,"beta2":4.521984000000e+06,"beta3":1.749811200000e+07,"TGD1":1,"TGD2":0,"toc":10690048}}
$GPALM,1,1,00,0061,00,0000,00,0000,0000,00000,000000,000000,000000,000,000*4C
{"class":"SUBFRAME","gnssId":3,"tSV":35,"frame":1,"WN":753,"SOW":336480,"scaled":true,"EPHEMERIS":{"sv":35,"AODC":1,"AODE":0,"af0":1.737000420690e-04,"af1":4.487299420930e-12,"af2":1.436567878543e-18,"alpha0":5.587935447693e-09,"alpha1":5.960464477539e-08,"alpha2":-5.364418029785e-07,"alpha3":1.013278961182e-06,"beta0":5.734400000000e+05,"beta1":-5.898240000000e+05,"beta2":4.521984000000e+06,"beta3":1.749811200000e+07,"TGD1":-23,"TGD2":-54,"toc":10690048}}
$GPALM,1,1,00,0061,00,0000,00,0000,0000,00000,000000,000000,000000,000,000*4C
{"class":"SUBFRAME","gnssId":3,"tSV":26,"frame":1,"WN":753,"SOW":336480,"scaled":true,"EPHEMERIS":{"sv":26,"AODC":1,"AODE":0,"af0":7.133866893128e-04,"af1":3.510525203865e-12,"af2":1.436567878543e-18,"alpha0":5.587935447693e-09,"alpha1":5.960464477539e-08,"alpha2":-5.364418029785e-07,"alpha3":1.013278961182e-06,"beta0":5.734400000000e+05,"beta1":-5.898240000000e+05,"beta2":4.521984000000e+06,"beta3":1.749811200000e+07,"TGD1":-45,"TGD2":-60,"toc":10690048}}
$GPALM,1,1,00,0061,00,0000,00,0000,0000,00000,000000,000000,000000,000,000*4C
{"class":"SUBFRAME","gnssId":3,"tSV":19,"frame":1,"WN":753,"SOW":336480,"scaled":true,"EPHEMERIS":{"sv":19,"AODC":1,"AODE":0,"af0":4.401560872793e-04,"af1":2.982503133353e-12,"af2":1.436567878543e-18,"alpha0":5.587935447693e-09,"alpha1":5.960464477539e-08,"alpha2":-5.364418029785e-07,"alpha3":1.013278961182e-06,"beta0":5.734400000000e+05,"beta1":-5.898240000000e+05,"beta2":4.521984000000e+06,"beta3":1.749811200000e+07,"TGD1":123,"TGD2":78,"toc":10690048}}
$GPZDA,212803.00,10,06,2020,00,00*6B
$GPGGA,212803.00,4404.1320,N,12118.8459,W,1,18,0.79,1130.05,M,-22.154,M,,*67
$GPRMC,212803.00,A,4404.1320,N,12118.8459,W,0.3849,120.452,100620,14.4,E*4D
$GPGSA,A,3,2,5,12,25,29,,,,,,,,1.5,0.8,1.3*34
$GPGBS,212803.00,7.489,9.150,7.169,,,,*4D
{"class":"TPV","mode":3,"time":"2020-06-10T21:28:03.000Z","leapseconds":18,"ept":0.005,"lat":44.068866800,"lon":-121.314098100,"altHAE":1108.6960,"altMSL":1130.0460,"alt":1130.0460,"epx":7.489,"epy":9.150,"epv":7.169,"track":120.4520,"magtrack":134.8705,"magvar":14.4,"speed":0.198,"climb":0.111,"eps":0.54,"epc":14.33,"ecefx":-2386053.71,"ecefy":-3922194.50,"ecefz":4414363.92,"ecefvx":0.03,"ecefvy":-0.01,"ecefvz":0.01,"ecefpAcc":8.88,"ecefvAcc":0.43,"geoidSep":-22.154,"eph":5.247,"sep":28.880}
{"class":"TPV","mode":3,"time":"2020-06-10T21:28:03.000Z","leapseconds":18,"ept":0.005,"lat":44.068866800,"lon":-121.314098100,"altHAE":1108.6960,"altMSL":1130.0460,"alt":1130.0460,"epx":7.489,"epy":9.150,"epv":7.169,"track":120.4520,"magtrack":134.8705,"magvar":14.4,"speed":0.198,"climb":0.111,"eps":18.30,"epc":14.33,"ecefx":-2386053.58,"ecefy":-3922194.31,"ecefz":4414363.92,"ecefvx":0.18,"ecefvy":0.12,"ecefvz":0.06,"ecefpAcc":8.88,"ecefvAcc":0.54,"geoidSep":-22.154,"eph":5.247,"sep":28.880}
$GPZDA,212804.00,10,06,2020,00,00*6C
$GPGGA,212804.00,4404.1321,N,12118.8459,W,1,18,0.79,1129.98,M,-22.154,M,,*6D
$GPRMC,212804.00,A,4404.1321,N,12118.8459,W,0.2857,120.452,100620,14.4,E*45
$GPGSA,A,3,2,5,12,25,29,,,,,,,,1.5,0.8,1.3*34
$GPGBS,212804.00,7.489,9.150,7.172,,,,*40
{"class":"TPV","mode":3,"time":"2020-06-10T21:28:04.000Z","leapseconds":18,"ept":0.005,"lat":44.068868100,"lon":-121.314098300,"altHAE":1108.6290,"altMSL":1129.9790,"alt":1129.9790,"epx":7.489,"epy":9.150,"epv":7.172,"track":120.4520,"magtrack":134.8705,"magvar":14.4,"speed":0.147,"climb":0.111,"eps":0.56,"epc":14.34,"ecefx":-2386053.58,"ecefy":-3922194.31,"ecefz":4414363.92,"ecefvx":0.18,"ecefvy":0.12,"ecefvz":0.06,"ecefpAcc":8.88,"ecefvAcc":0.54,"geoidSep":-22.154,"eph":5.247,"sep":28.880}
$GPZDA,212805.00,10,06,2020,00,00*6D
$GPGGA,212805.00,4404.1321,N,12118.8460,W,1,18,0.79,1129.97,M,-22.154,M,,*69
$GPRMC,212805.00,A,4404.1321,N,12118.8460,W,0.1769,120.452,100620,14.4,E*4F
$GPGSA,A,3,2,5,12,25,29,,,,,,,,1.5,0.8,1.3*34
$GPGBS,212805.00,7.489,9.150,7.176,,,,*45
{"class":"TPV","mode":3,"time":"2020-06-10T21:28:05.000Z","leapseconds":18,"ept":0.005,"lat":44.068868500,"lon":-121.314099400,"altHAE":1108.6220,"altMSL":1129.9720,"alt":1129.9720,"epx":7.489,"epy":9.150,"epv":7.176,"track":120.4520,"magtrack":134.8705,"magvar":14.4,"speed":0.091,"climb":0.111,"eps":0.55,"epc":14.35,"ecefx":-2386053.51,"ecefy":-3922194.17,"ecefz":4414363.98,"ecefvx":0.05,"ecefvy":0.15,"ecefvz":0.05,"ecefpAcc":8.89,"ecefvAcc":0.56,"geoidSep":-22.154,"eph":5.251,"sep":28.880}
{"class":"TPV","mode":3,"time":"2020-06-10T21:28:05.000Z","leapseconds":18,"ept":0.005,"lat":44.068868500,"lon":-121.314099400,"altHAE":1108.6220,"altMSL":1129.9720,"alt":1129.9720,"epx":7.489,"epy":9.150,"epv":7.176,"track":120.4520,"magtrack":134.8705,"magvar":14.4,"speed":0.091,"climb":0.111,"eps":18.30,"epc":14.35,"ecefx":-2386053.57,"ecefy":-3922194.10,"ecefz":4414364.00,"ecefvx":0.02,"ecefvy":0.15,"ecefvz":-0.03,"ecefpAcc":8.89,"ecefvAcc":0.55,"geoidSep":-22.154,"eph":5.251,"sep":28.880}
$GPZDA,212806.00,10,06,2020,00,00*6E
$GPGGA,212806.00,4404.1321,N,12118.8460,W,1,18,0.79,1130.14,M,-22.154,M,,*69
$GPRMC,212806.00,A,4404.1321,N,12118.8460,W,0.0603,120.452,100620,14.4,E*40
$GPGSA,A,3,2,5,12,25,29,,,,,,,,1.5,0.8,1.3*34
$GPGBS,212806.00,7.489,9.150,7.180,,,,*4F
{"class":"TPV","mode":3,"time":"2020-06-10T21:28:06.000Z","leapseconds":18,"ept":0.005,"lat":44.068867900,"lon":-121.314099300,"altHAE":1108.7910,"altMSL":1130.1410,"alt":1130.1410,"epx":7.489,"epy":9.150,"epv":7.180,"track":120.4520,"magtrack":134.8705,"magvar":14.4,"speed":0.031,"climb":0.111,"eps":0.49,"epc":14.36,"ecefx":-2386053.57,"ecefy":-3922194.10,"ecefz":4414364.00,"ecefvx":0.02,"ecefvy":0.15,"ecefvz":-0.03,"ecefpAcc":8.89,"ecefvAcc":0.55,"geoidSep":-22.154,"eph":5.255,"sep":28.880}
{"class":"SUBFRAME","gnssId":0,"tSV":25,"frame":4,"TOW17":336504,"scaled":false,"dataid":55,"system_message":"EW6+:RYVM6: 3 CKHIIXBP"}
{"class":"SUBFRAME","gnssId":0,"tSV":29,"frame":4,"TOW17":336504,"scaled":false,"dataid":55,"system_message":"EW6+:RYVM6: 3 CKHIIXBP"}
$GPZDA,212807.00,10,06,2020,00,00*6F
$GPGGA,212807.00,4404.1321,N,12118.8460,W,1,18,0.79,1130.17,M,-22.154,M,,*6B
$GPRMC,212807.00,A,4404.1321,N,12118.8460,W,0.0389,120.452,100620,14.4,E*46
$GPGSA,A,3,2,5,12,25,29,,,,,,,,1.5,0.8,1.3*34
$GPGBS,212807.00,7.489,9.150,7.183,,,,*4D
{"class":"TPV","mode":3,"time":"2020-06-10T21:28:07.000Z","leapseconds":18,"ept":0.005,"lat":44.068867600,"lon":-121.314099700,"altHAE":1108.8220,"altMSL":1130.1720,"alt":1130.1720,"epx":7.489,"epy":9.150,"epv":7.183,"track":120.4520,"magtrack":134.8705,"magvar":14.4,"speed":0.020,"climb":0.111,"eps":0.50,"epc":14.36,"ecefx":-2386053.65,"ecefy":-3922194.25,"ecefz":4414364.07,"ecefvx":0.04,"ecefvy":0.02,"ecefvz":-0.01,"ecefpAcc":8.90,"ecefvAcc":0.49,"geoidSep":-22.154,"eph":5.255,"sep":28.880}
{"class":"TPV","mode":3,"time":"2020-06-10T21:28:07.000Z","leapseconds":18,"ept":0.005,"lat":44.068867600,"lon":-121.314099700,"altHAE":1108.8220,"altMSL":1130.1720,"alt":1130.1720,"epx":7.489,"epy":9.150,"epv":7.183,"track":120.4520,"magtrack":134.8705,"magvar":14.4,"speed":0.020,"climb":0.111,"eps":18.30,"epc":14.36,"ecefx":-2386053.70,"ecefy":-3922194.27,"ecefz":4414364.07,"ecefvx":0.01,"ecefvy":0.05,"ecefvz":-0.04,"ecefpAcc":8.90,"ecefvAcc":0.50,"geoidSep":-22.154,"eph":5.255,"sep":28.880}
$GPZDA,212808.00,10,06,2020,00,00*60
$GPGGA,212808.00,4404.1320,N,12118.8460,W,1,18,0.79,1130.38,M,-22.154,M,,*68
$GPRMC,212808.00,A,4404.1320,N,12118.8460,W,0.1983,120.452,100620,14.4,E*49
$GPGSA,A,3,2,5,12,25,29,,,,,,,,1.5,0.8,1.3*34
$GPGBS,212808.00,7.489,9.150,7.184,,,,*45
{"class":"TPV","mode":3,"time":"2020-06-10T21:28:08.000Z","leapseconds":18,"ept":0.005,"lat":44.068866200,"lon":-121.314100500,"altHAE":1109.0360,"altMSL":1130.3850,"alt":1130.3850,"epx":7.489,"epy":9.150,"epv":7.184,"track":120.4520,"magtrack":134.8705,"magvar":14.4,"speed":0.102,"climb":0.111,"eps":0.48,"epc":14.37,"ecefx":-2386053.70,"ecefy":-3922194.27,"ecefz":4414364.07,"ecefvx":0.01,"ecefvy":0.05,"ecefvz":-0.04,"ecefpAcc":8.90,"ecefvAcc":0.50,"geoidSep":-22.154,"eph":5.258,"sep":28.880}
$GPALM,1,1,00,0061,00,0000,00,0000,0000,00000,000000,000000,000000,000,000*4C
{"class":"SUBFRAME","gnssId":3,"tSV":29,"frame":2,"SOW":336486,"scaled":true,"EPHEMERIS":{"sv":0,"Crc":2.560000000000e+02,"Crs":5.728125000000e+01,"Cuc":2.769287675619e-06,"Cus":4.982575774193e-08,"deltan":1.239527591679e-09,"e":3.023188328370e-04,"M0":0.0423374180682003,"sqrtA":5282.618839263916,"toeMSB":32768}}
$GPALM,1,1,00,0061,00,0000,00,0000,0000,00000,000000,000000,000000,000,000*4C
{"class":"SUBFRAME","gnssId":3,"tSV":35,"frame":2,"SOW":336486,"scaled":true,"EPHEMERIS":{"sv":0,"Crc":2.560000000000e+02,"Crs":5.748437500000e+01,"Cuc":2.802349627018e-06,"Cus":4.796311259270e-08,"deltan":1.270109351026e-09,"e":6.879005813971e-04,"M0":0.1523056044243276,"sqrtA":5282.615312576294,"toeMSB":32768}}
$GPALM,1,1,00,0061,00,0000,00,0000,0000,00000,000000,000000,000000,000,000*4C
{"class":"SUBFRAME","gnssId":3,"tSV":19,"frame":2,"SOW":336486,"scaled":true,"EPHEMERIS":{"sv":0,"Crc":3.125000000000e-02,"Crs":-6.240625000000e+01,"Cuc":-3.213062882423e-06,"Cus":1.545995473862e-07,"deltan":1.159833118436e-09,"e":1.012148568407e-03,"M0":0.1751270303502679,"sqrtA":5282.623159408569,"toeMSB":32768}}
$GPZDA,212809.00,10,06,2020,00,00*61
$GPGGA,212809.00,4404.1319,N,12118.8461,W,1,18,0.79,1130.47,M,-22.154,M,,*6A
$GPRMC,212809.00,A,4404.1319,N,12118.8461,W,0.1400,120.452,100620,14.4,E*45
$GPGSA,A,3,2,5,12,25,29,,,,,,,,1.5,0.8,1.3*34
$GPGBS,212809.00,7.489,9.150,7.185,,,,*45
{"class":"TPV","mode":3,"time":"2020-06-10T21:28:09.000Z","leapseconds":18,"ept":0.005,"lat":44.068865400,"lon":-121.314101000,"altHAE":1109.1210,"altMSL":1130.4700,"alt":1130.4700,"epx":7.489,"epy":9.150,"epv":7.185,"track":120.4520,"magtrack":134.8705,"magvar":14.4,"speed":0.072,"climb":0.111,"eps":0.52,"epc":14.37,"ecefx":-2386053.89,"ecefy":-3922194.45,"ecefz":4414364.11,"ecefvx":-0.08,"ecefvy":0.00,"ecefvz":-0.06,"ecefpAcc":8.90,"ecefvAcc":0.48,"geoidSep":-22.154,"eph":5.259,"sep":28.880}
$GPGSV,9,1,35,02,50,053,14,05,46,124,21,06,15,052,00,12,58,165,22*79
$GPGSV,9,2,35,18,10,232,00,25,73,245,34,29,48,297,25,31,17,307,00*74
$GPGSV,9,3,35,301,27,316,00,303,11,077,00,305,03,029,00,308,04,125,00*71
$GPGSV,9,4,35,313,78,300,20,315,40,055,16,321,62,255,29,326,27,250,20*73
$GPGSV,9,5,35,327,34,177,21,417,52,250,00,419,12,155,26,420,30,106,24*7C
$GPGSV,9,6,35,424,07,329,00,426,35,288,25,429,69,043,33,430,19,078,21*7A
$GPGSV,9,7,35,435,47,282,34,436,02,179,19,65,05,013,00,66,26,072,00*7E
$GPGSV,9,8,35,67,14,124,00,73,23,327,00,79,20,188,22,80,54,247,27*7E
$GPGSV,9,9,35,81,30,054,00,82,64,347,18,83,35,274,00*49
{"class":"SKY","time":"2020-06-10T21:28:09.000Z","xdop":0.50,"ydop":0.61,"vdop":1.30,"tdop":0.96,"hdop":0.79,"gdop":1.80,"pdop":1.52,"nSat":35,"uSat":18,"satellites":[{"PRN":2,"el":50.0,"az":53.0,"ss":14.0,"used":true,"gnssid":0,"svid":2,"health":1},{"PRN":5,"el":46.0,"az":124.0,"ss":21.0,"used":true,"gnssid":0,"svid":5,"health":1},{"PRN":6,"el":15.0,"az":52.0,"ss":0.0,"used":false,"gnssid":0,"svid":6,"health":1},{"PRN":12,"el":58.0,"az":165.0,"ss":22.0,"used":true,"gnssid":0,"svid":12,"health":1},{"PRN":18,"el":10.0,"az":232.0,"ss":0.0,"used":false,"gnssid":0,"svid":18,"health":1},{"PRN":25,"el":73.0,"az":245.0,"ss":34.0,"used":true,"gnssid":0,"svid":25,"health":1},{"PRN":29,"el":48.0,"az":297.0,"ss":25.0,"used":true,"gnssid":0,"svid":29,"health":1},{"PRN":31,"el":17.0,"az":307.0,"ss":0.0,"used":false,"gnssid":0,"svid":31,"health":1},{"PRN":301,"el":27.0,"az":316.0,"ss":0.0,"used":false,"gnssid":2,"svid":1,"health":1},{"PRN":303,"el":11.0,"az":77.0,"ss":0.0,"used":false,"gnssid":2,"svid":3,"health":1},{"PRN":305,"el":3.0,"az":29.0,"ss":0.0,"used":false,"gnssid":2,"svid":5,"health":1},{"PRN":308,"el":4.0,"az":125.0,"ss":0.0,"used":false,"gnssid":2,"svid":8,"health":1},{"PRN":313,"el":78.0,"az":300.0,"ss":20.0,"used":true,"gnssid":2,"svid":13,"health":1},{"PRN":315,"el":40.0,"az":55.0,"ss":16.0,"used":true,"gnssid":2,"svid":15,"health":1},{"PRN":321,"el":62.0,"az":255.0,"ss":29.0,"used":true,"gnssid":2,"svid":21,"health":1},{"PRN":326,"el":27.0,"az":250.0,"ss":20.0,"used":false,"gnssid":2,"svid":26,"health":1},{"PRN":327,"el":34.0,"az":177.0,"ss":21.0,"used":true,"gnssid":2,"svid":27,"health":1},{"PRN":417,"el":52.0,"az":250.0,"ss":0.0,"used":false,"gnssid":3,"svid":17,"health":2},{"PRN":419,"el":12.0,"az":155.0,"ss":26.0,"used":true,"gnssid":3,"svid":19,"health":1},{"PRN":420,"el":30.0,"az":106.0,"ss":24.0,"used":true,"gnssid":3,"svid":20,"health":1},{"PRN":424,"el":7.0,"az":329.0,"ss":0.0,"used":false,"gnssid":3,"svid":24,"health":1},{"PRN":426,"el":35.0,"az":288.0,"ss":25.0,"used":true,"gnssid":3,"svid":26,"health":1},{"PRN":429,"el":69.0,"az":43.0,"ss":33.0,"used":true,"gnssid":3,"svid":29,"health":1},{"PRN":430,"el":19.0,"az":78.0,"ss":21.0,"used":true,"gnssid":3,"svid":30,"health":1},{"PRN":435,"el":47.0,"az":282.0,"ss":34.0,"used":true,"gnssid":3,"svid":35,"health":1},{"PRN":436,"el":2.0,"az":179.0,"ss":19.0,"used":false,"gnssid":3,"svid":36,"health":1},{"PRN":65,"el":5.0,"az":13.0,"ss":0.0,"used":false,"gnssid":6,"svid":1,"health":1},{"PRN":66,"el":26.0,"az":72.0,"ss":0.0,"used":false,"gnssid":6,"svid":2,"health":1},{"PRN":67,"el":14.0,"az":124.0,"ss":0.0,"used":false,"gnssid":6,"svid":3,"health":1},{"PRN":73,"el":23.0,"az":327.0,"ss":0.0,"used":false,"gnssid":6,"svid":9,"health":1},{"PRN":79,"el":20.0,"az":188.0,"ss":22.0,"used":true,"gnssid":6,"svid":15,"health":1},{"PRN":80,"el":54.0,"az":247.0,"ss":27.0,"used":true,"gnssid":6,"svid":16,"health":1},{"PRN":81,"el":30.0,"az":54.0,"ss":0.0,"used":false,"gnssid":6,"svid":17,"health":1},{"PRN":82,"el":64.0,"az":347.0,"ss":18.0,"used":true,"gnssid":6,"svid":18,"health":1},{"PRN":83,"el":35.0,"az":274.0,"ss":0.0,"used":false,"gnssid":6,"svid":19,"health":1}]}
{"class":"TPV","mode":3,"time":"2020-06-10T21:28:09.000Z","leapseconds":18,"ept":0.005,"lat":44.068865400,"lon":-121.314101000,"altHAE":1109.1210,"altMSL":1130.4700,"alt":1130.4700,"epx":7.497,"epy":9.118,"epv":7.185,"track":120.4520,"magtrack":134.8705,"magvar":14.4,"speed":0.072,"climb":0.111,"eps":18.27,"epc":14.37,"ecefx":-2386053.99,"ecefy":-3922194.54,"ecefz":4414364.11,"ecefvx":-0.06,"ecefvy":-0.03,"ecefvz":-0.03,"ecefpAcc":8.90,"ecefvAcc":0.52,"geoidSep":-22.154,"eph":5.259,"sep":28.880}
$GPZDA,212810.00,10,06,2020,00,00*69
$GPGGA,212810.00,4404.1319,N,12118.8461,W,1,18,0.79,1130.67,M,-22.154,M,,*60
$GPRMC,212810.00,A,4404.1319,N,12118.8461,W,0.2119,120.452,100620,14.4,E*43
$GPGSA,A,3,2,5,12,25,29,,,,,,,,1.5,0.8,1.3*34
$GPGBS,212810.00,7.497,9.118,7.186,,,,*4D
{"class":"TPV","mode":3,"time":"2020-06-10T21:28:10.000Z","leapseconds":18,"ept":0.005,"lat":44.068864200,"lon":-121.314101100,"altHAE":1109.3250,"altMSL":1130.6750,"alt":1130.6750,"epx":7.497,"epy":9.118,"epv":7.186,"track":120.4520,"magtrack":134.8705,"magvar":14.4,"speed":0.109,"climb":0.111,"eps":0.56,"epc":14.37,"ecefx":-2386053.99,"ecefy":-3922194.54,"ecefz":4414364.11,"ecefvx":-0.06,"ecefvy":-0.03,"ecefvz":-0.03,"ecefpAcc":8.90,"ecefvAcc":0.52,"geoidSep":-22.154,"eph":5.257,"sep":28.880}
$GPZDA,212811.00,10,06,2020,00,00*68
$GPGGA,212811.00,4404.1318,N,12118.8461,W,1,18,0.79,1130.68,M,-22.154,M,,*6F
$GPRMC,212811.00,A,4404.1318,N,12118.8461,W,0.1147,120.452,100620,14.4,E*4B
$GPGSA,A,3,2,5,12,25,29,,,,,,,,1.5,0.8,1.3*34
$GPGBS,212811.00,7.497,9.118,7.182,,,,*48
{"class":"TPV","mode":3,"time":"2020-06-10T21:28:11.000Z","leapseconds":18,"ept":0.005,"lat":44.068863600,"lon":-121.314101300,"altHAE":1109.3340,"altMSL":1130.6830,"alt":1130.6830,"epx":7.497,"epy":9.118,"epv":7.182,"track":120.4520,"magtrack":134.8705,"magvar":14.4,"speed":0.059,"climb":0.111,"eps":0.56,"epc":14.37,"ecefx":-2386054.12,"ecefy":-3922194.74,"ecefz":4414364.15,"ecefvx":-0.06,"ecefvy":-0.09,"ecefvz":-0.04,"ecefpAcc":8.90,"ecefvAcc":0.56,"geoidSep":-22.154,"eph":5.254,"sep":28.880}
{"class":"TPV","mode":3,"time":"2020-06-10T21:28:11.000Z","leapseconds":18,"ept":0.005,"lat":44.068863600,"lon":-121.314101300,"altHAE":1109.3340,"altMSL":1130.6830,"alt":1130.6830,"epx":7.497,"epy":9.118,"epv":7.182,"track":120.4520,"magtrack":134.8705,"magvar":14.4,"speed":0.059,"climb":0.111,"eps":18.24,"epc":14.37,"ecefx":-2386054.16,"ecefy":-3922194.78,"ecefz":4414364.11,"ecefvx":-0.03,"ecefvy":-0.06,"ecefvz":-0.02,"ecefpAcc":8.90,"ecefvAcc":0.56,"geoidSep":-22.154,"eph":5.254,"sep":28.880}
$GPZDA,212812.00,10,06,2020,00,00*6B
$GPGGA,212812.00,4404.1318,N,12118.8461,W,1,18,0.79,1130.66,M,-22.154,M,,*62
$GPRMC,212812.00,A,4404.1318,N,12118.8461,W,0.1458,120.452,100620,14.4,E*43
$GPGSA,A,3,2,5,12,25,29,,,,,,,,1.5,0.8,1.3*34
$GPGBS,212812.00,7.497,9.118,7.182,,,,*4B
{"class":"TPV","mode":3,"time":"2020-06-10T21:28:12.000Z","leapseconds":18,"ept":0.005,"lat":44.068864100,"lon":-121.314101000,"altHAE":1109.3080,"altMSL":1130.6580,"alt":1130.6580,"epx":7.497,"epy":9.118,"epv":7.182,"track":120.4520,"magtrack":134.8705,"magvar":14.4,"speed":0.075,"climb":0.111,"eps":0.45,"epc":14.36,"ecefx":-2386054.16,"ecefy":-3922194.78,"ecefz":4414364.11,"ecefvx":-0.03,"ecefvy":-0.06,"ecefvz":-0.02,"ecefpAcc":8.90,"ecefvAcc":0.56,"geoidSep":-22.154,"eph":5.252,"sep":28.880}
$GPALM,1,1,17,0061,00,6c46,7b,1ae3,fffffd60,a10d5c,ffbd1e7e,4a58a3,ffafff57,125,002*23
{"class":"SUBFRAME","gnssId":0,"tSV":25,"frame":5,"TOW17":336510,"scaled":false,"dataid":17,"ALMANAC":{"ID":17,"Health":0,"e":27718,"toa":123,"deltai":6883,"Omegad":-672,"sqrtA":10554716,"Omega0":4872355,"omega":-4383106,"M0":-5243049,"af0":293,"af1":2}}
$GPALM,1,1,17,0061,00,6c46,7b,1ae3,fffffd60,a10d5c,ffbd1e7e,4a58a3,ffafff57,125,002*23
{"class":"SUBFRAME","gnssId":0,"tSV":29,"frame":5,"TOW17":336510,"scaled":false,"dataid":17,"ALMANAC":{"ID":17,"Health":0,"e":27718,"toa":123,"deltai":6883,"Omegad":-672,"sqrtA":10554716,"Omega0":4872355,"omega":-4383106,"M0":-5243049,"af0":293,"af1":2}}
$GPZDA,212813.00,10,06,2020,00,00*6A
$GPGGA,212813.00,4404.1319,N,12118.8460,W,1,18,0.79,1130.63,M,-22.154,M,,*66
$GPRMC,212813.00,A,4404.1319,N,12118.8460,W,0.2449,120.452,100620,14.4,E*41
$GPGSA,A,3,2,5,12,25,29,,,,,,,,1.5,0.8,1.3*34
$GPGBS,212813.00,7.497,9.118,7.180,,,,*48
{"class":"TPV","mode":3,"time":"2020-06-10T21:28:13.000Z","leapseconds":18,"ept":0.005,"lat":44.068865400,"lon":-121.314100800,"altHAE":1109.2840,"altMSL":1130.6340,"alt":1130.6340,"epx":7.497,"epy":9.118,"epv":7.180,"track":120.4520,"magtrack":134.8705,"magvar":14.4,"speed":0.126,"climb":0.111,"eps":0.47,"epc":14.36,"ecefx":-2386054.11,"ecefy":-3922194.74,"ecefz":4414364.13,"ecefvx":0.04,"ecefvy":0.00,"ecefvz":0.08,"ecefpAcc":8.90,"ecefvAcc":0.45,"geoidSep":-22.154,"eph":5.248,"sep":28.880}
{"class":"TPV","mode":3,"time":"2020-06-10T21:28:13.000Z","leapseconds":18,"ept":0.005,"lat":44.068865400,"lon":-121.314100800,"altHAE":1109.2840,"altMSL":1130.6340,"alt":1130.6340,"epx":7.497,"epy":9.118,"epv":7.180,"track":120.4520,"magtrack":134.8705,"magvar":14.4,"speed":0.126,"climb":0.111,"eps":18.24,"epc":14.36,"ecefx":-2386054.04,"ecefy":-3922194.65,"ecefz":4414364.22,"ecefvx":0.05,"ecefvy":0.05,"ecefvz":0.11,"ecefpAcc":8.89,"ecefvAcc":0.47,"geoidSep":-22.154,"eph":5.248,"sep":28.880}
$GPZDA,212814.00,10,06,2020,00,00*6D
$GPGGA,212814.00,4404.1319,N,12118.8461,W,1,18,0.79,1130.79,M,-22.154,M,,*6B
$GPRMC,212814.00,A,4404.1319,N,12118.8461,W,0.1458,120.452,100620,14.4,E*44
$GPGSA,A,3,2,5,12,25,29,,,,,,,,1.5,0.8,1.3*34
$GPGBS,212814.00,7.497,9.118,7.176,,,,*46
{"class":"TPV","mode":3,"time":"2020-06-10T21:28:14.000Z","leapseconds":18,"ept":0.005,"lat":44.068865600,"lon":-121.314101300,"altHAE":1109.4440,"altMSL":1130.7940,"alt":1130.7940,"epx":7.497,"epy":9.118,"epv":7.176,"track":120.4520,"magtrack":134.8705,"magvar":14.4,"speed":0.075,"climb":0.111,"eps":0.48,"epc":14.36,"ecefx":-2386054.04,"ecefy":-3922194.65,"ecefz":4414364.22,"ecefvx":0.05,"ecefvy":0.05,"ecefvz":0.11,"ecefpAcc":8.89,"ecefvAcc":0.47,"geoidSep":-22.154,"eph":5.245,"sep":28.880}
$GPALM,1,1,00,0061,00,0000,00,0000,0000,00000,000000,000000,000000,000,000*4C
{"class":"SUBFRAME","gnssId":3,"tSV":29,"frame":3,"SOW":336492,"scaled":true,"EPHEMERIS":{"sv":0,"Cic":5.312500000000e-01,"Cis":1.421875000000e+00,"IDOT":5.9285909514983359e-14,"i0":0.3072070581838489,"Omega0":0.6655694157816470,"Omegad":-2.238948582090e-09,"omega":0.4316409900784492,"toeLSB":9082}}
