$GPZDA,165244.00,26,05,2021,00,00*66
$GPGGA,165244.00,5135.4610,N,00001.4782,W,2,00,,7.57,M,45.536,M,,*6E
$GPRMC,165244.00,A,5135.4610,N,00001.4782,W,0.0253,314.262,260521,-0.1,W*4B
$GPGSA,A,3,,,,,,,,,,,,,,,*1C
{"class":"TPV","status":2,"mode":3,"time":"2021-05-26T16:52:44.000Z","ept":0.005,"lat":51.591017300,"lon":-0.024636000,"altHAE":53.0770,"altMSL":7.5700,"alt":7.5700,"epv":2.817,"track":314.2616,"magtrack":314.1273,"magvar":-0.1,"speed":0.013,"eps":0.24,"geoidSep":45.536,"eph":2.113}
$GPGSV,7,1,26,01,64,286,42,03,30,218,00,08,48,162,25,10,15,051,39*74
$GPGSV,7,2,26,14,29,293,30,17,14,312,26,21,86,003,26,22,61,211,28*7F
$GPGSV,7,3,26,24,02,007,26,27,16,147,35,28,24,312,00,32,35,075,42*77
$GPGSV,7,4,26,33,29,199,00,36,24,142,33,40,12,119,00,49,31,174,00*73
$GPGSV,7,5,26,68,08,025,21,69,52,054,38,70,48,168,22,71,04,192,00*73
$GPGSV,7,6,26,75,04,251,00,76,20,300,00,77,13,351,00,84,38,105,22*7A
$GPGSV,7,7,26,85,71,340,31,86,24,306,00*7E
{"class":"SKY","time":"2019-04-10T16:52:44.000Z","xdop":0.65,"ydop":0.70,"vdop":1.36,"tdop":1.02,"hdop":0.96,"gdop":1.95,"pdop":1.66,"nSat":26,"uSat":11,"satellites":[{"PRN":1,"el":64.0,"az":286.0,"ss":42.0,"used":true,"gnssid":0,"svid":1,"health":1},{"PRN":3,"el":30.0,"az":218.0,"ss":0.0,"used":false,"gnssid":0,"svid":3,"health":1},{"PRN":8,"el":48.0,"az":162.0,"ss":25.0,"used":true,"gnssid":0,"svid":8,"health":1},{"PRN":10,"el":15.0,"az":51.0,"ss":39.0,"used":true,"gnssid":0,"svid":10,"health":1},{"PRN":14,"el":29.0,"az":293.0,"ss":30.0,"used":true,"gnssid":0,"svid":14,"health":1},{"PRN":17,"el":14.0,"az":312.0,"ss":26.0,"used":false,"gnssid":0,"svid":17,"health":1},{"PRN":21,"el":86.0,"az":3.0,"ss":26.0,"used":true,"gnssid":0,"svid":21,"health":1},{"PRN":22,"el":61.0,"az":211.0,"ss":28.0,"used":true,"gnssid":0,"svid":22,"health":1},{"PRN":24,"el":2.0,"az":7.0,"ss":26.0,"used":false,"gnssid":0,"svid":24,"health":1},{"PRN":27,"el":16.0,"az":147.0,"ss":35.0,"used":true,"gnssid":0,"svid":27,"health":1},{"PRN":28,"el":24.0,"az":312.0,"ss":0.0,"used":false,"gnssid":0,"svid":28,"health":1},{"PRN":32,"el":35.0,"az":75.0,"ss":42.0,"used":true,"gnssid":0,"svid":32,"health":1},{"PRN":33,"el":29.0,"az":199.0,"ss":0.0,"used":false,"gnssid":1,"svid":120},{"PRN":36,"el":24.0,"az":142.0,"ss":33.0,"used":false,"gnssid":1,"svid":123,"health":1},{"PRN":40,"el":12.0,"az":119.0,"ss":0.0,"used":false,"gnssid":1,"svid":127},{"PRN":49,"el":31.0,"az":174.0,"ss":0.0,"used":false,"gnssid":1,"svid":136,"health":1},{"PRN":68,"el":8.0,"az":25.0,"ss":21.0,"used":false,"gnssid":6,"svid":4,"health":1},{"PRN":69,"el":52.0,"az":54.0,"ss":38.0,"used":true,"gnssid":6,"svid":5,"health":1},{"PRN":70,"el":48.0,"az":168.0,"ss":22.0,"used":false,"gnssid":6,"svid":6,"health":1},{"PRN":71,"el":4.0,"az":192.0,"ss":0.0,"used":false,"gnssid":6,"svid":7,"health":1},{"PRN":75,"el":4.0,"az":251.0,"ss":0.0,"used":false,"gnssid":6,"svid":11,"health":2},{"PRN":76,"el":20.0,"az":300.0,"ss":0.0,"used":false,"gnssid":6,"svid":12,"health":1},{"PRN":77,"el":13.0,"az":351.0,"ss":0.0,"used":false,"gnssid":6,"svid":13,"health":1},{"PRN":84,"el":38.0,"az":105.0,"ss":22.0,"used":true,"gnssid":6,"svid":20,"health":1},{"PRN":85,"el":71.0,"az":340.0,"ss":31.0,"used":true,"gnssid":6,"svid":21,"health":1},{"PRN":86,"el":24.0,"az":306.0,"ss":0.0,"used":false,"gnssid":6,"svid":22,"health":1}]}
$GPZDA,165245.00,26,05,2021,00,00*67
$GPGGA,165245.00,5135.4610,N,00001.4782,W,2,11,0.96,7.60,M,45.536,M,,*7A
$GPRMC,165245.00,A,5135.4610,N,00001.4782,W,0.0603,314.262,260521,-0.1,W*4B
$GPGSA,A,3,1,8,10,14,21,22,27,32,,,,,1.7,1.0,1.4*3A
$GPGBS,165245.00,2.452,2.628,2.837,,,,*41
{"class":"TPV","status":2,"mode":3,"time":"2021-05-26T16:52:45.000Z","leapseconds":18,"ept":0.005,"lat":51.591017200,"lon":-0.024636400,"altHAE":53.1100,"altMSL":7.6030,"alt":7.6030,"epx":2.452,"epy":2.628,"epv":2.837,"track":314.2616,"magtrack":314.1273,"magvar":-0.1,"speed":0.031,"climb":0.033,"eps":0.28,"epc":5.65,"ecefx":3970751.08,"ecefy":-1707.34,"ecefz":4974701.63,"ecefvx":0.00,"ecefvy":-0.01,"ecefvz":0.00,"ecefpAcc":3.52,"ecefvAcc":0.24,"geoidSep":45.536,"eph":2.121,"sep":7.898}
$GPGSV,7,1,26,01,64,286,42,03,30,218,00,08,48,162,25,10,15,051,39*74
$GPGSV,7,2,26,14,29,293,30,17,14,312,26,21,86,003,26,22,61,211,28*7F
$GPGSV,7,3,26,24,02,007,27,27,16,147,35,28,24,312,22,32,35,075,42*76
$GPGSV,7,4,26,33,29,199,00,36,24,142,33,40,12,119,00,49,31,174,00*73
$GPGSV,7,5,26,68,08,025,22,69,52,054,38,70,48,168,22,71,04,192,00*70
$GPGSV,7,6,26,75,04,251,00,76,20,300,00,77,13,351,00,84,38,105,23*7B
$GPGSV,7,7,26,85,71,340,31,86,24,306,00*7E
{"class":"SKY","time":"2021-05-26T16:52:45.000Z","xdop":0.65,"ydop":0.70,"vdop":1.36,"tdop":1.03,"hdop":0.96,"gdop":1.96,"pdop":1.67,"nSat":26,"uSat":11,"satellites":[{"PRN":1,"el":64.0,"az":286.0,"ss":42.0,"used":true,"gnssid":0,"svid":1,"health":1},{"PRN":3,"el":30.0,"az":218.0,"ss":0.0,"used":false,"gnssid":0,"svid":3,"health":1},{"PRN":8,"el":48.0,"az":162.0,"ss":25.0,"used":true,"gnssid":0,"svid":8,"health":1},{"PRN":10,"el":15.0,"az":51.0,"ss":39.0,"used":true,"gnssid":0,"svid":10,"health":1},{"PRN":14,"el":29.0,"az":293.0,"ss":30.0,"used":true,"gnssid":0,"svid":14,"health":1},{"PRN":17,"el":14.0,"az":312.0,"ss":26.0,"used":false,"gnssid":0,"svid":17,"health":1},{"PRN":21,"el":86.0,"az":3.0,"ss":26.0,"used":true,"gnssid":0,"svid":21,"health":1},{"PRN":22,"el":61.0,"az":211.0,"ss":28.0,"used":true,"gnssid":0,"svid":22,"health":1},{"PRN":24,"el":2.0,"az":7.0,"ss":27.0,"used":false,"gnssid":0,"svid":24,"health":1},{"PRN":27,"el":16.0,"az":147.0,"ss":35.0,"used":true,"gnssid":0,"svid":27,"health":1},{"PRN":28,"el":24.0,"az":312.0,"ss":22.0,"used":false,"gnssid":0,"svid":28,"health":1},{"PRN":32,"el":35.0,"az":75.0,"ss":42.0,"used":true,"gnssid":0,"svid":32,"health":1},{"PRN":33,"el":29.0,"az":199.0,"ss":0.0,"used":false,"gnssid":1,"svid":120},{"PRN":36,"el":24.0,"az":142.0,"ss":33.0,"used":false,"gnssid":1,"svid":123,"health":1},{"PRN":40,"el":12.0,"az":119.0,"ss":0.0,"used":false,"gnssid":1,"svid":127},{"PRN":49,"el":31.0,"az":174.0,"ss":0.0,"used":false,"gnssid":1,"svid":136,"health":1},{"PRN":68,"el":8.0,"az":25.0,"ss":22.0,"used":false,"gnssid":6,"svid":4,"health":1},{"PRN":69,"el":52.0,"az":54.0,"ss":38.0,"used":true,"gnssid":6,"svid":5,"health":1},{"PRN":70,"el":48.0,"az":168.0,"ss":22.0,"used":false,"gnssid":6,"svid":6,"health":1},{"PRN":71,"el":4.0,"az":192.0,"ss":0.0,"used":false,"gnssid":6,"svid":7,"health":1},{"PRN":75,"el":4.0,"az":251.0,"ss":0.0,"used":false,"gnssid":6,"svid":11,"health":2},{"PRN":76,"el":20.0,"az":300.0,"ss":0.0,"used":false,"gnssid":6,"svid":12,"health":1},{"PRN":77,"el":13.0,"az":351.0,"ss":0.0,"used":false,"gnssid":6,"svid":13,"health":1},{"PRN":84,"el":38.0,"az":105.0,"ss":23.0,"used":true,"gnssid":6,"svid":20,"health":1},{"PRN":85,"el":71.0,"az":340.0,"ss":31.0,"used":true,"gnssid":6,"svid":21,"health":1},{"PRN":86,"el":24.0,"az":306.0,"ss":0.0,"used":false,"gnssid":6,"svid":22,"health":1}]}
$GPZDA,165246.00,26,05,2021,00,00*64
$GPGGA,165246.00,5135.4610,N,00001.4782,W,2,11,0.96,7.60,M,45.536,M,,*79
$GPRMC,165246.00,A,5135.4610,N,00001.4782,W,0.0175,314.262,260521,-0.1,W*4E
$GPGSA,A,3,1,8,10,14,21,22,27,32,,,,,1.7,1.0,1.4*3A
$GPGBS,165246.00,2.452,2.628,2.822,,,,*46
{"class":"TPV","status":2,"mode":3,"time":"2021-05-26T16:52:46.000Z","leapseconds":18,"ept":0.005,"lat":51.591016900,"lon":-0.024637400,"altHAE":53.1050,"altMSL":7.5980,"alt":7.5980,"epx":2.452,"epy":2.628,"epv":2.822,"track":314.2616,"magtrack":314.1273,"magvar":-0.1,"speed":0.009,"climb":0.033,"eps":0.29,"epc":5.66,"ecefx":3970751.11,"ecefy":-1707.37,"ecefz":4974701.64,"ecefvx":-0.02,"ecefvy":0.00,"ecefvz":0.03,"ecefpAcc":3.54,"ecefvAcc":0.28,"geoidSep":45.536,"eph":2.111,"sep":7.898}
$GPGSV,7,1,26,01,64,286,42,03,30,218,00,08,48,162,24,10,15,051,40*7B
$GPGSV,7,2,26,14,29,293,30,17,14,312,26,21,86,003,26,22,61,211,28*7F
$GPGSV,7,3,26,24,02,007,26,27,16,147,36,28,24,312,00,32,35,075,42*74
$GPGSV,7,4,26,33,29,199,00,36,24,142,33,40,12,119,00,49,31,174,00*73
$GPGSV,7,5,26,68,07,025,21,69,52,054,38,70,48,168,21,71,04,192,00*7F
$GPGSV,7,6,26,75,04,251,00,76,20,300,00,77,13,351,00,84,38,105,22*7A
$GPGSV,7,7,26,85,71,340,31,86,24,306,00*7E
{"class":"SKY","time":"2021-05-26T16:52:46.000Z","xdop":0.65,"ydop":0.70,"vdop":1.36,"tdop":1.03,"hdop":0.96,"gdop":1.96,"pdop":1.67,"nSat":26,"uSat":11,"satellites":[{"PRN":1,"el":64.0,"az":286.0,"ss":42.0,"used":true,"gnssid":0,"svid":1,"health":1},{"PRN":3,"el":30.0,"az":218.0,"ss":0.0,"used":false,"gnssid":0,"svid":3,"health":1},{"PRN":8,"el":48.0,"az":162.0,"ss":24.0,"used":true,"gnssid":0,"svid":8,"health":1},{"PRN":10,"el":15.0,"az":51.0,"ss":40.0,"used":true,"gnssid":0,"svid":10,"health":1},{"PRN":14,"el":29.0,"az":293.0,"ss":30.0,"used":true,"gnssid":0,"svid":14,"health":1},{"PRN":17,"el":14.0,"az":312.0,"ss":26.0,"used":false,"gnssid":0,"svid":17,"health":1},{"PRN":21,"el":86.0,"az":3.0,"ss":26.0,"used":true,"gnssid":0,"svid":21,"health":1},{"PRN":22,"el":61.0,"az":211.0,"ss":28.0,"used":true,"gnssid":0,"svid":22,"health":1},{"PRN":24,"el":2.0,"az":7.0,"ss":26.0,"used":false,"gnssid":0,"svid":24,"health":1},{"PRN":27,"el":16.0,"az":147.0,"ss":36.0,"used":true,"gnssid":0,"svid":27,"health":1},{"PRN":28,"el":24.0,"az":312.0,"ss":0.0,"used":false,"gnssid":0,"svid":28,"health":1},{"PRN":32,"el":35.0,"az":75.0,"ss":42.0,"used":true,"gnssid":0,"svid":32,"health":1},{"PRN":33,"el":29.0,"az":199.0,"ss":0.0,"used":false,"gnssid":1,"svid":120},{"PRN":36,"el":24.0,"az":142.0,"ss":33.0,"used":false,"gnssid":1,"svid":123,"health":1},{"PRN":40,"el":12.0,"az":119.0,"ss":0.0,"used":false,"gnssid":1,"svid":127},{"PRN":49,"el":31.0,"az":174.0,"ss":0.0,"used":false,"gnssid":1,"svid":136,"health":1},{"PRN":68,"el":7.0,"az":25.0,"ss":21.0,"used":false,"gnssid":6,"svid":4,"health":1},{"PRN":69,"el":52.0,"az":54.0,"ss":38.0,"used":true,"gnssid":6,"svid":5,"health":1},{"PRN":70,"el":48.0,"az":168.0,"ss":21.0,"used":false,"gnssid":6,"svid":6,"health":1},{"PRN":71,"el":4.0,"az":192.0,"ss":0.0,"used":false,"gnssid":6,"svid":7,"health":1},{"PRN":75,"el":4.0,"az":251.0,"ss":0.0,"used":false,"gnssid":6,"svid":11,"health":2},{"PRN":76,"el":20.0,"az":300.0,"ss":0.0,"used":false,"gnssid":6,"svid":12,"health":1},{"PRN":77,"el":13.0,"az":351.0,"ss":0.0,"used":false,"gnssid":6,"svid":13,"health":1},{"PRN":84,"el":38.0,"az":105.0,"ss":22.0,"used":true,"gnssid":6,"svid":20,"health":1},{"PRN":85,"el":71.0,"az":340.0,"ss":31.0,"used":true,"gnssid":6,"svid":21,"health":1},{"PRN":86,"el":24.0,"az":306.0,"ss":0.0,"used":false,"gnssid":6,"svid":22,"health":1}]}
