{"class":"SKY","gdop":1.41,"hdop":0.77,"pdop":1.25,"tdop":0.65,"xdop":0.48,"ydop":0.60,"vdop":0.99}
{"class":"SKY","gdop":1.41,"hdop":0.77,"pdop":1.25,"tdop":0.65,"xdop":0.48,"ydop":0.60,"vdop":0.99}
$GPZDA,211921.00,22,04,2019,00,00*60
$GPGGA,211921.00,4552.6515107,S,17030.0079656,E,1,00,0.77,27.55,M,5.124,M,,*77
$GPRMC,211921.00,A,4552.6515107,S,17030.0079656,E,0.5968,217.876,220419,25.7,E*47
$GPGSA,A,3,,,,,,,,,,,,,1.2,0.8,1.0*38
$GPGBS,211921.00,7.200,9.000,12.851,,,,*7A
{"class":"TPV","mode":3,"time":"2019-04-22T21:19:21.000Z","leapseconds":18,"ept":0.005,"lat":-45.877525179,"lon":170.500132760,"altHAE":29.3380,"altMSL":27.5480,"alt":27.5480,"epx":7.200,"epy":9.000,"epv":12.851,"track":217.8765,"magtrack":243.6232,"magvar":25.7,"speed":0.307,"climb":0.104,"eps":18.00,"epc":25.75,"ecefx":-4387121.23,"ecefy":734141.86,"ecefz":-4555801.69,"ecefvx":-0.24,"ecefvy":-0.03,"ecefvz":0.19,"ecefpAcc":19.27,"ecefvAcc":1.05,"geoidSep":5.124,"eph":14.360,"sep":23.750}
{"class":"SKY","gdop":1.41,"hdop":0.77,"pdop":1.25,"tdop":0.65,"xdop":0.48,"ydop":0.60,"vdop":0.99}
$GPZDA,211922.00,22,04,2019,00,00*63
$GPGGA,211922.00,4552.6508951,S,17030.0084658,E,1,00,0.77,27.68,M,5.124,M,,*71
$GPRMC,211922.00,A,4552.6508951,S,17030.0084658,E,0.9505,217.876,220419,25.7,E*44
$GPGSA,A,3,,,,,,,,,,,,,1.2,0.8,1.0*38
$GPGBS,211922.00,7.200,9.000,12.821,,,,*7E
{"class":"TPV","mode":3,"time":"2019-04-22T21:19:22.000Z","leapseconds":18,"ept":0.005,"lat":-45.877514919,"lon":170.500141097,"altHAE":29.4730,"altMSL":27.6820,"alt":27.6820,"epx":7.200,"epy":9.000,"epv":12.821,"track":217.8765,"magtrack":243.6231,"magvar":25.7,"speed":0.489,"climb":0.135,"eps":18.00,"epc":25.67,"ecefx":-4387122.23,"ecefy":734141.37,"ecefz":-4555801.00,"ecefvx":-0.37,"ecefvy":-0.17,"ecefvz":0.27,"ecefpAcc":19.31,"ecefvAcc":1.14,"geoidSep":5.124,"eph":14.441,"sep":23.750}
{"class":"SKY","gdop":1.41,"hdop":0.77,"pdop":1.25,"tdop":0.65,"xdop":0.48,"ydop":0.60,"vdop":0.99}
$GPZDA,211923.00,22,04,2019,00,00*62
$GPGGA,211923.00,4552.6508167,S,17030.0085492,E,1,00,0.77,27.59,M,5.124,M,,*7A
$GPRMC,211923.00,A,4552.6508167,S,17030.0085492,E,0.6823,217.876,220419,25.7,E*4B
$GPGSA,A,3,,,,,,,,,,,,,1.2,0.8,1.0*38
$GPGBS,211923.00,7.200,9.000,12.794,,,,*7E
{"class":"TPV","mode":3,"time":"2019-04-22T21:19:23.000Z","leapseconds":18,"ept":0.005,"lat":-45.877513612,"lon":170.500142487,"altHAE":29.3800,"altMSL":27.5890,"alt":27.5890,"epx":7.200,"epy":9.000,"epv":12.794,"track":217.8765,"magtrack":243.6231,"magvar":25.7,"speed":0.351,"climb":-0.093,"eps":18.00,"epc":25.61,"ecefx":-4387122.29,"ecefy":734141.27,"ecefz":-4555800.83,"ecefvx":-0.27,"ecefvy":-0.14,"ecefvz":0.18,"ecefpAcc":19.36,"ecefvAcc":1.16,"geoidSep":5.124,"eph":14.527,"sep":23.750}
{"class":"SKY","gdop":1.41,"hdop":0.77,"pdop":1.25,"tdop":0.65,"xdop":0.48,"ydop":0.60,"vdop":0.99}
$GPZDA,211924.00,22,04,2019,00,00*65
$GPGGA,211924.00,4552.6504724,S,17030.0084607,E,1,00,0.77,27.86,M,5.124,M,,*7D
$GPRMC,211924.00,A,4552.6504724,S,17030.0084607,E,0.6084,217.876,220419,25.7,E*4B
$GPGSA,A,3,,,,,,,,,,,,,1.2,0.8,1.0*38
$GPGBS,211924.00,7.200,9.000,12.745,,,,*75
{"class":"TPV","mode":3,"time":"2019-04-22T21:19:24.000Z","leapseconds":18,"ept":0.005,"lat":-45.877507874,"lon":170.500141011,"altHAE":29.6510,"altMSL":27.8600,"alt":27.8600,"epx":7.200,"epy":9.000,"epv":12.745,"track":217.8765,"magtrack":243.6231,"magvar":25.7,"speed":0.313,"climb":0.271,"eps":18.00,"epc":25.54,"ecefx":-4387122.91,"ecefy":734141.49,"ecefz":-4555800.58,"ecefvx":-0.25,"ecefvy":0.07,"ecefvz":0.19,"ecefpAcc":19.26,"ecefvAcc":0.91,"geoidSep":5.124,"eph":14.446,"sep":23.750}
{"class":"SKY","gdop":1.41,"hdop":0.77,"pdop":1.25,"tdop":0.65,"xdop":0.48,"ydop":0.60,"vdop":0.99}
$GPZDA,211925.00,22,04,2019,00,00*64
$GPGGA,211925.00,4552.6506155,S,17030.0084287,E,1,00,0.77,27.86,M,5.124,M,,*72
$GPRMC,211925.00,A,4552.6506155,S,17030.0084287,E,0.3363,217.876,220419,25.7,E*4B
$GPGSA,A,3,,,,,,,,,,,,,1.2,0.8,1.0*38
$GPGBS,211925.00,7.200,9.000,12.723,,,,*74
{"class":"TPV","mode":3,"time":"2019-04-22T21:19:25.000Z","leapseconds":18,"ept":0.005,"lat":-45.877510259,"lon":170.500140479,"altHAE":29.6470,"altMSL":27.8560,"alt":27.8560,"epx":7.200,"epy":9.000,"epv":12.723,"track":217.8765,"magtrack":243.6231,"magvar":25.7,"speed":0.173,"climb":-0.004,"eps":18.00,"epc":25.47,"ecefx":-4387122.71,"ecefy":734141.50,"ecefz":-4555800.76,"ecefvx":-0.16,"ecefvy":0.00,"ecefvz":0.09,"ecefpAcc":19.32,"ecefvAcc":1.03,"geoidSep":5.124,"eph":14.540,"sep":23.750}
$GPGSV,12,1,45,02,33,098,05,05,68,107,00,06,00,095,09,09,02,156,00*4B
$GPGSV,12,2,45,12,14,346,11,13,18,047,00,15,11,013,00,21,12,265,17*47
$GPGSV,12,3,45,25,32,312,20,26,11,215,00,29,73,241,18,301,08,206,00*71
$GPGSV,12,4,45,303,49,065,00,305,28,130,19,308,23,006,00,313,41,244,12*4E
$GPGSV,12,5,45,315,76,132,18,321,23,255,17,327,15,307,13,401,30,320,00*47
$GPGSV,12,6,45,403,12,292,00,404,37,345,00,407,30,297,00,408,33,255,00*44
$GPGSV,12,7,45,410,31,268,16,411,37,061,00,413,07,262,00,414,56,106,00*45
$GPGSV,12,8,45,418,22,275,00,421,14,139,15,427,07,238,00,428,58,234,23*4B
$GPGSV,12,9,45,193,09,326,00,194,06,328,00,195,68,293,16,199,22,307,00*4D
$GPGSV,12,10,45,66,33,143,31,67,65,061,00,68,25,357,00,73,18,249,21*72
$GPGSV,12,11,45,74,13,204,22,80,01,302,00,81,23,074,09,82,67,122,09*75
$GPGSV,12,12,45,83,43,222,10*47
{"class":"SKY","time":"2019-04-22T21:19:26.000Z","gdop":1.48,"hdop":0.83,"pdop":1.31,"tdop":0.71,"xdop":0.57,"ydop":0.61,"vdop":1.01,"nSat":45,"uSat":15,"satellites":[{"PRN":2,"gnssid":0,"svid":2,"az":98.0,"el":33.0,"prRes":9.8,"qual":3,"ss":5.0,"used":false,"health":1},{"PRN":5,"gnssid":0,"svid":5,"az":107.0,"el":68.0,"prRes":10.7,"qual":1,"ss":0.0,"used":false,"health":1},{"PRN":6,"gnssid":0,"svid":6,"az":95.0,"el":0.0,"prRes":9.5,"qual":4,"ss":9.0,"used":false,"health":1},{"PRN":9,"gnssid":0,"svid":9,"az":156.0,"el":2.0,"prRes":15.6,"qual":1,"ss":0.0,"used":false,"health":1},{"PRN":12,"gnssid":0,"svid":12,"az":346.0,"el":14.0,"prRes":34.6,"qual":4,"ss":11.0,"used":true,"health":1},{"PRN":13,"gnssid":0,"svid":13,"az":47.0,"el":18.0,"prRes":4.7,"qual":0,"ss":0.0,"used":false,"health":1},{"PRN":15,"gnssid":0,"svid":15,"az":13.0,"el":11.0,"prRes":1.3,"qual":1,"ss":0.0,"used":false,"health":1},{"PRN":21,"gnssid":0,"svid":21,"az":265.0,"el":12.0,"prRes":26.5,"qual":4,"ss":17.0,"used":false,"health":1},{"PRN":25,"gnssid":0,"svid":25,"az":312.0,"el":32.0,"prRes":31.2,"qual":4,"ss":20.0,"used":true,"health":1},{"PRN":26,"gnssid":0,"svid":26,"az":215.0,"el":11.0,"prRes":21.5,"qual":1,"ss":0.0,"used":false,"health":1},{"PRN":29,"gnssid":0,"svid":29,"az":241.0,"el":73.0,"prRes":24.1,"qual":4,"ss":18.0,"used":true,"health":1},{"PRN":301,"gnssid":2,"svid":1,"az":206.0,"el":8.0,"prRes":20.6,"qual":1,"ss":0.0,"used":false,"health":1},{"PRN":303,"gnssid":2,"svid":3,"az":65.0,"el":49.0,"prRes":6.5,"qual":0,"ss":0.0,"used":false,"health":1},{"PRN":305,"gnssid":2,"svid":5,"az":130.0,"el":28.0,"prRes":13.0,"qual":4,"ss":19.0,"used":false,"health":1},{"PRN":308,"gnssid":2,"svid":8,"az":6.0,"el":23.0,"prRes":0.6,"qual":1,"ss":0.0,"used":false,"health":1},{"PRN":313,"gnssid":2,"svid":13,"az":244.0,"el":41.0,"prRes":24.4,"qual":4,"ss":12.0,"used":true,"health":1},{"PRN":315,"gnssid":2,"svid":15,"az":132.0,"el":76.0,"prRes":13.2,"qual":4,"ss":18.0,"used":true,"health":1},{"PRN":321,"gnssid":2,"svid":21,"az":255.0,"el":23.0,"prRes":25.5,"qual":4,"ss":17.0,"used":true,"health":1},{"PRN":327,"gnssid":2,"svid":27,"az":307.0,"el":15.0,"prRes":30.7,"qual":4,"ss":13.0,"used":true,"health":1},{"PRN":401,"gnssid":3,"svid":1,"az":320.0,"el":30.0,"prRes":32.0,"qual":0,"ss":0.0,"used":false,"health":1},{"PRN":403,"gnssid":3,"svid":3,"az":292.0,"el":12.0,"prRes":29.2,"qual":0,"ss":0.0,"used":false,"health":1},{"PRN":404,"gnssid":3,"svid":4,"az":345.0,"el":37.0,"prRes":34.5,"qual":0,"ss":0.0,"used":false,"health":1},{"PRN":407,"gnssid":3,"svid":7,"az":297.0,"el":30.0,"prRes":29.7,"qual":1,"ss":0.0,"used":false,"health":1},{"PRN":408,"gnssid":3,"svid":8,"az":255.0,"el":33.0,"prRes":25.5,"qual":0,"ss":0.0,"used":false,"health":1},{"PRN":410,"gnssid":3,"svid":10,"az":268.0,"el":31.0,"prRes":26.8,"qual":4,"ss":16.0,"used":true,"health":1},{"PRN":411,"gnssid":3,"svid":11,"az":61.0,"el":37.0,"prRes":6.1,"qual":1,"ss":0.0,"used":false,"health":1},{"PRN":413,"gnssid":3,"svid":13,"az":262.0,"el":7.0,"prRes":26.2,"qual":1,"ss":0.0,"used":false,"health":1},{"PRN":414,"gnssid":3,"svid":14,"az":106.0,"el":56.0,"prRes":10.6,"qual":0,"ss":0.0,"used":false,"health":1},{"PRN":418,"gnssid":3,"svid":18,"az":275.0,"el":22.0,"prRes":27.5,"qual":0,"ss":0.0,"used":false,"health":2},{"PRN":421,"gnssid":3,"svid":21,"az":139.0,"el":14.0,"prRes":13.9,"qual":4,"ss":15.0,"used":true,"health":1},{"PRN":427,"gnssid":3,"svid":27,"az":238.0,"el":7.0,"prRes":23.8,"qual":0,"ss":0.0,"used":false,"health":1},{"PRN":428,"gnssid":3,"svid":28,"az":234.0,"el":58.0,"prRes":23.4,"qual":4,"ss":23.0,"used":true,"health":1},{"PRN":193,"gnssid":5,"svid":1,"az":326.0,"el":9.0,"prRes":32.6,"qual":1,"ss":0.0,"used":false,"health":1},{"PRN":194,"gnssid":5,"svid":2,"az":328.0,"el":6.0,"prRes":32.8,"qual":1,"ss":0.0,"used":false,"health":1},{"PRN":195,"gnssid":5,"svid":3,"az":293.0,"el":68.0,"prRes":29.3,"qual":4,"ss":16.0,"used":true,"health":1},{"PRN":199,"gnssid":5,"svid":7,"az":307.0,"el":22.0,"prRes":30.7,"qual":1,"ss":0.0,"used":false,"health":1},{"PRN":66,"gnssid":6,"svid":2,"az":143.0,"el":33.0,"prRes":14.3,"qual":7,"ss":31.0,"used":true,"health":1},{"PRN":67,"gnssid":6,"svid":3,"az":61.0,"el":65.0,"prRes":6.1,"qual":1,"ss":0.0,"used":false,"health":1},{"PRN":68,"gnssid":6,"svid":4,"az":357.0,"el":25.0,"prRes":35.7,"qual":1,"ss":0.0,"used":false,"health":1},{"PRN":73,"gnssid":6,"svid":9,"az":249.0,"el":18.0,"prRes":24.9,"qual":4,"ss":21.0,"used":true,"health":1},{"PRN":74,"gnssid":6,"svid":10,"az":204.0,"el":13.0,"prRes":20.4,"qual":4,"ss":22.0,"used":false,"health":1},{"PRN":80,"gnssid":6,"svid":16,"az":302.0,"el":1.0,"prRes":30.2,"qual":1,"ss":0.0,"used":false,"health":1},{"PRN":81,"gnssid":6,"svid":17,"az":74.0,"el":23.0,"prRes":7.4,"qual":4,"ss":9.0,"used":false,"health":1},{"PRN":82,"gnssid":6,"svid":18,"az":122.0,"el":67.0,"prRes":12.2,"qual":4,"ss":9.0,"used":true,"health":1},{"PRN":83,"gnssid":6,"svid":19,"az":222.0,"el":43.0,"prRes":22.2,"qual":4,"ss":10.0,"used":true,"health":1}]}
{"class":"SKY","time":"2019-04-22T21:19:26.000Z","gdop":1.47,"hdop":0.83,"pdop":1.29,"tdop":0.69,"xdop":0.56,"ydop":0.61,"vdop":0.99}
$GPZDA,211926.00,22,04,2019,00,00*67
$GPGGA,211926.00,4552.6508101,S,17030.0084431,E,1,15,0.83,27.60,M,5.124,M,,*72
$GPRMC,211926.00,A,4552.6508101,S,17030.0084431,E,0.1652,217.876,220419,25.7,E*49
$GPGSA,A,3,12,25,29,,,,,,,,,,1.3,0.8,1.0*36
$GPGBS,211926.00,8.400,9.150,12.711,,,,*7B
{"class":"TPV","mode":3,"time":"2019-04-22T21:19:26.000Z","leapseconds":18,"ept":0.005,"lat":-45.877513501,"lon":170.500140718,"altHAE":29.3900,"altMSL":27.5990,"alt":27.5990,"epx":8.400,"epy":9.150,"epv":12.711,"track":217.8765,"magtrack":243.6231,"magvar":25.7,"speed":0.085,"climb":-0.257,"eps":18.15,"epc":25.43,"ecefx":-4387122.28,"ecefy":734141.41,"ecefz":-4555800.83,"ecefvx":-0.07,"ecefvy":-0.06,"ecefvz":0.01,"ecefpAcc":19.39,"ecefvAcc":1.05,"geoidSep":5.124,"eph":14.638,"sep":24.809}
{"class":"SKY","time":"2019-04-22T21:19:26.000Z","gdop":1.41,"hdop":0.77,"pdop":1.25,"tdop":0.65,"xdop":0.48,"ydop":0.60,"vdop":0.99}
$GPZDA,211927.00,22,04,2019,00,00*66
$GPGGA,211927.00,4552.6510632,S,17030.0078874,E,1,15,0.77,27.46,M,5.124,M,,*7C
$GPRMC,211927.00,A,4552.6510632,S,17030.0078874,E,0.4257,217.876,220419,25.7,E*4C
$GPGSA,A,3,12,25,29,,,,,,,,,,1.2,0.8,1.0*37
$GPGBS,211927.00,7.200,9.000,12.674,,,,*75
{"class":"TPV","mode":3,"time":"2019-04-22T21:19:27.000Z","leapseconds":18,"ept":0.005,"lat":-45.877517720,"lon":170.500131457,"altHAE":29.2460,"altMSL":27.4550,"alt":27.4550,"epx":7.200,"epy":9.000,"epv":12.674,"track":217.8765,"magtrack":243.6232,"magvar":25.7,"speed":0.219,"climb":-0.144,"eps":18.15,"epc":25.39,"ecefx":-4387121.73,"ecefy":734142.05,"ecefz":-4555801.05,"ecefvx":0.03,"ecefvy":0.22,"ecefvz":-0.04,"ecefpAcc":19.27,"ecefvAcc":0.84,"geoidSep":5.124,"eph":14.514,"sep":23.750}
{"class":"SKY","time":"2019-04-22T21:19:26.000Z","gdop":1.41,"hdop":0.77,"pdop":1.25,"tdop":0.65,"xdop":0.48,"ydop":0.60,"vdop":0.99}
$GPZDA,211928.00,22,04,2019,00,00*69
$GPGGA,211928.00,4552.6510798,S,17030.0078188,E,1,15,0.77,27.35,M,5.124,M,,*7C
$GPRMC,211928.00,A,4552.6510798,S,17030.0078188,E,0.4140,217.876,220419,25.7,E*4D
$GPGSA,A,3,12,25,29,,,,,,,,,,1.2,0.8,1.0*37
$GPGBS,211928.00,7.200,9.000,12.668,,,,*77
{"class":"TPV","mode":3,"time":"2019-04-22T21:19:28.000Z","leapseconds":18,"ept":0.005,"lat":-45.877517996,"lon":170.500130314,"altHAE":29.1450,"altMSL":27.3540,"alt":27.3540,"epx":7.200,"epy":9.000,"epv":12.668,"track":217.8765,"magtrack":243.6232,"magvar":25.7,"speed":0.213,"climb":-0.101,"eps":18.00,"epc":25.34,"ecefx":-4387121.63,"ecefy":734142.12,"ecefz":-4555801.00,"ecefvx":0.08,"ecefvy":0.17,"ecefvz":-0.10,"ecefpAcc":19.33,"ecefvAcc":1.07,"geoidSep":5.124,"eph":14.598,"sep":23.750}
{"class":"SKY","time":"2019-04-22T21:19:26.000Z","gdop":1.41,"hdop":0.77,"pdop":1.25,"tdop":0.65,"xdop":0.48,"ydop":0.60,"vdop":0.99}
$GPZDA,211929.00,22,04,2019,00,00*68
$GPGGA,211929.00,4552.6505564,S,17030.0081956,E,1,15,0.77,27.21,M,5.124,M,,*70
$GPRMC,211929.00,A,4552.6505564,S,17030.0081956,E,0.3596,217.876,220419,25.7,E*4C
$GPGSA,A,3,12,25,29,,,,,,,,,,1.2,0.8,1.0*37
$GPGBS,211929.00,7.200,9.000,12.663,,,,*7D
{"class":"TPV","mode":3,"time":"2019-04-22T21:19:29.000Z","leapseconds":18,"ept":0.005,"lat":-45.877509273,"lon":170.500136593,"altHAE":28.9990,"altMSL":27.2080,"alt":27.2080,"epx":7.200,"epy":9.000,"epv":12.663,"track":217.8765,"magtrack":243.6231,"magvar":25.7,"speed":0.185,"climb":-0.146,"eps":18.00,"epc":25.33,"ecefx":-4387122.29,"ecefy":734141.74,"ecefz":-4555800.22,"ecefvx":-0.15,"ecefvy":0.06,"ecefvz":0.10,"ecefpAcc":19.38,"ecefvAcc":0.89,"geoidSep":5.124,"eph":14.677,"sep":23.750}
{"class":"SKY","time":"2019-04-22T21:19:26.000Z","gdop":1.41,"hdop":0.77,"pdop":1.25,"tdop":0.65,"xdop":0.48,"ydop":0.60,"vdop":0.99}
$GPZDA,211930.00,22,04,2019,00,00*60
$GPGGA,211930.00,4552.6503676,S,17030.0080129,E,1,15,0.77,27.20,M,5.124,M,,*7E
$GPRMC,211930.00,A,4552.6503676,S,17030.0080129,E,0.6337,217.876,220419,25.7,E*4B
$GPGSA,A,3,12,25,29,,,,,,,,,,1.2,0.8,1.0*37
$GPGBS,211930.00,7.200,9.000,12.635,,,,*76
{"class":"TPV","mode":3,"time":"2019-04-22T21:19:30.000Z","leapseconds":18,"ept":0.005,"lat":-45.877506127,"lon":170.500133548,"altHAE":28.9900,"altMSL":27.2000,"alt":27.2000,"epx":7.200,"epy":9.000,"epv":12.635,"track":217.8765,"magtrack":243.6231,"magvar":25.7,"speed":0.326,"climb":-0.009,"eps":18.00,"epc":25.30,"ecefx":-4387122.50,"ecefy":734142.01,"ecefz":-4555799.97,"ecefvx":-0.21,"ecefvy":0.17,"ecefvz":0.18,"ecefpAcc":19.30,"ecefvAcc":0.73,"geoidSep":5.124,"eph":14.590,"sep":23.750}
{"class":"SKY","time":"2019-04-22T21:19:26.000Z","gdop":1.41,"hdop":0.77,"pdop":1.25,"tdop":0.65,"xdop":0.48,"ydop":0.60,"vdop":0.98}
$GPZDA,211931.00,22,04,2019,00,00*61
$GPGGA,211931.00,4552.6507390,S,17030.0074816,E,1,15,0.77,26.47,M,5.124,M,,*78
$GPRMC,211931.00,A,4552.6507390,S,17030.0074816,E,0.6415,217.876,220419,25.7,E*4A
$GPGSA,A,3,12,25,29,,,,,,,,,,1.2,0.8,1.0*37
$GPGBS,211931.00,7.200,9.000,12.623,,,,*70
{"class":"TPV","mode":3,"time":"2019-04-22T21:19:31.000Z","leapseconds":18,"ept":0.005,"lat":-45.877512316,"lon":170.500124693,"altHAE":28.2650,"altMSL":26.4740,"alt":26.4740,"epx":7.200,"epy":9.000,"epv":12.623,"track":217.8765,"magtrack":243.6231,"magvar":25.7,"speed":0.330,"climb":-0.725,"eps":18.00,"epc":25.26,"ecefx":-4387121.40,"ecefy":734142.53,"ecefz":-4555799.93,"ecefvx":0.02,"ecefvy":0.33,"ecefvz":0.01,"ecefpAcc":19.35,"ecefvAcc":0.76,"geoidSep":5.124,"eph":14.669,"sep":23.750}
{"class":"SKY","time":"2019-04-22T21:19:26.000Z","gdop":1.41,"hdop":0.77,"pdop":1.25,"tdop":0.65,"xdop":0.48,"ydop":0.60,"vdop":0.98}
$GPZDA,211932.00,22,04,2019,00,00*62
$GPGGA,211932.00,4552.6503571,S,17030.0076173,E,1,15,0.77,25.85,M,5.124,M,,*73
$GPRMC,211932.00,A,4552.6503571,S,17030.0076173,E,0.5579,217.876,220419,25.7,E*44
$GPGSA,A,3,12,25,29,,,,,,,,,,1.2,0.8,1.0*37
$GPGBS,211932.00,7.200,9.000,12.613,,,,*70
{"class":"TPV","mode":3,"time":"2019-04-22T21:19:32.000Z","leapseconds":18,"ept":0.005,"lat":-45.877505951,"lon":170.500126955,"altHAE":27.6380,"altMSL":25.8470,"alt":25.8470,"epx":7.200,"epy":9.000,"epv":12.613,"track":217.8765,"magtrack":243.6231,"magvar":25.7,"speed":0.287,"climb":-0.627,"eps":18.00,"epc":25.24,"ecefx":-4387121.50,"ecefy":734142.36,"ecefz":-4555798.99,"ecefvx":-0.10,"ecefvy":0.24,"ecefvz":0.13,"ecefpAcc":19.40,"ecefvAcc":0.53,"geoidSep":5.124,"eph":14.742,"sep":23.750}
{"class":"SKY","time":"2019-04-22T21:19:26.000Z","gdop":1.41,"hdop":0.77,"pdop":1.25,"tdop":0.65,"xdop":0.48,"ydop":0.60,"vdop":0.98}
$GPZDA,211933.00,22,04,2019,00,00*63
$GPGGA,211933.00,4552.6507121,S,17030.0070425,E,1,15,0.77,25.86,M,5.124,M,,*74
$GPRMC,211933.00,A,4552.6507121,S,17030.0070425,E,0.5909,217.876,220419,25.7,E*4B
$GPGSA,A,3,12,25,29,,,,,,,,,,1.2,0.8,1.0*37
$GPGBS,211933.00,7.200,9.000,12.585,,,,*7D
{"class":"TPV","mode":3,"time":"2019-04-22T21:19:33.000Z","leapseconds":18,"ept":0.005,"lat":-45.877511869,"lon":170.500117375,"altHAE":27.6520,"altMSL":25.8620,"alt":25.8620,"epx":7.200,"epy":9.000,"epv":12.585,"track":217.8765,"magtrack":243.6231,"magvar":25.7,"speed":0.304,"climb":0.014,"eps":18.00,"epc":25.20,"ecefx":-4387120.92,"ecefy":734143.02,"ecefz":-4555799.45,"ecefvx":-0.04,"ecefvy":0.29,"ecefvz":0.09,"ecefpAcc":19.32,"ecefvAcc":0.58,"geoidSep":5.124,"eph":14.660,"sep":23.750}
{"class":"SKY","time":"2019-04-22T21:19:26.000Z","gdop":1.41,"hdop":0.77,"pdop":1.25,"tdop":0.65,"xdop":0.48,"ydop":0.60,"vdop":0.98}
$GPZDA,211934.00,22,04,2019,00,00*64
$GPGGA,211934.00,4552.6500679,S,17030.0077137,E,1,15,0.77,25.72,M,5.124,M,,*74
$GPRMC,211934.00,A,4552.6500679,S,17030.0077137,E,0.8981,217.876,220419,25.7,E*4D
$GPGSA,A,3,12,25,29,,,,,,,,,,1.2,0.8,1.0*37
$GPGBS,211934.00,7.200,9.000,12.580,,,,*7F
{"class":"TPV","mode":3,"time":"2019-04-22T21:19:34.000Z","leapseconds":18,"ept":0.005,"lat":-45.877501132,"lon":170.500128561,"altHAE":27.5090,"altMSL":25.7180,"alt":25.7180,"epx":7.200,"epy":9.000,"epv":12.580,"track":217.8765,"magtrack":243.6231,"magvar":25.7,"speed":0.462,"climb":-0.143,"eps":18.00,"epc":25.16,"ecefx":-4387121.81,"ecefy":734142.29,"ecefz":-4555798.52,"ecefvx":-0.33,"ecefvy":-0.11,"ecefvz":0.30,"ecefpAcc":19.37,"ecefvAcc":1.13,"geoidSep":5.124,"eph":14.732,"sep":23.750}
{"class":"SKY","time":"2019-04-22T21:19:26.000Z","gdop":1.41,"hdop":0.77,"pdop":1.25,"tdop":0.65,"xdop":0.48,"ydop":0.60,"vdop":0.98}
$GPZDA,211935.00,22,04,2019,00,00*65
$GPGGA,211935.00,4552.6498125,S,17030.0078083,E,1,15,0.77,25.51,M,5.124,M,,*7B
$GPRMC,211935.00,A,4552.6498125,S,17030.0078083,E,0.8864,217.876,220419,25.7,E*49
$GPGSA,A,3,12,25,29,,,,,,,,,,1.2,0.8,1.0*37
$GPGBS,211935.00,7.200,9.000,12.571,,,,*70
{"class":"TPV","mode":3,"time":"2019-04-22T21:19:35.000Z","leapseconds":18,"ept":0.005,"lat":-45.877496875,"lon":170.500130139,"altHAE":27.3020,"altMSL":25.5110,"alt":25.5110,"epx":7.200,"epy":9.000,"epv":12.571,"track":217.8765,"magtrack":243.6231,"magvar":25.7,"speed":0.456,"climb":-0.207,"eps":18.00,"epc":25.15,"ecefx":-4387122.02,"ecefy":734142.20,"ecefz":-4555798.04,"ecefvx":-0.33,"ecefvy":-0.05,"ecefvz":0.31,"ecefpAcc":19.43,"ecefvAcc":1.11,"geoidSep":5.124,"eph":14.812,"sep":23.750}
$GPGSV,12,1,45,02,33,098,08,05,68,107,00,06,00,095,09,09,02,156,00*46
$GPGSV,12,2,45,12,14,346,08,13,18,047,00,15,11,013,00,21,12,265,17*4F
$GPGSV,12,3,45,25,32,312,22,26,11,215,00,29,73,241,17,301,08,206,00*7C
$GPGSV,12,4,45,303,49,065,00,305,28,130,20,308,23,006,00,313,41,244,12*44
$GPGSV,12,5,45,315,76,132,18,321,23,255,17,327,15,307,14,401,30,320,00*40
$GPGSV,12,6,45,403,12,292,00,404,37,345,00,407,30,297,00,408,33,255,00*44
$GPGSV,12,7,45,410,31,268,15,411,37,061,00,413,07,262,00,414,56,107,00*47
$GPGSV,12,8,45,418,21,275,00,421,14,139,15,427,07,238,00,428,58,234,23*48
$GPGSV,12,9,45,193,09,326,00,194,06,328,00,195,68,293,17,199,22,307,00*4C
$GPGSV,12,10,45,66,33,143,32,67,65,061,00,68,25,357,00,73,18,249,20*70
$GPGSV,12,11,45,74,13,204,22,80,01,302,00,81,23,074,12,82,67,122,09*7F
$GPGSV,12,12,45,83,43,222,09*4F
{"class":"SKY","time":"2019-04-22T21:19:36.000Z","gdop":1.42,"hdop":0.77,"pdop":1.26,"tdop":0.66,"xdop":0.48,"ydop":0.60,"vdop":1.00,"nSat":45,"uSat":16,"satellites":[{"PRN":2,"gnssid":0,"svid":2,"az":98.0,"el":33.0,"prRes":9.8,"qual":4,"ss":8.0,"used":true,"health":1},{"PRN":5,"gnssid":0,"svid":5,"az":107.0,"el":68.0,"prRes":10.7,"qual":1,"ss":0.0,"used":false,"health":1},{"PRN":6,"gnssid":0,"svid":6,"az":95.0,"el":0.0,"prRes":9.5,"qual":4,"ss":9.0,"used":false,"health":1},{"PRN":9,"gnssid":0,"svid":9,"az":156.0,"el":2.0,"prRes":15.6,"qual":1,"ss":0.0,"used":false,"health":1},{"PRN":12,"gnssid":0,"svid":12,"az":346.0,"el":14.0,"prRes":34.6,"qual":4,"ss":8.0,"used":true,"health":1},{"PRN":13,"gnssid":0,"svid":13,"az":47.0,"el":18.0,"prRes":4.7,"qual":0,"ss":0.0,"used":false,"health":1},{"PRN":15,"gnssid":0,"svid":15,"az":13.0,"el":11.0,"prRes":1.3,"qual":1,"ss":0.0,"used":false,"health":1},{"PRN":21,"gnssid":0,"svid":21,"az":265.0,"el":12.0,"prRes":26.5,"qual":4,"ss":17.0,"used":false,"health":1},{"PRN":25,"gnssid":0,"svid":25,"az":312.0,"el":32.0,"prRes":31.2,"qual":4,"ss":22.0,"used":true,"health":1},{"PRN":26,"gnssid":0,"svid":26,"az":215.0,"el":11.0,"prRes":21.5,"qual":1,"ss":0.0,"used":false,"health":1},{"PRN":29,"gnssid":0,"svid":29,"az":241.0,"el":73.0,"prRes":24.1,"qual":4,"ss":17.0,"used":true,"health":1},{"PRN":301,"gnssid":2,"svid":1,"az":206.0,"el":8.0,"prRes":20.6,"qual":1,"ss":0.0,"used":false,"health":1},{"PRN":303,"gnssid":2,"svid":3,"az":65.0,"el":49.0,"prRes":6.5,"qual":1,"ss":0.0,"used":false,"health":1},{"PRN":305,"gnssid":2,"svid":5,"az":130.0,"el":28.0,"prRes":13.0,"qual":4,"ss":20.0,"used":false,"health":1},{"PRN":308,"gnssid":2,"svid":8,"az":6.0,"el":23.0,"prRes":0.6,"qual":1,"ss":0.0,"used":false,"health":1},{"PRN":313,"gnssid":2,"svid":13,"az":244.0,"el":41.0,"prRes":24.4,"qual":4,"ss":12.0,"used":true,"health":1},{"PRN":315,"gnssid":2,"svid":15,"az":132.0,"el":76.0,"prRes":13.2,"qual":4,"ss":18.0,"used":true,"health":1},{"PRN":321,"gnssid":2,"svid":21,"az":255.0,"el":23.0,"prRes":25.5,"qual":4,"ss":17.0,"used":true,"health":1},{"PRN":327,"gnssid":2,"svid":27,"az":307.0,"el":15.0,"prRes":30.7,"qual":4,"ss":14.0,"used":true,"health":1},{"PRN":401,"gnssid":3,"svid":1,"az":320.0,"el":30.0,"prRes":32.0,"qual":0,"ss":0.0,"used":false,"health":1},{"PRN":403,"gnssid":3,"svid":3,"az":292.0,"el":12.0,"prRes":29.2,"qual":0,"ss":0.0,"used":false,"health":1},{"PRN":404,"gnssid":3,"svid":4,"az":345.0,"el":37.0,"prRes":34.5,"qual":0,"ss":0.0,"used":false,"health":1},{"PRN":407,"gnssid":3,"svid":7,"az":297.0,"el":30.0,"prRes":29.7,"qual":0,"ss":0.0,"used":false,"health":1},{"PRN":408,"gnssid":3,"svid":8,"az":255.0,"el":33.0,"prRes":25.5,"qual":1,"ss":0.0,"used":false,"health":1},{"PRN":410,"gnssid":3,"svid":10,"az":268.0,"el":31.0,"prRes":26.8,"qual":4,"ss":15.0,"used":true,"health":1},{"PRN":411,"gnssid":3,"svid":11,"az":61.0,"el":37.0,"prRes":6.1,"qual":0,"ss":0.0,"used":false,"health":1},{"PRN":413,"gnssid":3,"svid":13,"az":262.0,"el":7.0,"prRes":26.2,"qual":0,"ss":0.0,"used":false,"health":1},{"PRN":414,"gnssid":3,"svid":14,"az":107.0,"el":56.0,"prRes":10.7,"qual":1,"ss":0.0,"used":false,"health":1},{"PRN":418,"gnssid":3,"svid":18,"az":275.0,"el":21.0,"prRes":27.5,"qual":0,"ss":0.0,"used":false,"health":2},{"PRN":421,"gnssid":3,"svid":21,"az":139.0,"el":14.0,"prRes":13.9,"qual":4,"ss":15.0,"used":true,"health":1},{"PRN":427,"gnssid":3,"svid":27,"az":238.0,"el":7.0,"prRes":23.8,"qual":0,"ss":0.0,"used":false,"health":1},{"PRN":428,"gnssid":3,"svid":28,"az":234.0,"el":58.0,"prRes":23.4,"qual":4,"ss":23.0,"used":true,"health":1},{"PRN":193,"gnssid":5,"svid":1,"az":326.0,"el":9.0,"prRes":32.6,"qual":1,"ss":0.0,"used":false,"health":1},{"PRN":194,"gnssid":5,"svid":2,"az":328.0,"el":6.0,"prRes":32.8,"qual":1,"ss":0.0,"used":false,"health":1},{"PRN":195,"gnssid":5,"svid":3,"az":293.0,"el":68.0,"prRes":29.3,"qual":4,"ss":17.0,"used":true,"health":1},{"PRN":199,"gnssid":5,"svid":7,"az":307.0,"el":22.0,"prRes":30.7,"qual":1,"ss":0.0,"used":false,"health":1},{"PRN":66,"gnssid":6,"svid":2,"az":143.0,"el":33.0,"prRes":14.3,"qual":7,"ss":32.0,"used":true,"health":1},{"PRN":67,"gnssid":6,"svid":3,"az":61.0,"el":65.0,"prRes":6.1,"qual":1,"ss":0.0,"used":false,"health":1},{"PRN":68,"gnssid":6,"svid":4,"az":357.0,"el":25.0,"prRes":35.7,"qual":1,"ss":0.0,"used":false,"health":1},{"PRN":73,"gnssid":6,"svid":9,"az":249.0,"el":18.0,"prRes":24.9,"qual":4,"ss":20.0,"used":true,"health":1},{"PRN":74,"gnssid":6,"svid":10,"az":204.0,"el":13.0,"prRes":20.4,"qual":4,"ss":22.0,"used":false,"health":1},{"PRN":80,"gnssid":6,"svid":16,"az":302.0,"el":1.0,"prRes":30.2,"qual":0,"ss":0.0,"used":false,"health":1},{"PRN":81,"gnssid":6,"svid":17,"az":74.0,"el":23.0,"prRes":7.4,"qual":4,"ss":12.0,"used":false,"health":1},{"PRN":82,"gnssid":6,"svid":18,"az":122.0,"el":67.0,"prRes":12.2,"qual":4,"ss":9.0,"used":true,"health":1},{"PRN":83,"gnssid":6,"svid":19,"az":222.0,"el":43.0,"prRes":22.2,"qual":4,"ss":9.0,"used":true,"health":1}]}
{"class":"SKY","time":"2019-04-22T21:19:36.000Z","gdop":1.41,"hdop":0.77,"pdop":1.25,"tdop":0.65,"xdop":0.48,"ydop":0.60,"vdop":0.98}
$GPZDA,211936.00,22,04,2019,00,00*66
$GPGGA,211936.00,4552.6502153,S,17030.0077194,E,1,16,0.77,25.56,M,5.124,M,,*77
$GPRMC,211936.00,A,4552.6502153,S,17030.0077194,E,0.7562,217.876,220419,25.7,E*45
$GPGSA,A,3,2,12,25,29,,,,,,,,,1.2,0.8,1.0*05
$GPGBS,211936.00,7.200,9.000,12.550,,,,*70
{"class":"TPV","mode":3,"time":"2019-04-22T21:19:36.000Z","leapseconds":18,"ept":0.005,"lat":-45.877503588,"lon":170.500128657,"altHAE":27.3490,"altMSL":25.5580,"alt":25.5580,"epx":7.200,"epy":9.000,"epv":12.550,"track":217.8765,"magtrack":243.6231,"magvar":25.7,"speed":0.389,"climb":0.047,"eps":18.00,"epc":25.12,"ecefx":-4387121.51,"ecefy":734142.23,"ecefz":-4555798.60,"ecefvx":-0.26,"ecefvy":-0.19,"ecefvz":0.22,"ecefpAcc":19.36,"ecefvAcc":1.17,"geoidSep":5.124,"eph":14.743,"sep":23.928}
{"class":"SKY","time":"2019-04-22T21:19:36.000Z","gdop":1.41,"hdop":0.77,"pdop":1.25,"tdop":0.65,"xdop":0.48,"ydop":0.60,"vdop":0.98}
$GPZDA,211937.00,22,04,2019,00,00*67
$GPGGA,211937.00,4552.6500511,S,17030.0078941,E,1,16,0.77,25.48,M,5.124,M,,*76
$GPRMC,211937.00,A,4552.6500511,S,17030.0078941,E,0.7328,217.876,220419,25.7,E*43
$GPGSA,A,3,2,12,25,29,,,,,,,,,1.2,0.8,1.0*05
$GPGBS,211937.00,7.200,9.000,12.542,,,,*72
{"class":"TPV","mode":3,"time":"2019-04-22T21:19:37.000Z","leapseconds":18,"ept":0.005,"lat":-45.877500851,"lon":170.500131569,"altHAE":27.2720,"altMSL":25.4811,"alt":25.4811,"epx":7.200,"epy":9.000,"epv":12.542,"track":217.8765,"magtrack":243.6231,"magvar":25.7,"speed":0.377,"climb":-0.077,"eps":18.00,"epc":25.09,"ecefx":-4387121.71,"ecefy":734142.04,"ecefz":-4555798.33,"ecefvx":-0.26,"ecefvy":-0.15,"ecefvz":0.22,"ecefpAcc":19.41,"ecefvAcc":1.18,"geoidSep":5.124,"eph":14.810,"sep":23.750}
{"class":"SKY","time":"2019-04-22T21:19:36.000Z","gdop":1.41,"hdop":0.77,"pdop":1.25,"tdop":0.65,"xdop":0.48,"ydop":0.60,"vdop":0.98}
$GPZDA,211938.00,22,04,2019,00,00*68
$GPGGA,211938.00,4552.6502516,S,17030.0075697,E,1,16,0.77,25.26,M,5.124,M,,*7D
$GPRMC,211938.00,A,4552.6502516,S,17030.0075697,E,0.3441,217.876,220419,25.7,E*4C
$GPGSA,A,3,2,12,25,29,,,,,,,,,1.2,0.8,1.0*05
$GPGBS,211938.00,7.200,9.000,12.539,,,,*71
{"class":"TPV","mode":3,"time":"2019-04-22T21:19:38.000Z","leapseconds":18,"ept":0.005,"lat":-45.877504194,"lon":170.500126162,"altHAE":27.0510,"altMSL":25.2600,"alt":25.2600,"epx":7.200,"epy":9.000,"epv":12.539,"track":217.8765,"magtrack":243.6231,"magvar":25.7,"speed":0.177,"climb":-0.221,"eps":18.00,"epc":25.08,"ecefx":-4387121.22,"ecefy":734142.38,"ecefz":-4555798.43,"ecefvx":-0.10,"ecefvy":0.09,"ecefvz":0.11,"ecefpAcc":19.45,"ecefvAcc":0.72,"geoidSep":5.124,"eph":14.870,"sep":23.750}
{"class":"SKY","time":"2019-04-22T21:19:36.000Z","gdop":1.41,"hdop":0.77,"pdop":1.25,"tdop":0.65,"xdop":0.48,"ydop":0.60,"vdop":0.98}
$GPZDA,211939.00,22,04,2019,00,00*69
$GPGGA,211939.00,4552.6508200,S,17030.0070956,E,1,16,0.77,25.62,M,5.124,M,,*71
$GPRMC,211939.00,A,4552.6508200,S,17030.0070956,E,0.2683,217.876,220419,25.7,E*4D
$GPGSA,A,3,2,12,25,29,,,,,,,,,1.2,0.8,1.0*05
$GPGBS,211939.00,7.200,9.000,12.512,,,,*79
{"class":"TPV","mode":3,"time":"2019-04-22T21:19:39.000Z","leapseconds":18,"ept":0.005,"lat":-45.877513666,"lon":170.500118260,"altHAE":27.4100,"altMSL":25.6190,"alt":25.6190,"epx":7.200,"epy":9.000,"epv":12.512,"track":217.8765,"magtrack":243.6231,"magvar":25.7,"speed":0.138,"climb":0.359,"eps":18.00,"epc":25.05,"ecefx":-4387120.62,"ecefy":734142.90,"ecefz":-4555799.42,"ecefvx":-0.07,"ecefvy":0.10,"ecefvz":0.06,"ecefpAcc":19.36,"ecefvAcc":0.55,"geoidSep":5.124,"eph":14.771,"sep":23.750}
{"class":"SKY","time":"2019-04-22T21:19:36.000Z","gdop":1.41,"hdop":0.77,"pdop":1.25,"tdop":0.65,"xdop":0.48,"ydop":0.60,"vdop":0.98}
$GPZDA,211940.00,22,04,2019,00,00*67
$GPGGA,211940.00,4552.6507912,S,17030.0068132,E,1,16,0.77,25.34,M,5.124,M,,*78
$GPRMC,211940.00,A,4552.6507912,S,17030.0068132,E,0.6220,217.876,220419,25.7,E*4E
$GPGSA,A,3,2,12,25,29,,,,,,,,,1.2,0.8,1.0*05
$GPGBS,211940.00,7.200,9.000,12.504,,,,*70
{"class":"TPV","mode":3,"time":"2019-04-22T21:19:40.000Z","leapseconds":18,"ept":0.005,"lat":-45.877513187,"lon":170.500113553,"altHAE":27.1350,"altMSL":25.3440,"alt":25.3440,"epx":7.200,"epy":9.000,"epv":12.504,"track":217.8765,"magtrack":243.6231,"magvar":25.7,"speed":0.320,"climb":-0.275,"eps":18.00,"epc":25.02,"ecefx":-4387120.41,"ecefy":734143.24,"ecefz":-4555799.19,"ecefvx":-0.03,"ecefvy":0.31,"ecefvz":0.07,"ecefpAcc":19.39,"ecefvAcc":0.62,"geoidSep":5.124,"eph":14.814,"sep":23.750}
{"class":"SKY","time":"2019-04-22T21:19:36.000Z","gdop":1.41,"hdop":0.77,"pdop":1.25,"tdop":0.65,"xdop":0.48,"ydop":0.60,"vdop":0.98}
$GPZDA,211941.00,22,04,2019,00,00*66
$GPGGA,211941.00,4552.6512140,S,17030.0064289,E,1,16,0.77,25.13,M,5.124,M,,*78
$GPRMC,211941.00,A,4552.6512140,S,17030.0064289,E,0.6201,217.876,220419,25.7,E*48
$GPGSA,A,3,2,12,25,29,,,,,,,,,1.2,0.8,1.0*05
$GPGBS,211941.00,7.200,9.000,12.506,,,,*73
{"class":"TPV","mode":3,"time":"2019-04-22T21:19:41.000Z","leapseconds":18,"ept":0.005,"lat":-45.877520233,"lon":170.500107148,"altHAE":26.9210,"altMSL":25.1300,"alt":25.1300,"epx":7.200,"epy":9.000,"epv":12.506,"track":217.8765,"magtrack":243.6231,"magvar":25.7,"speed":0.319,"climb":-0.214,"eps":18.00,"epc":25.01,"ecefx":-4387119.63,"ecefy":734143.61,"ecefz":-4555799.58,"ecefvx":0.15,"ecefvy":0.27,"ecefvz":-0.10,"ecefpAcc":19.45,"ecefvAcc":1.10,"geoidSep":5.124,"eph":14.891,"sep":23.750}
{"class":"SKY","time":"2019-04-22T21:19:36.000Z","gdop":1.41,"hdop":0.77,"pdop":1.25,"tdop":0.65,"xdop":0.48,"ydop":0.60,"vdop":0.98}
$GPZDA,211942.00,22,04,2019,00,00*65
$GPGGA,211942.00,4552.6517070,S,17030.0060930,E,1,16,0.77,24.79,M,5.124,M,,*7C
$GPRMC,211942.00,A,4552.6517070,S,17030.0060930,E,0.7911,217.876,220419,25.7,E*4A
$GPGSA,A,3,2,12,25,29,,,,,,,,,1.2,0.8,1.0*05
$GPGBS,211942.00,7.200,9.000,12.491,,,,*7F
{"class":"TPV","mode":3,"time":"2019-04-22T21:19:42.000Z","leapseconds":18,"ept":0.005,"lat":-45.877528450,"lon":170.500101550,"altHAE":26.5831,"altMSL":24.7930,"alt":24.7930,"epx":7.200,"epy":9.000,"epv":12.491,"track":217.8765,"magtrack":243.6232,"magvar":25.7,"speed":0.407,"climb":-0.338,"eps":18.00,"epc":25.00,"ecefx":-4387118.68,"ecefy":734143.89,"ecefz":-4555799.97,"ecefvx":0.27,"ecefvy":0.21,"ecefvz":-0.21,"ecefpAcc":19.39,"ecefvAcc":1.16,"geoidSep":5.124,"eph":14.825,"sep":23.750}
{"class":"SKY","time":"2019-04-22T21:19:36.000Z","gdop":1.45,"hdop":0.78,"pdop":1.29,"tdop":0.66,"xdop":0.49,"ydop":0.60,"vdop":1.03}
$GPZDA,211943.00,22,04,2019,00,00*64
$GPGGA,211943.00,4552.6517024,S,17030.0063896,E,1,16,0.78,24.60,M,5.124,M,,*75
$GPRMC,211943.00,A,4552.6517024,S,17030.0063896,E,0.3285,217.876,220419,25.7,E*46
$GPGSA,A,3,2,12,25,29,,,,,,,,,1.3,0.8,1.0*04
$GPGBS,211943.00,7.350,9.000,12.495,,,,*7E
{"class":"TPV","mode":3,"time":"2019-04-22T21:19:43.000Z","leapseconds":18,"ept":0.005,"lat":-45.877528373,"lon":170.500106494,"altHAE":26.3940,"altMSL":24.6040,"alt":24.6040,"epx":7.350,"epy":9.000,"epv":12.495,"track":217.8765,"magtrack":243.6232,"magvar":25.7,"speed":0.169,"climb":-0.189,"eps":18.00,"epc":24.99,"ecefx":-4387118.62,"ecefy":734143.49,"ecefz":-4555799.83,"ecefvx":0.12,"ecefvy":-0.03,"ecefvz":-0.11,"ecefpAcc":19.45,"ecefvAcc":0.95,"geoidSep":5.124,"eph":14.907,"sep":24.510}
{"class":"SKY","time":"2019-04-22T21:19:36.000Z","gdop":1.41,"hdop":0.77,"pdop":1.25,"tdop":0.65,"xdop":0.48,"ydop":0.60,"vdop":0.98}
$GPZDA,211944.00,22,04,2019,00,00*63
$GPGGA,211944.00,4552.6518143,S,17030.0063274,E,1,16,0.77,24.30,M,5.124,M,,*71
$GPRMC,211944.00,A,4552.6518143,S,17030.0063274,E,0.4179,217.876,220419,25.7,E*4F
$GPGSA,A,3,2,12,25,29,,,,,,,,,1.2,0.8,1.0*05
$GPGBS,211944.00,7.200,9.000,12.499,,,,*71
{"class":"TPV","mode":3,"time":"2019-04-22T21:19:44.000Z","leapseconds":18,"ept":0.005,"lat":-45.877530238,"lon":170.500105457,"altHAE":26.0920,"altMSL":24.3010,"alt":24.3010,"epx":7.200,"epy":9.000,"epv":12.499,"track":217.8765,"magtrack":243.6232,"magvar":25.7,"speed":0.215,"climb":-0.302,"eps":18.00,"epc":24.99,"ecefx":-4387118.25,"ecefy":734143.51,"ecefz":-4555799.76,"ecefvx":0.17,"ecefvy":0.03,"ecefvz":-0.13,"ecefpAcc":19.52,"ecefvAcc":1.14,"geoidSep":5.124,"eph":14.989,"sep":23.750}
{"class":"SKY","time":"2019-04-22T21:19:36.000Z","gdop":1.46,"hdop":0.83,"pdop":1.29,"tdop":0.69,"xdop":0.56,"ydop":0.61,"vdop":0.99}
$GPZDA,211945.00,22,04,2019,00,00*62
$GPGGA,211945.00,4552.6518779,S,17030.0063882,E,1,16,0.83,24.33,M,5.124,M,,*74
$GPRMC,211945.00,A,4552.6518779,S,17030.0063882,E,0.1380,217.876,220419,25.7,E*43
$GPGSA,A,3,2,12,25,29,,,,,,,,,1.3,0.8,1.0*04
$GPGBS,211945.00,8.400,9.150,12.485,,,,*70
{"class":"TPV","mode":3,"time":"2019-04-22T21:19:45.000Z","leapseconds":18,"ept":0.005,"lat":-45.877531298,"lon":170.500106470,"altHAE":26.1200,"altMSL":24.3290,"alt":24.3290,"epx":8.400,"epy":9.150,"epv":12.485,"track":217.8765,"magtrack":243.6232,"magvar":25.7,"speed":0.071,"climb":0.028,"eps":18.15,"epc":24.98,"ecefx":-4387118.20,"ecefy":734143.42,"ecefz":-4555799.86,"ecefvx":0.05,"ecefvy":-0.03,"ecefvz":-0.03,"ecefpAcc":19.44,"ecefvAcc":0.73,"geoidSep":5.124,"eph":14.905,"sep":24.510}
$GPGSV,12,1,45,02,33,098,08,05,68,107,00,06,00,095,10,09,02,156,00*4E
$GPGSV,12,2,45,12,14,346,09,13,18,047,00,15,11,013,00,21,12,265,18*41
$GPGSV,12,3,45,25,32,312,22,26,11,215,00,29,73,241,17,301,08,206,00*7C
$GPGSV,12,4,45,303,49,065,00,305,28,130,21,308,23,006,00,313,41,244,15*42
$GPGSV,12,5,45,315,76,132,18,321,23,255,17,327,15,307,13,401,30,320,00*47
$GPGSV,12,6,45,403,12,292,00,404,37,345,00,407,30,297,00,408,33,255,00*44
$GPGSV,12,7,45,410,31,268,16,411,37,061,00,413,07,262,00,414,56,107,00*44
$GPGSV,12,8,45,418,21,275,00,421,14,139,16,427,07,238,00,428,58,234,23*4B
$GPGSV,12,9,45,193,09,325,00,194,06,328,00,195,68,294,16,199,22,307,00*49
$GPGSV,12,10,45,66,33,143,31,67,65,061,00,68,25,357,00,73,18,249,19*79
$GPGSV,12,11,45,74,13,204,23,80,01,302,00,81,23,074,08,82,67,122,09*75
$GPGSV,12,12,45,83,43,222,07*41
{"class":"SKY","time":"2019-04-22T21:19:46.000Z","gdop":1.42,"hdop":0.77,"pdop":1.26,"tdop":0.66,"xdop":0.48,"ydop":0.60,"vdop":1.00,"nSat":45,"uSat":16,"satellites":[{"PRN":2,"gnssid":0,"svid":2,"az":98.0,"el":33.0,"prRes":9.8,"qual":4,"ss":8.0,"used":true,"health":1},{"PRN":5,"gnssid":0,"svid":5,"az":107.0,"el":68.0,"prRes":10.7,"qual":1,"ss":0.0,"used":false,"health":1},{"PRN":6,"gnssid":0,"svid":6,"az":95.0,"el":0.0,"prRes":9.5,"qual":4,"ss":10.0,"used":false,"health":1},{"PRN":9,"gnssid":0,"svid":9,"az":156.0,"el":2.0,"prRes":15.6,"qual":0,"ss":0.0,"used":false,"health":1},{"PRN":12,"gnssid":0,"svid":12,"az":346.0,"el":14.0,"prRes":34.6,"qual":4,"ss":9.0,"used":true,"health":1},{"PRN":13,"gnssid":0,"svid":13,"az":47.0,"el":18.0,"prRes":4.7,"qual":0,"ss":0.0,"used":false,"health":1},{"PRN":15,"gnssid":0,"svid":15,"az":13.0,"el":11.0,"prRes":1.3,"qual":1,"ss":0.0,"used":false,"health":1},{"PRN":21,"gnssid":0,"svid":21,"az":265.0,"el":12.0,"prRes":26.5,"qual":4,"ss":18.0,"used":false,"health":1},{"PRN":25,"gnssid":0,"svid":25,"az":312.0,"el":32.0,"prRes":31.2,"qual":4,"ss":22.0,"used":true,"health":1},{"PRN":26,"gnssid":0,"svid":26,"az":215.0,"el":11.0,"prRes":21.5,"qual":1,"ss":0.0,"used":false,"health":1},{"PRN":29,"gnssid":0,"svid":29,"az":241.0,"el":73.0,"prRes":24.1,"qual":4,"ss":17.0,"used":true,"health":1},{"PRN":301,"gnssid":2,"svid":1,"az":206.0,"el":8.0,"prRes":20.6,"qual":1,"ss":0.0,"used":false,"health":1},{"PRN":303,"gnssid":2,"svid":3,"az":65.0,"el":49.0,"prRes":6.5,"qual":1,"ss":0.0,"used":false,"health":1},{"PRN":305,"gnssid":2,"svid":5,"az":130.0,"el":28.0,"prRes":13.0,"qual":4,"ss":21.0,"used":false,"health":1},{"PRN":308,"gnssid":2,"svid":8,"az":6.0,"el":23.0,"prRes":0.6,"qual":1,"ss":0.0,"used":false,"health":1},{"PRN":313,"gnssid":2,"svid":13,"az":244.0,"el":41.0,"prRes":24.4,"qual":4,"ss":15.0,"used":true,"health":1},{"PRN":315,"gnssid":2,"svid":15,"az":132.0,"el":76.0,"prRes":13.2,"qual":4,"ss":18.0,"used":true,"health":1},{"PRN":321,"gnssid":2,"svid":21,"az":255.0,"el":23.0,"prRes":25.5,"qual":4,"ss":17.0,"used":true,"health":1},{"PRN":327,"gnssid":2,"svid":27,"az":307.0,"el":15.0,"prRes":30.7,"qual":4,"ss":13.0,"used":true,"health":1},{"PRN":401,"gnssid":3,"svid":1,"az":320.0,"el":30.0,"prRes":32.0,"qual":0,"ss":0.0,"used":false,"health":1},{"PRN":403,"gnssid":3,"svid":3,"az":292.0,"el":12.0,"prRes":29.2,"qual":0,"ss":0.0,"used":false,"health":1},{"PRN":404,"gnssid":3,"svid":4,"az":345.0,"el":37.0,"prRes":34.5,"qual":0,"ss":0.0,"used":false,"health":1},{"PRN":407,"gnssid":3,"svid":7,"az":297.0,"el":30.0,"prRes":29.7,"qual":1,"ss":0.0,"used":false,"health":1},{"PRN":408,"gnssid":3,"svid":8,"az":255.0,"el":33.0,"prRes":25.5,"qual":1,"ss":0.0,"used":false,"health":1},{"PRN":410,"gnssid":3,"svid":10,"az":268.0,"el":31.0,"prRes":26.8,"qual":4,"ss":16.0,"used":true,"health":1},{"PRN":411,"gnssid":3,"svid":11,"az":61.0,"el":37.0,"prRes":6.1,"qual":1,"ss":0.0,"used":false,"health":1},{"PRN":413,"gnssid":3,"svid":13,"az":262.0,"el":7.0,"prRes":26.2,"qual":1,"ss":0.0,"used":false,"health":1},{"PRN":414,"gnssid":3,"svid":14,"az":107.0,"el":56.0,"prRes":10.7,"qual":1,"ss":0.0,"used":false,"health":1},{"PRN":418,"gnssid":3,"svid":18,"az":275.0,"el":21.0,"prRes":27.5,"qual":0,"ss":0.0,"used":false,"health":2},{"PRN":421,"gnssid":3,"svid":21,"az":139.0,"el":14.0,"prRes":13.9,"qual":4,"ss":16.0,"used":true,"health":1},{"PRN":427,"gnssid":3,"svid":27,"az":238.0,"el":7.0,"prRes":23.8,"qual":0,"ss":0.0,"used":false,"health":1},{"PRN":428,"gnssid":3,"svid":28,"az":234.0,"el":58.0,"prRes":23.4,"qual":4,"ss":23.0,"used":true,"health":1},{"PRN":193,"gnssid":5,"svid":1,"az":325.0,"el":9.0,"prRes":32.5,"qual":1,"ss":0.0,"used":false,"health":1},{"PRN":194,"gnssid":5,"svid":2,"az":328.0,"el":6.0,"prRes":32.8,"qual":1,"ss":0.0,"used":false,"health":1},{"PRN":195,"gnssid":5,"svid":3,"az":294.0,"el":68.0,"prRes":29.4,"qual":4,"ss":16.0,"used":true,"health":1},{"PRN":199,"gnssid":5,"svid":7,"az":307.0,"el":22.0,"prRes":30.7,"qual":1,"ss":0.0,"used":false,"health":1},{"PRN":66,"gnssid":6,"svid":2,"az":143.0,"el":33.0,"prRes":14.3,"qual":7,"ss":31.0,"used":true,"health":1},{"PRN":67,"gnssid":6,"svid":3,"az":61.0,"el":65.0,"prRes":6.1,"qual":1,"ss":0.0,"used":false,"health":1},{"PRN":68,"gnssid":6,"svid":4,"az":357.0,"el":25.0,"prRes":35.7,"qual":1,"ss":0.0,"used":false,"health":1},{"PRN":73,"gnssid":6,"svid":9,"az":249.0,"el":18.0,"prRes":24.9,"qual":4,"ss":19.0,"used":true,"health":1},{"PRN":74,"gnssid":6,"svid":10,"az":204.0,"el":13.0,"prRes":20.4,"qual":4,"ss":23.0,"used":false,"health":1},{"PRN":80,"gnssid":6,"svid":16,"az":302.0,"el":1.0,"prRes":30.2,"qual":1,"ss":0.0,"used":false,"health":1},{"PRN":81,"gnssid":6,"svid":17,"az":74.0,"el":23.0,"prRes":7.4,"qual":4,"ss":8.0,"used":false,"health":1},{"PRN":82,"gnssid":6,"svid":18,"az":122.0,"el":67.0,"prRes":12.2,"qual":4,"ss":9.0,"used":true,"health":1},{"PRN":83,"gnssid":6,"svid":19,"az":222.0,"el":43.0,"prRes":22.2,"qual":4,"ss":7.0,"used":true,"health":1}]}
{"class":"SKY","time":"2019-04-22T21:19:46.000Z","gdop":1.41,"hdop":0.77,"pdop":1.25,"tdop":0.65,"xdop":0.48,"ydop":0.60,"vdop":0.98}
$GPZDA,211946.00,22,04,2019,00,00*61
$GPGGA,211946.00,4552.6517551,S,17030.0067705,E,1,16,0.77,24.40,M,5.124,M,,*7B
$GPRMC,211946.00,A,4552.6517551,S,17030.0067705,E,0.4296,217.876,220419,25.7,E*40
$GPGSA,A,3,2,12,25,29,,,,,,,,,1.2,0.8,1.0*05
$GPGBS,211946.00,7.200,9.000,12.484,,,,*7F
{"class":"TPV","mode":3,"time":"2019-04-22T21:19:46.000Z","leapseconds":18,"ept":0.005,"lat":-45.877529251,"lon":170.500112842,"altHAE":26.1940,"altMSL":24.4030,"alt":24.4030,"epx":7.200,"epy":9.000,"epv":12.484,"track":217.8765,"magtrack":243.6232,"magvar":25.7,"speed":0.221,"climb":0.074,"eps":18.15,"epc":24.97,"ecefx":-4387118.49,"ecefy":734142.97,"ecefz":-4555799.75,"ecefvx":-0.09,"ecefvy":-0.19,"ecefvz":0.06,"ecefpAcc":19.50,"ecefvAcc":1.06,"geoidSep":5.124,"eph":14.979,"sep":23.921}
{"class":"SKY","time":"2019-04-22T21:19:46.000Z","gdop":1.58,"hdop":0.92,"pdop":1.39,"tdop":0.75,"xdop":0.50,"ydop":0.77,"vdop":1.04}
$GPZDA,211947.00,22,04,2019,00,00*60
$GPGGA,211947.00,4552.6519488,S,17030.0066089,E,1,16,0.92,24.34,M,5.124,M,,*7B
$GPRMC,211947.00,A,4552.6519488,S,17030.0066089,E,0.0544,217.876,220419,25.7,E*44
$GPGSA,A,3,2,12,25,29,,,,,,,,,1.4,0.9,1.0*02
$GPGBS,211947.00,7.500,11.550,12.485,,,,*41
{"class":"TPV","mode":3,"time":"2019-04-22T21:19:47.000Z","leapseconds":18,"ept":0.005,"lat":-45.877532480,"lon":170.500110149,"altHAE":26.1290,"altMSL":24.3380,"alt":24.3380,"epx":7.500,"epy":11.550,"epv":12.485,"track":217.8765,"magtrack":243.6232,"magvar":25.7,"speed":0.028,"climb":-0.065,"eps":20.55,"epc":24.97,"ecefx":-4387118.16,"ecefy":734143.13,"ecefz":-4555799.96,"ecefvx":0.03,"ecefvy":-0.01,"ecefvz":-0.01,"ecefpAcc":19.56,"ecefvAcc":0.89,"geoidSep":5.124,"eph":15.052,"sep":26.410}
{"class":"SKY","time":"2019-04-22T21:19:46.000Z","gdop":1.41,"hdop":0.77,"pdop":1.25,"tdop":0.65,"xdop":0.48,"ydop":0.60,"vdop":0.98}
$GPZDA,211948.00,22,04,2019,00,00*6F
$GPGGA,211948.00,4552.6525781,S,17030.0059632,E,1,16,0.77,24.46,M,5.124,M,,*75
$GPRMC,211948.00,A,4552.6525781,S,17030.0059632,E,0.5832,217.876,220419,25.7,E*4D
$GPGSA,A,3,2,12,25,29,,,,,,,,,1.2,0.8,1.0*05
$GPGBS,211948.00,7.200,9.000,12.457,,,,*7F
{"class":"TPV","mode":3,"time":"2019-04-22T21:19:48.000Z","leapseconds":18,"ept":0.005,"lat":-45.877542968,"lon":170.500099387,"altHAE":26.2550,"altMSL":24.4650,"alt":24.4650,"epx":7.200,"epy":9.000,"epv":12.457,"track":217.8765,"magtrack":243.6232,"magvar":25.7,"speed":0.300,"climb":0.126,"eps":20.55,"epc":24.94,"ecefx":-4387117.28,"ecefy":734143.83,"ecefz":-4555800.86,"ecefvx":0.17,"ecefvy":0.22,"ecefvz":-0.11,"ecefpAcc":19.44,"ecefvAcc":1.14,"geoidSep":5.124,"eph":14.922,"sep":23.750}
