$GPZDA,021517.00,07,02,2019,00,00*69
$GPGGA,021517.00,4404.1290,N,12118.8590,W,7,18,,1132.39,M,-22.155,M,,*79
$GPRMC,021517.00,A,4404.1290,N,12118.8590,W,0.0000,0.000,070219,14.4,E*47
$GPGSA,A,3,,,,,,,,,,,,,,,*1C
{"class":"TPV","status":7,"mode":3,"time":"2019-02-07T02:15:17.000Z","ept":0.005,"lat":44.068817081,"lon":-121.314317437,"altHAE":1110.2328,"altMSL":1132.3877,"alt":1132.3877,"track":0.0000,"magtrack":14.4185,"magvar":14.4,"speed":0.000,"climb":0.000,"eps":0.01,"ecefx":-2386071.16,"ecefy":-3922189.40,"ecefz":4414361.02,"ecefvx":0.00,"ecefvy":0.00,"ecefvz":0.00,"ecefpAcc":0.99,"ecefvAcc":0.01,"velN":0.000,"velE":0.000,"velD":0.000,"geoidSep":-22.155}
{"class":"SKY","gdop":0.24,"tdop":0.24}
$GPZDA,021518.00,07,02,2019,00,00*66
$GPGGA,021518.00,4404.1290,N,12118.8590,W,7,18,,1132.39,M,-22.155,M,,*76
$GPRMC,021518.00,A,4404.1290,N,12118.8590,W,0.0000,0.000,070219,14.4,E*48
$GPGSA,A,3,,,,,,,,,,,,,,,*1C
{"class":"TPV","status":7,"mode":3,"time":"2019-02-07T02:15:18.000Z","leapseconds":18,"ept":0.005,"lat":44.068817081,"lon":-121.314317437,"altHAE":1110.2328,"altMSL":1132.3877,"alt":1132.3877,"track":0.0000,"magtrack":14.4185,"magvar":14.4,"speed":0.000,"climb":0.000,"eps":0.01,"ecefx":-2386071.16,"ecefy":-3922189.40,"ecefz":4414361.02,"ecefvx":0.00,"ecefvy":0.00,"ecefvz":0.00,"ecefpAcc":0.99,"ecefvAcc":0.01,"velN":0.000,"velE":0.000,"velD":0.000,"geoidSep":-22.155}
{"class":"SKY","gdop":0.24,"tdop":0.24}
$GPZDA,021518.00,07,02,2019,00,00*66
$GPGGA,021518.00,4404.1290,N,12118.8590,W,7,18,,1132.39,M,-22.155,M,,*76
$GPRMC,021518.00,A,4404.1290,N,12118.8590,W,0.0000,0.000,070219,14.4,E*48
$GPGSA,A,3,,,,,,,,,,,,,,,*1C
{"class":"TPV","status":7,"mode":3,"time":"2019-02-07T02:15:18.000Z","leapseconds":18,"ept":0.005,"lat":44.068817081,"lon":-121.314317437,"altHAE":1110.2328,"altMSL":1132.3877,"alt":1132.3877,"track":0.0000,"magtrack":14.4185,"magvar":14.4,"speed":0.000,"climb":0.000,"eps":0.01,"ecefx":-2386071.16,"ecefy":-3922189.40,"ecefz":4414361.02,"ecefvx":0.00,"ecefvy":0.00,"ecefvz":0.00,"ecefpAcc":0.99,"ecefvAcc":0.01,"velN":0.000,"velE":0.000,"velD":0.000,"geoidSep":-22.155}
$GPZDA,021519.00,07,02,2019,00,00*67
$GPGGA,021519.00,4404.1290,N,12118.8590,W,7,18,,1132.39,M,-22.155,M,,*77
$GPRMC,021519.00,A,4404.1290,N,12118.8590,W,0.0000,0.000,070219,14.4,E*49
$GPGSA,A,3,,,,,,,,,,,,,,,*1C
{"class":"TPV","status":7,"mode":3,"time":"2019-02-07T02:15:19.000Z","leapseconds":18,"ept":0.005,"lat":44.068817081,"lon":-121.314317437,"altHAE":1110.2328,"altMSL":1132.3877,"alt":1132.3877,"track":0.0000,"magtrack":14.4185,"magvar":14.4,"speed":0.000,"climb":0.000,"eps":0.01,"ecefx":-2386071.16,"ecefy":-3922189.40,"ecefz":4414361.02,"ecefvx":0.00,"ecefvy":0.00,"ecefvz":0.00,"ecefpAcc":0.99,"ecefvAcc":0.01,"velN":0.000,"velE":0.000,"velD":0.000,"geoidSep":-22.155}
{"class":"SKY","gdop":0.24,"tdop":0.24}
$GPZDA,021519.00,07,02,2019,00,00*67
$GPGGA,021519.00,4404.1290,N,12118.8590,W,7,18,,1132.39,M,-22.155,M,,*77
$GPRMC,021519.00,A,4404.1290,N,12118.8590,W,0.0000,0.000,070219,14.4,E*49
$GPGSA,A,3,,,,,,,,,,,,,,,*1C
{"class":"TPV","status":7,"mode":3,"time":"2019-02-07T02:15:19.000Z","leapseconds":18,"ept":0.005,"lat":44.068817081,"lon":-121.314317437,"altHAE":1110.2328,"altMSL":1132.3877,"alt":1132.3877,"track":0.0000,"magtrack":14.4185,"magvar":14.4,"speed":0.000,"climb":0.000,"eps":0.01,"ecefx":-2386071.16,"ecefy":-3922189.40,"ecefz":4414361.02,"ecefvx":0.00,"ecefvy":0.00,"ecefvz":0.00,"ecefpAcc":0.99,"ecefvAcc":0.01,"velN":0.000,"velE":0.000,"velD":0.000,"geoidSep":-22.155}
$GPZDA,021520.00,07,02,2019,00,00*6D
$GPGGA,021520.00,4404.1290,N,12118.8590,W,7,18,,1132.39,M,-22.155,M,,*7D
$GPRMC,021520.00,A,4404.1290,N,12118.8590,W,0.0000,0.000,070219,14.4,E*43
$GPGSA,A,3,,,,,,,,,,,,,,,*1C
{"class":"TPV","status":7,"mode":3,"time":"2019-02-07T02:15:20.000Z","leapseconds":18,"ept":0.005,"lat":44.068817081,"lon":-121.314317437,"altHAE":1110.2328,"altMSL":1132.3877,"alt":1132.3877,"track":0.0000,"magtrack":14.4185,"magvar":14.4,"speed":0.000,"climb":0.000,"eps":0.01,"ecefx":-2386071.16,"ecefy":-3922189.40,"ecefz":4414361.02,"ecefvx":0.00,"ecefvy":0.00,"ecefvz":0.00,"ecefpAcc":0.99,"ecefvAcc":0.01,"velN":0.000,"velE":0.000,"velD":0.000,"geoidSep":-22.155}
{"class":"SKY","gdop":0.24,"tdop":0.24}
$GPZDA,021520.00,07,02,2019,00,00*6D
$GPGGA,021520.00,4404.1290,N,12118.8590,W,7,18,,1132.39,M,-22.155,M,,*7D
$GPRMC,021520.00,A,4404.1290,N,12118.8590,W,0.0000,0.000,070219,14.4,E*43
$GPGSA,A,3,,,,,,,,,,,,,,,*1C
{"class":"TPV","status":7,"mode":3,"time":"2019-02-07T02:15:20.000Z","leapseconds":18,"ept":0.005,"lat":44.068817081,"lon":-121.314317437,"altHAE":1110.2328,"altMSL":1132.3877,"alt":1132.3877,"track":0.0000,"magtrack":14.4185,"magvar":14.4,"speed":0.000,"climb":0.000,"eps":0.01,"ecefx":-2386071.16,"ecefy":-3922189.40,"ecefz":4414361.02,"ecefvx":0.00,"ecefvy":0.00,"ecefvz":0.00,"ecefpAcc":0.99,"ecefvAcc":0.01,"velN":0.000,"velE":0.000,"velD":0.000,"geoidSep":-22.155}
$GPZDA,021521.00,07,02,2019,00,00*6C
$GPGGA,021521.00,4404.1290,N,12118.8590,W,7,18,,1132.39,M,-22.155,M,,*7C
$GPRMC,021521.00,A,4404.1290,N,12118.8590,W,0.0000,0.000,070219,14.4,E*42
$GPGSA,A,3,,,,,,,,,,,,,,,*1C
{"class":"TPV","status":7,"mode":3,"time":"2019-02-07T02:15:21.000Z","leapseconds":18,"ept":0.005,"lat":44.068817081,"lon":-121.314317437,"altHAE":1110.2328,"altMSL":1132.3877,"alt":1132.3877,"track":0.0000,"magtrack":14.4185,"magvar":14.4,"speed":0.000,"climb":0.000,"eps":0.01,"ecefx":-2386071.16,"ecefy":-3922189.40,"ecefz":4414361.02,"ecefvx":0.00,"ecefvy":0.00,"ecefvz":0.00,"ecefpAcc":0.99,"ecefvAcc":0.01,"velN":0.000,"velE":0.000,"velD":0.000,"geoidSep":-22.155}
{"class":"SKY","gdop":0.24,"tdop":0.24}
$GPZDA,021521.00,07,02,2019,00,00*6C
$GPGGA,021521.00,4404.1290,N,12118.8590,W,7,18,,1132.39,M,-22.155,M,,*7C
$GPRMC,021521.00,A,4404.1290,N,12118.8590,W,0.0000,0.000,070219,14.4,E*42
$GPGSA,A,3,,,,,,,,,,,,,,,*1C
{"class":"TPV","status":7,"mode":3,"time":"2019-02-07T02:15:21.000Z","leapseconds":18,"ept":0.005,"lat":44.068817081,"lon":-121.314317437,"altHAE":1110.2328,"altMSL":1132.3877,"alt":1132.3877,"track":0.0000,"magtrack":14.4185,"magvar":14.4,"speed":0.000,"climb":0.000,"eps":0.01,"ecefx":-2386071.16,"ecefy":-3922189.40,"ecefz":4414361.02,"ecefvx":0.00,"ecefvy":0.00,"ecefvz":0.00,"ecefpAcc":0.99,"ecefvAcc":0.01,"velN":0.000,"velE":0.000,"velD":0.000,"geoidSep":-22.155}
$GPZDA,021522.00,07,02,2019,00,00*6F
$GPGGA,021522.00,4404.1290,N,12118.8590,W,7,18,,1132.39,M,-22.155,M,,*7F
$GPRMC,021522.00,A,4404.1290,N,12118.8590,W,0.0000,0.000,070219,14.4,E*41
$GPGSA,A,3,,,,,,,,,,,,,,,*1C
{"class":"TPV","status":7,"mode":3,"time":"2019-02-07T02:15:22.000Z","leapseconds":18,"ept":0.005,"lat":44.068817081,"lon":-121.314317437,"altHAE":1110.2328,"altMSL":1132.3877,"alt":1132.3877,"track":0.0000,"magtrack":14.4185,"magvar":14.4,"speed":0.000,"climb":0.000,"eps":0.01,"ecefx":-2386071.16,"ecefy":-3922189.40,"ecefz":4414361.02,"ecefvx":0.00,"ecefvy":0.00,"ecefvz":0.00,"ecefpAcc":0.99,"ecefvAcc":0.01,"velN":0.000,"velE":0.000,"velD":0.000,"geoidSep":-22.155}
{"class":"SKY","gdop":0.24,"tdop":0.24}
$GPZDA,021522.00,07,02,2019,00,00*6F
$GPGGA,021522.00,4404.1290,N,12118.8590,W,7,18,,1132.39,M,-22.155,M,,*7F
$GPRMC,021522.00,A,4404.1290,N,12118.8590,W,0.0000,0.000,070219,14.4,E*41
$GPGSA,A,3,,,,,,,,,,,,,,,*1C
{"class":"TPV","status":7,"mode":3,"time":"2019-02-07T02:15:22.000Z","leapseconds":18,"ept":0.005,"lat":44.068817081,"lon":-121.314317437,"altHAE":1110.2328,"altMSL":1132.3877,"alt":1132.3877,"track":0.0000,"magtrack":14.4185,"magvar":14.4,"speed":0.000,"climb":0.000,"eps":0.01,"ecefx":-2386071.16,"ecefy":-3922189.40,"ecefz":4414361.02,"ecefvx":0.00,"ecefvy":0.00,"ecefvz":0.00,"ecefpAcc":0.99,"ecefvAcc":0.01,"velN":0.000,"velE":0.000,"velD":0.000,"geoidSep":-22.155}
$GPZDA,021523.00,07,02,2019,00,00*6E
$GPGGA,021523.00,4404.1290,N,12118.8590,W,7,18,,1132.39,M,-22.155,M,,*7E
$GPRMC,021523.00,A,4404.1290,N,12118.8590,W,0.0000,0.000,070219,14.4,E*40
$GPGSA,A,3,,,,,,,,,,,,,,,*1C
{"class":"TPV","status":7,"mode":3,"time":"2019-02-07T02:15:23.000Z","leapseconds":18,"ept":0.005,"lat":44.068817081,"lon":-121.314317437,"altHAE":1110.2328,"altMSL":1132.3877,"alt":1132.3877,"track":0.0000,"magtrack":14.4185,"magvar":14.4,"speed":0.000,"climb":0.000,"eps":0.01,"ecefx":-2386071.16,"ecefy":-3922189.40,"ecefz":4414361.02,"ecefvx":0.00,"ecefvy":0.00,"ecefvz":0.00,"ecefpAcc":0.99,"ecefvAcc":0.01,"velN":0.000,"velE":0.000,"velD":0.000,"geoidSep":-22.155}
$GPGSV,6,1,23,01,22,049,43,06,13,165,40,11,11,042,34,12,01,272,00*72
$GPGSV,6,2,23,13,32,224,45,15,27,265,43,17,81,090,53,18,03,029,31*7E
$GPGSV,6,3,23,19,63,204,48,24,29,309,37,28,48,068,50,30,23,140,44*73
$GPGSV,6,4,23,194,02,294,00,65,04,256,19,66,13,312,17,73,09,116,44*4A
$GPGSV,6,5,23,74,52,095,46,75,57,332,51,76,15,311,29,83,01,024,21*75
$GPGSV,6,6,23,84,52,047,44,85,58,170,50,86,06,196,46*47
{"class":"SKY","time":"2019-02-07T02:15:23.000Z","gdop":1.13,"hdop":0.59,"pdop":1.02,"tdop":0.49,"xdop":0.41,"ydop":0.42,"vdop":0.83,"nSat":24,"uSat":18,"satellites":[{"PRN":1,"gnssid":0,"svid":1,"az":49.0,"el":22.0,"ss":43.0,"used":true,"health":1},{"PRN":6,"gnssid":0,"svid":6,"az":165.0,"el":13.0,"ss":40.0,"used":true,"health":1},{"PRN":11,"gnssid":0,"svid":11,"az":42.0,"el":11.0,"ss":34.0,"used":true,"health":1},{"PRN":12,"gnssid":0,"svid":12,"az":272.0,"el":1.0,"ss":0.0,"used":false,"health":1},{"PRN":13,"gnssid":0,"svid":13,"az":224.0,"el":32.0,"ss":45.0,"used":true,"health":1},{"PRN":15,"gnssid":0,"svid":15,"az":265.0,"el":27.0,"ss":43.0,"used":true,"health":1},{"PRN":17,"gnssid":0,"svid":17,"az":90.0,"el":81.0,"ss":53.0,"used":true,"health":1},{"PRN":18,"gnssid":0,"svid":18,"az":29.0,"el":3.0,"ss":31.0,"used":false,"health":1},{"PRN":19,"gnssid":0,"svid":19,"az":204.0,"el":63.0,"ss":48.0,"used":true,"health":1},{"PRN":24,"gnssid":0,"svid":24,"az":309.0,"el":29.0,"ss":37.0,"used":true,"health":1},{"PRN":28,"gnssid":0,"svid":28,"az":68.0,"el":48.0,"ss":50.0,"used":true,"health":1},{"PRN":30,"gnssid":0,"svid":30,"az":140.0,"el":23.0,"ss":44.0,"used":true,"health":1},{"PRN":194,"gnssid":5,"svid":2,"az":294.0,"el":2.0,"ss":0.0,"used":false,"health":1},{"PRN":65,"gnssid":6,"svid":1,"az":256.0,"el":4.0,"ss":19.0,"used":false,"health":1},{"PRN":66,"gnssid":6,"svid":2,"az":312.0,"el":13.0,"ss":17.0,"used":true,"health":1},{"PRN":67,"gnssid":6,"svid":3,"el":2.0,"ss":22.0,"used":false,"health":1},{"PRN":73,"gnssid":6,"svid":9,"az":116.0,"el":9.0,"ss":44.0,"used":true,"health":1},{"PRN":74,"gnssid":6,"svid":10,"az":95.0,"el":52.0,"ss":46.0,"used":true,"health":1},{"PRN":75,"gnssid":6,"svid":11,"az":332.0,"el":57.0,"ss":51.0,"used":true,"health":1},{"PRN":76,"gnssid":6,"svid":12,"az":311.0,"el":15.0,"ss":29.0,"used":true,"health":1},{"PRN":83,"gnssid":6,"svid":19,"az":24.0,"el":1.0,"ss":21.0,"used":false,"health":1},{"PRN":84,"gnssid":6,"svid":20,"az":47.0,"el":52.0,"ss":44.0,"used":true,"health":1},{"PRN":85,"gnssid":6,"svid":21,"az":170.0,"el":58.0,"ss":50.0,"used":true,"health":1},{"PRN":86,"gnssid":6,"svid":22,"az":196.0,"el":6.0,"ss":46.0,"used":true,"health":1}]}
{"class":"SKY","time":"2019-02-07T02:15:23.000Z","gdop":0.24,"hdop":0.59,"pdop":1.02,"tdop":0.24,"xdop":0.41,"ydop":0.42,"vdop":0.83}
$GPZDA,021523.00,07,02,2019,00,00*6E
$GPGGA,021523.00,4404.1290,N,12118.8590,W,7,18,0.59,1132.39,M,-22.155,M,,*6C
$GPRMC,021523.00,A,4404.1290,N,12118.8590,W,0.0000,0.000,070219,14.4,E*40
$GPGSA,A,3,1,6,11,13,15,17,19,24,28,30,,,1.0,0.6,0.8*3D
$GPGBS,021523.00,6.204,6.268,19.139,,,,*7F
{"class":"TPV","status":7,"mode":3,"time":"2019-02-07T02:15:23.000Z","leapseconds":18,"ept":0.005,"lat":44.068817081,"lon":-121.314317437,"altHAE":1110.2328,"altMSL":1132.3877,"alt":1132.3877,"epx":6.204,"epy":6.268,"epv":19.139,"track":0.0000,"magtrack":14.4185,"magvar":14.4,"speed":0.000,"climb":0.000,"eps":0.01,"ecefx":-2386071.16,"ecefy":-3922189.40,"ecefz":4414361.02,"ecefvx":0.00,"ecefvy":0.00,"ecefvz":0.00,"ecefpAcc":0.99,"ecefvAcc":0.01,"velN":0.000,"velE":0.000,"velD":0.000,"geoidSep":-22.155,"eph":11.171,"sep":19.359}
$GPZDA,021524.00,07,02,2019,00,00*69
$GPGGA,021524.00,4404.1290,N,12118.8590,W,7,18,,1132.39,M,-22.155,M,,*79
$GPRMC,021524.00,A,4404.1290,N,12118.8590,W,0.0000,0.000,070219,14.4,E*47
$GPGSA,A,3,1,6,11,13,15,17,19,24,28,30,,,,,*1C
{"class":"TPV","status":7,"mode":3,"time":"2019-02-07T02:15:24.000Z","leapseconds":18,"ept":0.005,"lat":44.068817081,"lon":-121.314317437,"altHAE":1110.2328,"altMSL":1132.3877,"alt":1132.3877,"track":0.0000,"magtrack":14.4185,"magvar":14.4,"speed":0.000,"climb":0.000,"eps":0.01,"ecefx":-2386071.16,"ecefy":-3922189.40,"ecefz":4414361.02,"ecefvx":0.00,"ecefvy":0.00,"ecefvz":0.00,"ecefpAcc":0.99,"ecefvAcc":0.01,"velN":0.000,"velE":0.000,"velD":0.000,"geoidSep":-22.155}
{"class":"SKY","time":"2019-02-07T02:15:23.000Z","gdop":0.24,"tdop":0.24}
$GPZDA,021525.00,07,02,2019,00,00*68
$GPGGA,021525.00,4404.1290,N,12118.8590,W,7,17,,1132.39,M,-22.155,M,,*77
$GPRMC,021525.00,A,4404.1290,N,12118.8590,W,0.0000,0.000,070219,14.4,E*46
$GPGSA,A,3,1,6,11,13,15,17,19,24,28,30,,,,,*1C
{"class":"TPV","status":7,"mode":3,"time":"2019-02-07T02:15:25.000Z","leapseconds":18,"ept":0.005,"lat":44.068817081,"lon":-121.314317437,"altHAE":1110.2328,"altMSL":1132.3877,"alt":1132.3877,"track":0.0000,"magtrack":14.4185,"magvar":14.4,"speed":0.000,"climb":0.000,"eps":0.01,"ecefx":-2386071.16,"ecefy":-3922189.40,"ecefz":4414361.02,"ecefvx":0.00,"ecefvy":0.00,"ecefvz":0.00,"ecefpAcc":0.99,"ecefvAcc":0.01,"velN":0.000,"velE":0.000,"velD":0.000,"geoidSep":-22.155}
{"class":"SKY","time":"2019-02-07T02:15:23.000Z","gdop":0.24,"tdop":0.24}
$GPZDA,021525.00,07,02,2019,00,00*68
$GPGGA,021525.00,4404.1290,N,12118.8590,W,7,17,,1132.39,M,-22.155,M,,*77
$GPRMC,021525.00,A,4404.1290,N,12118.8590,W,0.0000,0.000,070219,14.4,E*46
$GPGSA,A,3,1,6,11,13,15,17,19,24,28,30,,,,,*1C
{"class":"TPV","status":7,"mode":3,"time":"2019-02-07T02:15:25.000Z","leapseconds":18,"ept":0.005,"lat":44.068817081,"lon":-121.314317437,"altHAE":1110.2328,"altMSL":1132.3877,"alt":1132.3877,"track":0.0000,"magtrack":14.4185,"magvar":14.4,"speed":0.000,"climb":0.000,"eps":0.01,"ecefx":-2386071.16,"ecefy":-3922189.40,"ecefz":4414361.02,"ecefvx":0.00,"ecefvy":0.00,"ecefvz":0.00,"ecefpAcc":0.99,"ecefvAcc":0.01,"velN":0.000,"velE":0.000,"velD":0.000,"geoidSep":-22.155}
$GPZDA,021526.00,07,02,2019,00,00*6B
$GPGGA,021526.00,4404.1290,N,12118.8590,W,7,18,,1132.39,M,-22.155,M,,*7B
$GPRMC,021526.00,A,4404.1290,N,12118.8590,W,0.0000,0.000,070219,14.4,E*45
$GPGSA,A,3,1,6,11,13,15,17,19,24,28,30,,,,,*1C
{"class":"TPV","status":7,"mode":3,"time":"2019-02-07T02:15:26.000Z","leapseconds":18,"ept":0.005,"lat":44.068817081,"lon":-121.314317437,"altHAE":1110.2328,"altMSL":1132.3877,"alt":1132.3877,"track":0.0000,"magtrack":14.4185,"magvar":14.4,"speed":0.000,"climb":0.000,"eps":0.01,"ecefx":-2386071.16,"ecefy":-3922189.40,"ecefz":4414361.02,"ecefvx":0.00,"ecefvy":0.00,"ecefvz":0.00,"ecefpAcc":0.99,"ecefvAcc":0.01,"velN":0.000,"velE":0.000,"velD":0.000,"geoidSep":-22.155}
{"class":"SKY","time":"2019-02-07T02:15:23.000Z","gdop":0.24,"tdop":0.24}
$GPZDA,021526.00,07,02,2019,00,00*6B
$GPGGA,021526.00,4404.1290,N,12118.8590,W,7,18,,1132.39,M,-22.155,M,,*7B
$GPRMC,021526.00,A,4404.1290,N,12118.8590,W,0.0000,0.000,070219,14.4,E*45
$GPGSA,A,3,1,6,11,13,15,17,19,24,28,30,,,,,*1C
{"class":"TPV","status":7,"mode":3,"time":"2019-02-07T02:15:26.000Z","leapseconds":18,"ept":0.005,"lat":44.068817081,"lon":-121.314317437,"altHAE":1110.2328,"altMSL":1132.3877,"alt":1132.3877,"track":0.0000,"magtrack":14.4185,"magvar":14.4,"speed":0.000,"climb":0.000,"eps":0.01,"ecefx":-2386071.16,"ecefy":-3922189.40,"ecefz":4414361.02,"ecefvx":0.00,"ecefvy":0.00,"ecefvz":0.00,"ecefpAcc":0.99,"ecefvAcc":0.01,"velN":0.000,"velE":0.000,"velD":0.000,"geoidSep":-22.155}
$GPZDA,021527.00,07,02,2019,00,00*6A
$GPGGA,021527.00,4404.1290,N,12118.8590,W,7,18,,1132.39,M,-22.155,M,,*7A
$GPRMC,021527.00,A,4404.1290,N,12118.8590,W,0.0000,0.000,070219,14.4,E*44
$GPGSA,A,3,1,6,11,13,15,17,19,24,28,30,,,,,*1C
{"class":"TPV","status":7,"mode":3,"time":"2019-02-07T02:15:27.000Z","leapseconds":18,"ept":0.005,"lat":44.068817081,"lon":-121.314317437,"altHAE":1110.2328,"altMSL":1132.3877,"alt":1132.3877,"track":0.0000,"magtrack":14.4185,"magvar":14.4,"speed":0.000,"climb":0.000,"eps":0.01,"ecefx":-2386071.16,"ecefy":-3922189.40,"ecefz":4414361.02,"ecefvx":0.00,"ecefvy":0.00,"ecefvz":0.00,"ecefpAcc":0.99,"ecefvAcc":0.01,"velN":0.000,"velE":0.000,"velD":0.000,"geoidSep":-22.155}
{"class":"SKY","time":"2019-02-07T02:15:23.000Z","gdop":0.24,"tdop":0.24}
$GPZDA,021527.00,07,02,2019,00,00*6A
$GPGGA,021527.00,4404.1290,N,12118.8590,W,7,18,,1132.39,M,-22.155,M,,*7A
$GPRMC,021527.00,A,4404.1290,N,12118.8590,W,0.0000,0.000,070219,14.4,E*44
$GPGSA,A,3,1,6,11,13,15,17,19,24,28,30,,,,,*1C
{"class":"TPV","status":7,"mode":3,"time":"2019-02-07T02:15:27.000Z","leapseconds":18,"ept":0.005,"lat":44.068817081,"lon":-121.314317437,"altHAE":1110.2328,"altMSL":1132.3877,"alt":1132.3877,"track":0.0000,"magtrack":14.4185,"magvar":14.4,"speed":0.000,"climb":0.000,"eps":0.01,"ecefx":-2386071.16,"ecefy":-3922189.40,"ecefz":4414361.02,"ecefvx":0.00,"ecefvy":0.00,"ecefvz":0.00,"ecefpAcc":0.99,"ecefvAcc":0.01,"velN":0.000,"velE":0.000,"velD":0.000,"geoidSep":-22.155}
$GPZDA,021528.00,07,02,2019,00,00*65
$GPGGA,021528.00,4404.1290,N,12118.8590,W,7,18,,1132.39,M,-22.155,M,,*75
$GPRMC,021528.00,A,4404.1290,N,12118.8590,W,0.0000,0.000,070219,14.4,E*4B
$GPGSA,A,3,1,6,11,13,15,17,19,24,28,30,,,,,*1C
{"class":"TPV","status":7,"mode":3,"time":"2019-02-07T02:15:28.000Z","leapseconds":18,"ept":0.005,"lat":44.068817081,"lon":-121.314317437,"altHAE":1110.2328,"altMSL":1132.3877,"alt":1132.3877,"track":0.0000,"magtrack":14.4185,"magvar":14.4,"speed":0.000,"climb":0.000,"eps":0.01,"ecefx":-2386071.16,"ecefy":-3922189.40,"ecefz":4414361.02,"ecefvx":0.00,"ecefvy":0.00,"ecefvz":0.00,"ecefpAcc":0.99,"ecefvAcc":0.01,"velN":0.000,"velE":0.000,"velD":0.000,"geoidSep":-22.155}
{"class":"SKY","time":"2019-02-07T02:15:23.000Z","gdop":0.24,"tdop":0.24}
$GPZDA,021528.00,07,02,2019,00,00*65
$GPGGA,021528.00,4404.1290,N,12118.8590,W,7,18,,1132.39,M,-22.155,M,,*75
$GPRMC,021528.00,A,4404.1290,N,12118.8590,W,0.0000,0.000,070219,14.4,E*4B
$GPGSA,A,3,1,6,11,13,15,17,19,24,28,30,,,,,*1C
{"class":"TPV","status":7,"mode":3,"time":"2019-02-07T02:15:28.000Z","leapseconds":18,"ept":0.005,"lat":44.068817081,"lon":-121.314317437,"altHAE":1110.2328,"altMSL":1132.3877,"alt":1132.3877,"track":0.0000,"magtrack":14.4185,"magvar":14.4,"speed":0.000,"climb":0.000,"eps":0.01,"ecefx":-2386071.16,"ecefy":-3922189.40,"ecefz":4414361.02,"ecefvx":0.00,"ecefvy":0.00,"ecefvz":0.00,"ecefpAcc":0.99,"ecefvAcc":0.01,"velN":0.000,"velE":0.000,"velD":0.000,"geoidSep":-22.155}
$GPZDA,021529.00,07,02,2019,00,00*64
$GPGGA,021529.00,4404.1290,N,12118.8590,W,7,18,,1132.39,M,-22.155,M,,*74
$GPRMC,021529.00,A,4404.1290,N,12118.8590,W,0.0000,0.000,070219,14.4,E*4A
$GPGSA,A,3,1,6,11,13,15,17,19,24,28,30,,,,,*1C
{"class":"TPV","status":7,"mode":3,"time":"2019-02-07T02:15:29.000Z","leapseconds":18,"ept":0.005,"lat":44.068817081,"lon":-121.314317437,"altHAE":1110.2328,"altMSL":1132.3877,"alt":1132.3877,"track":0.0000,"magtrack":14.4185,"magvar":14.4,"speed":0.000,"climb":0.000,"eps":0.01,"ecefx":-2386071.16,"ecefy":-3922189.40,"ecefz":4414361.02,"ecefvx":0.00,"ecefvy":0.00,"ecefvz":0.00,"ecefpAcc":0.99,"ecefvAcc":0.01,"velN":0.000,"velE":0.000,"velD":0.000,"geoidSep":-22.155}
{"class":"SKY","time":"2019-02-07T02:15:23.000Z","gdop":0.24,"tdop":0.24}
$GPZDA,021529.00,07,02,2019,00,00*64
$GPGGA,021529.00,4404.1290,N,12118.8590,W,7,18,,1132.39,M,-22.155,M,,*74
$GPRMC,021529.00,A,4404.1290,N,12118.8590,W,0.0000,0.000,070219,14.4,E*4A
$GPGSA,A,3,1,6,11,13,15,17,19,24,28,30,,,,,*1C
{"class":"TPV","status":7,"mode":3,"time":"2019-02-07T02:15:29.000Z","leapseconds":18,"ept":0.005,"lat":44.068817081,"lon":-121.314317437,"altHAE":1110.2328,"altMSL":1132.3877,"alt":1132.3877,"track":0.0000,"magtrack":14.4185,"magvar":14.4,"speed":0.000,"climb":0.000,"eps":0.01,"ecefx":-2386071.16,"ecefy":-3922189.40,"ecefz":4414361.02,"ecefvx":0.00,"ecefvy":0.00,"ecefvz":0.00,"ecefpAcc":0.99,"ecefvAcc":0.01,"velN":0.000,"velE":0.000,"velD":0.000,"geoidSep":-22.155}
$GPZDA,021530.00,07,02,2019,00,00*6C
$GPGGA,021530.00,4404.1290,N,12118.8590,W,7,18,,1132.39,M,-22.155,M,,*7C
$GPRMC,021530.00,A,4404.1290,N,12118.8590,W,0.0000,0.000,070219,14.4,E*42
$GPGSA,A,3,1,6,11,13,15,17,19,24,28,30,,,,,*1C
{"class":"TPV","status":7,"mode":3,"time":"2019-02-07T02:15:30.000Z","leapseconds":18,"ept":0.005,"lat":44.068817081,"lon":-121.314317437,"altHAE":1110.2328,"altMSL":1132.3877,"alt":1132.3877,"track":0.0000,"magtrack":14.4185,"magvar":14.4,"speed":0.000,"climb":0.000,"eps":0.01,"ecefx":-2386071.16,"ecefy":-3922189.40,"ecefz":4414361.02,"ecefvx":0.00,"ecefvy":0.00,"ecefvz":0.00,"ecefpAcc":0.99,"ecefvAcc":0.01,"velN":0.000,"velE":0.000,"velD":0.000,"geoidSep":-22.155}
{"class":"SKY","time":"2019-02-07T02:15:23.000Z","gdop":0.24,"tdop":0.24}
$GPZDA,021530.00,07,02,2019,00,00*6C
$GPGGA,021530.00,4404.1290,N,12118.8590,W,7,18,,1132.39,M,-22.155,M,,*7C
$GPRMC,021530.00,A,4404.1290,N,12118.8590,W,0.0000,0.000,070219,14.4,E*42
$GPGSA,A,3,1,6,11,13,15,17,19,24,28,30,,,,,*1C
{"class":"TPV","status":7,"mode":3,"time":"2019-02-07T02:15:30.000Z","leapseconds":18,"ept":0.005,"lat":44.068817081,"lon":-121.314317437,"altHAE":1110.2328,"altMSL":1132.3877,"alt":1132.3877,"track":0.0000,"magtrack":14.4185,"magvar":14.4,"speed":0.000,"climb":0.000,"eps":0.01,"ecefx":-2386071.16,"ecefy":-3922189.40,"ecefz":4414361.02,"ecefvx":0.00,"ecefvy":0.00,"ecefvz":0.00,"ecefpAcc":0.99,"ecefvAcc":0.01,"velN":0.000,"velE":0.000,"velD":0.000,"geoidSep":-22.155}
$GPZDA,021531.00,07,02,2019,00,00*6D
$GPGGA,021531.00,4404.1290,N,12118.8590,W,7,18,,1132.39,M,-22.155,M,,*7D
$GPRMC,021531.00,A,4404.1290,N,12118.8590,W,0.0000,0.000,070219,14.4,E*43
$GPGSA,A,3,1,6,11,13,15,17,19,24,28,30,,,,,*1C
{"class":"TPV","status":7,"mode":3,"time":"2019-02-07T02:15:31.000Z","leapseconds":18,"ept":0.005,"lat":44.068817081,"lon":-121.314317437,"altHAE":1110.2328,"altMSL":1132.3877,"alt":1132.3877,"track":0.0000,"magtrack":14.4185,"magvar":14.4,"speed":0.000,"climb":0.000,"eps":0.01,"ecefx":-2386071.16,"ecefy":-3922189.40,"ecefz":4414361.02,"ecefvx":0.00,"ecefvy":0.00,"ecefvz":0.00,"ecefpAcc":0.99,"ecefvAcc":0.01,"velN":0.000,"velE":0.000,"velD":0.000,"geoidSep":-22.155}
{"class":"SKY","time":"2019-02-07T02:15:23.000Z","gdop":0.24,"tdop":0.24}
$GPZDA,021531.00,07,02,2019,00,00*6D
$GPGGA,021531.00,4404.1290,N,12118.8590,W,7,18,,1132.39,M,-22.155,M,,*7D
$GPRMC,021531.00,A,4404.1290,N,12118.8590,W,0.0000,0.000,070219,14.4,E*43
$GPGSA,A,3,1,6,11,13,15,17,19,24,28,30,,,,,*1C
{"class":"TPV","status":7,"mode":3,"time":"2019-02-07T02:15:31.000Z","leapseconds":18,"ept":0.005,"lat":44.068817081,"lon":-121.314317437,"altHAE":1110.2328,"altMSL":1132.3877,"alt":1132.3877,"track":0.0000,"magtrack":14.4185,"magvar":14.4,"speed":0.000,"climb":0.000,"eps":0.01,"ecefx":-2386071.16,"ecefy":-3922189.40,"ecefz":4414361.02,"ecefvx":0.00,"ecefvy":0.00,"ecefvz":0.00,"ecefpAcc":0.99,"ecefvAcc":0.01,"velN":0.000,"velE":0.000,"velD":0.000,"geoidSep":-22.155}
$GPZDA,021532.00,07,02,2019,00,00*6E
$GPGGA,021532.00,4404.1290,N,12118.8590,W,7,18,,1132.39,M,-22.155,M,,*7E
$GPRMC,021532.00,A,4404.1290,N,12118.8590,W,0.0000,0.000,070219,14.4,E*40
$GPGSA,A,3,1,6,11,13,15,17,19,24,28,30,,,,,*1C
{"class":"TPV","status":7,"mode":3,"time":"2019-02-07T02:15:32.000Z","leapseconds":18,"ept":0.005,"lat":44.068817081,"lon":-121.314317437,"altHAE":1110.2328,"altMSL":1132.3877,"alt":1132.3877,"track":0.0000,"magtrack":14.4185,"magvar":14.4,"speed":0.000,"climb":0.000,"eps":0.01,"ecefx":-2386071.16,"ecefy":-3922189.40,"ecefz":4414361.02,"ecefvx":0.00,"ecefvy":0.00,"ecefvz":0.00,"ecefpAcc":0.99,"ecefvAcc":0.01,"velN":0.000,"velE":0.000,"velD":0.000,"geoidSep":-22.155}
{"class":"SKY","time":"2019-02-07T02:15:23.000Z","gdop":0.24,"tdop":0.24}
$GPZDA,021532.00,07,02,2019,00,00*6E
$GPGGA,021532.00,4404.1290,N,12118.8590,W,7,18,,1132.39,M,-22.155,M,,*7E
$GPRMC,021532.00,A,4404.1290,N,12118.8590,W,0.0000,0.000,070219,14.4,E*40
$GPGSA,A,3,1,6,11,13,15,17,19,24,28,30,,,,,*1C
{"class":"TPV","status":7,"mode":3,"time":"2019-02-07T02:15:32.000Z","leapseconds":18,"ept":0.005,"lat":44.068817081,"lon":-121.314317437,"altHAE":1110.2328,"altMSL":1132.3877,"alt":1132.3877,"track":0.0000,"magtrack":14.4185,"magvar":14.4,"speed":0.000,"climb":0.000,"eps":0.01,"ecefx":-2386071.16,"ecefy":-3922189.40,"ecefz":4414361.02,"ecefvx":0.00,"ecefvy":0.00,"ecefvz":0.00,"ecefpAcc":0.99,"ecefvAcc":0.01,"velN":0.000,"velE":0.000,"velD":0.000,"geoidSep":-22.155}
$GPZDA,021533.00,07,02,2019,00,00*6F
$GPGGA,021533.00,4404.1290,N,12118.8590,W,7,18,,1132.39,M,-22.155,M,,*7F
$GPRMC,021533.00,A,4404.1290,N,12118.8590,W,0.0000,0.000,070219,14.4,E*41
$GPGSA,A,3,1,6,11,13,15,17,19,24,28,30,,,,,*1C
{"class":"TPV","status":7,"mode":3,"time":"2019-02-07T02:15:33.000Z","leapseconds":18,"ept":0.005,"lat":44.068817081,"lon":-121.314317437,"altHAE":1110.2328,"altMSL":1132.3877,"alt":1132.3877,"track":0.0000,"magtrack":14.4185,"magvar":14.4,"speed":0.000,"climb":0.000,"eps":0.01,"ecefx":-2386071.16,"ecefy":-3922189.40,"ecefz":4414361.02,"ecefvx":0.00,"ecefvy":0.00,"ecefvz":0.00,"ecefpAcc":0.99,"ecefvAcc":0.01,"velN":0.000,"velE":0.000,"velD":0.000,"geoidSep":-22.155}
$GPGSV,6,1,23,01,22,049,43,06,13,165,39,11,11,042,35,12,01,272,00*7D
$GPGSV,6,2,23,13,32,224,44,15,27,265,43,17,81,090,53,18,03,029,29*76
$GPGSV,6,3,23,19,63,204,49,24,29,309,36,28,48,069,50,30,22,140,44*73
$GPGSV,6,4,23,194,02,294,00,65,04,256,20,66,13,312,24,73,09,116,44*40
$GPGSV,6,5,23,74,52,095,46,75,57,332,50,76,15,311,32,83,01,024,22*7D
$GPGSV,6,6,23,84,52,047,44,85,58,170,51,86,06,196,46*46
{"class":"SKY","time":"2019-02-07T02:15:33.000Z","gdop":1.13,"hdop":0.59,"pdop":1.02,"tdop":0.49,"xdop":0.41,"ydop":0.42,"vdop":0.83,"nSat":24,"uSat":18,"satellites":[{"PRN":1,"gnssid":0,"svid":1,"az":49.0,"el":22.0,"ss":43.0,"used":true,"health":1},{"PRN":6,"gnssid":0,"svid":6,"az":165.0,"el":13.0,"ss":39.0,"used":true,"health":1},{"PRN":11,"gnssid":0,"svid":11,"az":42.0,"el":11.0,"ss":35.0,"used":true,"health":1},{"PRN":12,"gnssid":0,"svid":12,"az":272.0,"el":1.0,"ss":0.0,"used":false,"health":1},{"PRN":13,"gnssid":0,"svid":13,"az":224.0,"el":32.0,"ss":44.0,"used":true,"health":1},{"PRN":15,"gnssid":0,"svid":15,"az":265.0,"el":27.0,"ss":43.0,"used":true,"health":1},{"PRN":17,"gnssid":0,"svid":17,"az":90.0,"el":81.0,"ss":53.0,"used":true,"health":1},{"PRN":18,"gnssid":0,"svid":18,"az":29.0,"el":3.0,"ss":29.0,"used":false,"health":1},{"PRN":19,"gnssid":0,"svid":19,"az":204.0,"el":63.0,"ss":49.0,"used":true,"health":1},{"PRN":24,"gnssid":0,"svid":24,"az":309.0,"el":29.0,"ss":36.0,"used":true,"health":1},{"PRN":28,"gnssid":0,"svid":28,"az":69.0,"el":48.0,"ss":50.0,"used":true,"health":1},{"PRN":30,"gnssid":0,"svid":30,"az":140.0,"el":22.0,"ss":44.0,"used":true,"health":1},{"PRN":194,"gnssid":5,"svid":2,"az":294.0,"el":2.0,"ss":0.0,"used":false,"health":1},{"PRN":65,"gnssid":6,"svid":1,"az":256.0,"el":4.0,"ss":20.0,"used":false,"health":1},{"PRN":66,"gnssid":6,"svid":2,"az":312.0,"el":13.0,"ss":24.0,"used":true,"health":1},{"PRN":67,"gnssid":6,"svid":3,"el":2.0,"ss":14.0,"used":false,"health":1},{"PRN":73,"gnssid":6,"svid":9,"az":116.0,"el":9.0,"ss":44.0,"used":true,"health":1},{"PRN":74,"gnssid":6,"svid":10,"az":95.0,"el":52.0,"ss":46.0,"used":true,"health":1},{"PRN":75,"gnssid":6,"svid":11,"az":332.0,"el":57.0,"ss":50.0,"used":true,"health":1},{"PRN":76,"gnssid":6,"svid":12,"az":311.0,"el":15.0,"ss":32.0,"used":true,"health":1},{"PRN":83,"gnssid":6,"svid":19,"az":24.0,"el":1.0,"ss":22.0,"used":false,"health":1},{"PRN":84,"gnssid":6,"svid":20,"az":47.0,"el":52.0,"ss":44.0,"used":true,"health":1},{"PRN":85,"gnssid":6,"svid":21,"az":170.0,"el":58.0,"ss":51.0,"used":true,"health":1},{"PRN":86,"gnssid":6,"svid":22,"az":196.0,"el":6.0,"ss":46.0,"used":true,"health":1}]}
{"class":"SKY","time":"2019-02-07T02:15:33.000Z","gdop":0.24,"hdop":0.59,"pdop":1.02,"tdop":0.24,"xdop":0.41,"ydop":0.42,"vdop":0.83}
$GPZDA,021533.00,07,02,2019,00,00*6F
$GPGGA,021533.00,4404.1290,N,12118.8590,W,7,18,0.59,1132.39,M,-22.155,M,,*6D
$GPRMC,021533.00,A,4404.1290,N,12118.8590,W,0.0000,0.000,070219,14.4,E*41
$GPGSA,A,3,1,6,11,13,15,17,19,24,28,30,,,1.0,0.6,0.8*3D
$GPGBS,021533.00,6.199,6.270,19.112,,,,*79
{"class":"TPV","status":7,"mode":3,"time":"2019-02-07T02:15:33.000Z","leapseconds":18,"ept":0.005,"lat":44.068817081,"lon":-121.314317437,"altHAE":1110.2328,"altMSL":1132.3877,"alt":1132.3877,"epx":6.199,"epy":6.270,"epv":19.112,"track":0.0000,"magtrack":14.4185,"magvar":14.4,"speed":0.000,"climb":0.000,"eps":0.01,"ecefx":-2386071.16,"ecefy":-3922189.40,"ecefz":4414361.02,"ecefvx":0.00,"ecefvy":0.00,"ecefvz":0.00,"ecefpAcc":0.99,"ecefvAcc":0.01,"velN":0.000,"velE":0.000,"velD":0.000,"geoidSep":-22.155,"eph":11.168,"sep":19.339}
$GPZDA,021534.00,07,02,2019,00,00*68
$GPGGA,021534.00,4404.1290,N,12118.8590,W,7,18,,1132.39,M,-22.155,M,,*78
$GPRMC,021534.00,A,4404.1290,N,12118.8590,W,0.0000,0.000,070219,14.4,E*46
$GPGSA,A,3,1,6,11,13,15,17,19,24,28,30,,,,,*1C
{"class":"TPV","status":7,"mode":3,"time":"2019-02-07T02:15:34.000Z","leapseconds":18,"ept":0.005,"lat":44.068817081,"lon":-121.314317437,"altHAE":1110.2328,"altMSL":1132.3877,"alt":1132.3877,"track":0.0000,"magtrack":14.4185,"magvar":14.4,"speed":0.000,"climb":0.000,"eps":0.01,"ecefx":-2386071.16,"ecefy":-3922189.40,"ecefz":4414361.02,"ecefvx":0.00,"ecefvy":0.00,"ecefvz":0.00,"ecefpAcc":0.99,"ecefvAcc":0.01,"velN":0.000,"velE":0.000,"velD":0.000,"geoidSep":-22.155}
{"class":"SKY","time":"2019-02-07T02:15:33.000Z","gdop":0.24,"tdop":0.24}
$GPZDA,021535.00,07,02,2019,00,00*69
$GPGGA,021535.00,4404.1290,N,12118.8590,W,7,18,,1132.39,M,-22.155,M,,*79
$GPRMC,021535.00,A,4404.1290,N,12118.8590,W,0.0000,0.000,070219,14.4,E*47
$GPGSA,A,3,1,6,11,13,15,17,19,24,28,30,,,,,*1C
{"class":"TPV","status":7,"mode":3,"time":"2019-02-07T02:15:35.000Z","leapseconds":18,"ept":0.005,"lat":44.068817081,"lon":-121.314317437,"altHAE":1110.2328,"altMSL":1132.3877,"alt":1132.3877,"track":0.0000,"magtrack":14.4185,"magvar":14.4,"speed":0.000,"climb":0.000,"eps":0.01,"ecefx":-2386071.16,"ecefy":-3922189.40,"ecefz":4414361.02,"ecefvx":0.00,"ecefvy":0.00,"ecefvz":0.00,"ecefpAcc":0.99,"ecefvAcc":0.01,"velN":0.000,"velE":0.000,"velD":0.000,"geoidSep":-22.155}
{"class":"SKY","time":"2019-02-07T02:15:33.000Z","gdop":0.24,"tdop":0.24}
$GPZDA,021535.00,07,02,2019,00,00*69
$GPGGA,021535.00,4404.1290,N,12118.8590,W,7,18,,1132.39,M,-22.155,M,,*79
$GPRMC,021535.00,A,4404.1290,N,12118.8590,W,0.0000,0.000,070219,14.4,E*47
$GPGSA,A,3,1,6,11,13,15,17,19,24,28,30,,,,,*1C
{"class":"TPV","status":7,"mode":3,"time":"2019-02-07T02:15:35.000Z","leapseconds":18,"ept":0.005,"lat":44.068817081,"lon":-121.314317437,"altHAE":1110.2328,"altMSL":1132.3877,"alt":1132.3877,"track":0.0000,"magtrack":14.4185,"magvar":14.4,"speed":0.000,"climb":0.000,"eps":0.01,"ecefx":-2386071.16,"ecefy":-3922189.40,"ecefz":4414361.02,"ecefvx":0.00,"ecefvy":0.00,"ecefvz":0.00,"ecefpAcc":0.99,"ecefvAcc":0.01,"velN":0.000,"velE":0.000,"velD":0.000,"geoidSep":-22.155}
$GPZDA,021536.00,07,02,2019,00,00*6A
$GPGGA,021536.00,4404.1290,N,12118.8590,W,7,18,,1132.39,M,-22.155,M,,*7A
$GPRMC,021536.00,A,4404.1290,N,12118.8590,W,0.0000,0.000,070219,14.4,E*44
$GPGSA,A,3,1,6,11,13,15,17,19,24,28,30,,,,,*1C
{"class":"TPV","status":7,"mode":3,"time":"2019-02-07T02:15:36.000Z","leapseconds":18,"ept":0.005,"lat":44.068817081,"lon":-121.314317437,"altHAE":1110.2328,"altMSL":1132.3877,"alt":1132.3877,"track":0.0000,"magtrack":14.4185,"magvar":14.4,"speed":0.000,"climb":0.000,"eps":0.01,"ecefx":-2386071.16,"ecefy":-3922189.40,"ecefz":4414361.02,"ecefvx":0.00,"ecefvy":0.00,"ecefvz":0.00,"ecefpAcc":0.99,"ecefvAcc":0.01,"velN":0.000,"velE":0.000,"velD":0.000,"geoidSep":-22.155}
{"class":"SKY","time":"2019-02-07T02:15:33.000Z","gdop":0.24,"tdop":0.24}
$GPZDA,021536.00,07,02,2019,00,00*6A
$GPGGA,021536.00,4404.1290,N,12118.8590,W,7,18,,1132.39,M,-22.155,M,,*7A
$GPRMC,021536.00,A,4404.1290,N,12118.8590,W,0.0000,0.000,070219,14.4,E*44
$GPGSA,A,3,1,6,11,13,15,17,19,24,28,30,,,,,*1C
{"class":"TPV","status":7,"mode":3,"time":"2019-02-07T02:15:36.000Z","leapseconds":18,"ept":0.005,"lat":44.068817081,"lon":-121.314317437,"altHAE":1110.2328,"altMSL":1132.3877,"alt":1132.3877,"track":0.0000,"magtrack":14.4185,"magvar":14.4,"speed":0.000,"climb":0.000,"eps":0.01,"ecefx":-2386071.16,"ecefy":-3922189.40,"ecefz":4414361.02,"ecefvx":0.00,"ecefvy":0.00,"ecefvz":0.00,"ecefpAcc":0.99,"ecefvAcc":0.01,"velN":0.000,"velE":0.000,"velD":0.000,"geoidSep":-22.155}
$GPZDA,021537.00,07,02,2019,00,00*6B
$GPGGA,021537.00,4404.1290,N,12118.8590,W,7,18,,1132.39,M,-22.155,M,,*7B
$GPRMC,021537.00,A,4404.1290,N,12118.8590,W,0.0000,0.000,070219,14.4,E*45
$GPGSA,A,3,1,6,11,13,15,17,19,24,28,30,,,,,*1C
{"class":"TPV","status":7,"mode":3,"time":"2019-02-07T02:15:37.000Z","leapseconds":18,"ept":0.005,"lat":44.068817081,"lon":-121.314317437,"altHAE":1110.2328,"altMSL":1132.3877,"alt":1132.3877,"track":0.0000,"magtrack":14.4185,"magvar":14.4,"speed":0.000,"climb":0.000,"eps":0.01,"ecefx":-2386071.16,"ecefy":-3922189.40,"ecefz":4414361.02,"ecefvx":0.00,"ecefvy":0.00,"ecefvz":0.00,"ecefpAcc":0.99,"ecefvAcc":0.01,"velN":0.000,"velE":0.000,"velD":0.000,"geoidSep":-22.155}
{"class":"SKY","time":"2019-02-07T02:15:33.000Z","gdop":0.24,"tdop":0.24}
$GPZDA,021537.00,07,02,2019,00,00*6B
$GPGGA,021537.00,4404.1290,N,12118.8590,W,7,18,,1132.39,M,-22.155,M,,*7B
$GPRMC,021537.00,A,4404.1290,N,12118.8590,W,0.0000,0.000,070219,14.4,E*45
$GPGSA,A,3,1,6,11,13,15,17,19,24,28,30,,,,,*1C
{"class":"TPV","status":7,"mode":3,"time":"2019-02-07T02:15:37.000Z","leapseconds":18,"ept":0.005,"lat":44.068817081,"lon":-121.314317437,"altHAE":1110.2328,"altMSL":1132.3877,"alt":1132.3877,"track":0.0000,"magtrack":14.4185,"magvar":14.4,"speed":0.000,"climb":0.000,"eps":0.01,"ecefx":-2386071.16,"ecefy":-3922189.40,"ecefz":4414361.02,"ecefvx":0.00,"ecefvy":0.00,"ecefvz":0.00,"ecefpAcc":0.99,"ecefvAcc":0.01,"velN":0.000,"velE":0.000,"velD":0.000,"geoidSep":-22.155}
$GPZDA,021538.00,07,02,2019,00,00*64
$GPGGA,021538.00,4404.1290,N,12118.8590,W,7,18,,1132.39,M,-22.155,M,,*74
$GPRMC,021538.00,A,4404.1290,N,12118.8590,W,0.0000,0.000,070219,14.4,E*4A
$GPGSA,A,3,1,6,11,13,15,17,19,24,28,30,,,,,*1C
{"class":"TPV","status":7,"mode":3,"time":"2019-02-07T02:15:38.000Z","leapseconds":18,"ept":0.005,"lat":44.068817081,"lon":-121.314317437,"altHAE":1110.2328,"altMSL":1132.3877,"alt":1132.3877,"track":0.0000,"magtrack":14.4185,"magvar":14.4,"speed":0.000,"climb":0.000,"eps":0.01,"ecefx":-2386071.16,"ecefy":-3922189.40,"ecefz":4414361.02,"ecefvx":0.00,"ecefvy":0.00,"ecefvz":0.00,"ecefpAcc":0.99,"ecefvAcc":0.01,"velN":0.000,"velE":0.000,"velD":0.000,"geoidSep":-22.155}
{"class":"SKY","time":"2019-02-07T02:15:33.000Z","gdop":0.24,"tdop":0.24}
$GPZDA,021538.00,07,02,2019,00,00*64
$GPGGA,021538.00,4404.1290,N,12118.8590,W,7,18,,1132.39,M,-22.155,M,,*74
$GPRMC,021538.00,A,4404.1290,N,12118.8590,W,0.0000,0.000,070219,14.4,E*4A
$GPGSA,A,3,1,6,11,13,15,17,19,24,28,30,,,,,*1C
{"class":"TPV","status":7,"mode":3,"time":"2019-02-07T02:15:38.000Z","leapseconds":18,"ept":0.005,"lat":44.068817081,"lon":-121.314317437,"altHAE":1110.2328,"altMSL":1132.3877,"alt":1132.3877,"track":0.0000,"magtrack":14.4185,"magvar":14.4,"speed":0.000,"climb":0.000,"eps":0.01,"ecefx":-2386071.16,"ecefy":-3922189.40,"ecefz":4414361.02,"ecefvx":0.00,"ecefvy":0.00,"ecefvz":0.00,"ecefpAcc":0.99,"ecefvAcc":0.01,"velN":0.000,"velE":0.000,"velD":0.000,"geoidSep":-22.155}
$GPZDA,021539.00,07,02,2019,00,00*65
$GPGGA,021539.00,4404.1290,N,12118.8590,W,7,18,,1132.39,M,-22.155,M,,*75
$GPRMC,021539.00,A,4404.1290,N,12118.8590,W,0.0000,0.000,070219,14.4,E*4B
$GPGSA,A,3,1,6,11,13,15,17,19,24,28,30,,,,,*1C
{"class":"TPV","status":7,"mode":3,"time":"2019-02-07T02:15:39.000Z","leapseconds":18,"ept":0.005,"lat":44.068817081,"lon":-121.314317437,"altHAE":1110.2328,"altMSL":1132.3877,"alt":1132.3877,"track":0.0000,"magtrack":14.4185,"magvar":14.4,"speed":0.000,"climb":0.000,"eps":0.01,"ecefx":-2386071.16,"ecefy":-3922189.40,"ecefz":4414361.02,"ecefvx":0.00,"ecefvy":0.00,"ecefvz":0.00,"ecefpAcc":0.99,"ecefvAcc":0.01,"velN":0.000,"velE":0.000,"velD":0.000,"geoidSep":-22.155}
{"class":"SKY","time":"2019-02-07T02:15:33.000Z","gdop":0.24,"tdop":0.24}
$GPZDA,021539.00,07,02,2019,00,00*65
$GPGGA,021539.00,4404.1290,N,12118.8590,W,7,18,,1132.39,M,-22.155,M,,*75
$GPRMC,021539.00,A,4404.1290,N,12118.8590,W,0.0000,0.000,070219,14.4,E*4B
$GPGSA,A,3,1,6,11,13,15,17,19,24,28,30,,,,,*1C
{"class":"TPV","status":7,"mode":3,"time":"2019-02-07T02:15:39.000Z","leapseconds":18,"ept":0.005,"lat":44.068817081,"lon":-121.314317437,"altHAE":1110.2328,"altMSL":1132.3877,"alt":1132.3877,"track":0.0000,"magtrack":14.4185,"magvar":14.4,"speed":0.000,"climb":0.000,"eps":0.01,"ecefx":-2386071.16,"ecefy":-3922189.40,"ecefz":4414361.02,"ecefvx":0.00,"ecefvy":0.00,"ecefvz":0.00,"ecefpAcc":0.99,"ecefvAcc":0.01,"velN":0.000,"velE":0.000,"velD":0.000,"geoidSep":-22.155}
$GPZDA,021540.00,07,02,2019,00,00*6B
$GPGGA,021540.00,4404.1290,N,12118.8590,W,7,18,,1132.39,M,-22.155,M,,*7B
$GPRMC,021540.00,A,4404.1290,N,12118.8590,W,0.0000,0.000,070219,14.4,E*45
$GPGSA,A,3,1,6,11,13,15,17,19,24,28,30,,,,,*1C
{"class":"TPV","status":7,"mode":3,"time":"2019-02-07T02:15:40.000Z","leapseconds":18,"ept":0.005,"lat":44.068817081,"lon":-121.314317437,"altHAE":1110.2328,"altMSL":1132.3877,"alt":1132.3877,"track":0.0000,"magtrack":14.4185,"magvar":14.4,"speed":0.000,"climb":0.000,"eps":0.01,"ecefx":-2386071.16,"ecefy":-3922189.40,"ecefz":4414361.02,"ecefvx":0.00,"ecefvy":0.00,"ecefvz":0.00,"ecefpAcc":0.99,"ecefvAcc":0.01,"velN":0.000,"velE":0.000,"velD":0.000,"geoidSep":-22.155}
{"class":"SKY","time":"2019-02-07T02:15:33.000Z","gdop":0.24,"tdop":0.24}
$GPZDA,021540.00,07,02,2019,00,00*6B
$GPGGA,021540.00,4404.1290,N,12118.8590,W,7,18,,1132.39,M,-22.155,M,,*7B
$GPRMC,021540.00,A,4404.1290,N,12118.8590,W,0.0000,0.000,070219,14.4,E*45
$GPGSA,A,3,1,6,11,13,15,17,19,24,28,30,,,,,*1C
{"class":"TPV","status":7,"mode":3,"time":"2019-02-07T02:15:40.000Z","leapseconds":18,"ept":0.005,"lat":44.068817081,"lon":-121.314317437,"altHAE":1110.2328,"altMSL":1132.3877,"alt":1132.3877,"track":0.0000,"magtrack":14.4185,"magvar":14.4,"speed":0.000,"climb":0.000,"eps":0.01,"ecefx":-2386071.16,"ecefy":-3922189.40,"ecefz":4414361.02,"ecefvx":0.00,"ecefvy":0.00,"ecefvz":0.00,"ecefpAcc":0.99,"ecefvAcc":0.01,"velN":0.000,"velE":0.000,"velD":0.000,"geoidSep":-22.155}
$GPZDA,021541.00,07,02,2019,00,00*6A
$GPGGA,021541.00,4404.1290,N,12118.8590,W,7,18,,1132.39,M,-22.155,M,,*7A
$GPRMC,021541.00,A,4404.1290,N,12118.8590,W,0.0000,0.000,070219,14.4,E*44
$GPGSA,A,3,1,6,11,13,15,17,19,24,28,30,,,,,*1C
{"class":"TPV","status":7,"mode":3,"time":"2019-02-07T02:15:41.000Z","leapseconds":18,"ept":0.005,"lat":44.068817081,"lon":-121.314317437,"altHAE":1110.2328,"altMSL":1132.3877,"alt":1132.3877,"track":0.0000,"magtrack":14.4185,"magvar":14.4,"speed":0.000,"climb":0.000,"eps":0.01,"ecefx":-2386071.16,"ecefy":-3922189.40,"ecefz":4414361.02,"ecefvx":0.00,"ecefvy":0.00,"ecefvz":0.00,"ecefpAcc":0.99,"ecefvAcc":0.01,"velN":0.000,"velE":0.000,"velD":0.000,"geoidSep":-22.155}
{"class":"SKY","time":"2019-02-07T02:15:33.000Z","gdop":0.24,"tdop":0.24}
$GPZDA,021541.00,07,02,2019,00,00*6A
$GPGGA,021541.00,4404.1290,N,12118.8590,W,7,18,,1132.39,M,-22.155,M,,*7A
$GPRMC,021541.00,A,4404.1290,N,12118.8590,W,0.0000,0.000,070219,14.4,E*44
$GPGSA,A,3,1,6,11,13,15,17,19,24,28,30,,,,,*1C
{"class":"TPV","status":7,"mode":3,"time":"2019-02-07T02:15:41.000Z","leapseconds":18,"ept":0.005,"lat":44.068817081,"lon":-121.314317437,"altHAE":1110.2328,"altMSL":1132.3877,"alt":1132.3877,"track":0.0000,"magtrack":14.4185,"magvar":14.4,"speed":0.000,"climb":0.000,"eps":0.01,"ecefx":-2386071.16,"ecefy":-3922189.40,"ecefz":4414361.02,"ecefvx":0.00,"ecefvy":0.00,"ecefvz":0.00,"ecefpAcc":0.99,"ecefvAcc":0.01,"velN":0.000,"velE":0.000,"velD":0.000,"geoidSep":-22.155}
$GPZDA,021542.00,07,02,2019,00,00*69
$GPGGA,021542.00,4404.1290,N,12118.8590,W,7,18,,1132.39,M,-22.155,M,,*79
$GPRMC,021542.00,A,4404.1290,N,12118.8590,W,0.0000,0.000,070219,14.4,E*47
$GPGSA,A,3,1,6,11,13,15,17,19,24,28,30,,,,,*1C
{"class":"TPV","status":7,"mode":3,"time":"2019-02-07T02:15:42.000Z","leapseconds":18,"ept":0.005,"lat":44.068817081,"lon":-121.314317437,"altHAE":1110.2328,"altMSL":1132.3877,"alt":1132.3877,"track":0.0000,"magtrack":14.4185,"magvar":14.4,"speed":0.000,"climb":0.000,"eps":0.01,"ecefx":-2386071.16,"ecefy":-3922189.40,"ecefz":4414361.02,"ecefvx":0.00,"ecefvy":0.00,"ecefvz":0.00,"ecefpAcc":0.99,"ecefvAcc":0.01,"velN":0.000,"velE":0.000,"velD":0.000,"geoidSep":-22.155}
{"class":"SKY","time":"2019-02-07T02:15:33.000Z","gdop":0.24,"tdop":0.24}
$GPZDA,021542.00,07,02,2019,00,00*69
$GPGGA,021542.00,4404.1290,N,12118.8590,W,7,18,,1132.39,M,-22.155,M,,*79
$GPRMC,021542.00,A,4404.1290,N,12118.8590,W,0.0000,0.000,070219,14.4,E*47
$GPGSA,A,3,1,6,11,13,15,17,19,24,28,30,,,,,*1C
{"class":"TPV","status":7,"mode":3,"time":"2019-02-07T02:15:42.000Z","leapseconds":18,"ept":0.005,"lat":44.068817081,"lon":-121.314317437,"altHAE":1110.2328,"altMSL":1132.3877,"alt":1132.3877,"track":0.0000,"magtrack":14.4185,"magvar":14.4,"speed":0.000,"climb":0.000,"eps":0.01,"ecefx":-2386071.16,"ecefy":-3922189.40,"ecefz":4414361.02,"ecefvx":0.00,"ecefvy":0.00,"ecefvz":0.00,"ecefpAcc":0.99,"ecefvAcc":0.01,"velN":0.000,"velE":0.000,"velD":0.000,"geoidSep":-22.155}
$GPZDA,021543.00,07,02,2019,00,00*68
$GPGGA,021543.00,4404.1290,N,12118.8590,W,7,18,,1132.39,M,-22.155,M,,*78
$GPRMC,021543.00,A,4404.1290,N,12118.8590,W,0.0000,0.000,070219,14.4,E*46
$GPGSA,A,3,1,6,11,13,15,17,19,24,28,30,,,,,*1C
{"class":"TPV","status":7,"mode":3,"time":"2019-02-07T02:15:43.000Z","leapseconds":18,"ept":0.005,"lat":44.068817081,"lon":-121.314317437,"altHAE":1110.2328,"altMSL":1132.3877,"alt":1132.3877,"track":0.0000,"magtrack":14.4185,"magvar":14.4,"speed":0.000,"climb":0.000,"eps":0.01,"ecefx":-2386071.16,"ecefy":-3922189.40,"ecefz":4414361.02,"ecefvx":0.00,"ecefvy":0.00,"ecefvz":0.00,"ecefpAcc":0.99,"ecefvAcc":0.01,"velN":0.000,"velE":0.000,"velD":0.000,"geoidSep":-22.155}
$GPGSV,6,1,24,01,22,049,43,06,13,165,40,11,11,042,35,12,01,272,00*74
$GPGSV,6,2,24,13,32,224,44,15,27,265,44,17,81,089,53,18,03,029,25*72
$GPGSV,6,3,24,19,63,204,49,24,29,309,35,28,48,069,50,30,22,140,44*77
$GPGSV,6,4,24,194,02,294,00,65,03,256,20,66,13,311,29,67,03,358,00*49
$GPGSV,6,5,24,73,09,116,43,74,52,095,46,75,57,332,50,76,15,311,35*7D
$GPGSV,6,6,24,83,01,024,21,84,52,047,44,85,58,170,51,86,06,196,45*7D
{"class":"SKY","time":"2019-02-07T02:15:43.000Z","gdop":1.13,"hdop":0.59,"pdop":1.02,"tdop":0.49,"xdop":0.41,"ydop":0.42,"vdop":0.83,"nSat":24,"uSat":18,"satellites":[{"PRN":1,"gnssid":0,"svid":1,"az":49.0,"el":22.0,"ss":43.0,"used":true,"health":1},{"PRN":6,"gnssid":0,"svid":6,"az":165.0,"el":13.0,"ss":40.0,"used":true,"health":1},{"PRN":11,"gnssid":0,"svid":11,"az":42.0,"el":11.0,"ss":35.0,"used":true,"health":1},{"PRN":12,"gnssid":0,"svid":12,"az":272.0,"el":1.0,"ss":0.0,"used":false,"health":1},{"PRN":13,"gnssid":0,"svid":13,"az":224.0,"el":32.0,"ss":44.0,"used":true,"health":1},{"PRN":15,"gnssid":0,"svid":15,"az":265.0,"el":27.0,"ss":44.0,"used":true,"health":1},{"PRN":17,"gnssid":0,"svid":17,"az":89.0,"el":81.0,"ss":53.0,"used":true,"health":1},{"PRN":18,"gnssid":0,"svid":18,"az":29.0,"el":3.0,"ss":25.0,"used":false,"health":1},{"PRN":19,"gnssid":0,"svid":19,"az":204.0,"el":63.0,"ss":49.0,"used":true,"health":1},{"PRN":24,"gnssid":0,"svid":24,"az":309.0,"el":29.0,"ss":35.0,"used":true,"health":1},{"PRN":28,"gnssid":0,"svid":28,"az":69.0,"el":48.0,"ss":50.0,"used":true,"health":1},{"PRN":30,"gnssid":0,"svid":30,"az":140.0,"el":22.0,"ss":44.0,"used":true,"health":1},{"PRN":194,"gnssid":5,"svid":2,"az":294.0,"el":2.0,"ss":0.0,"used":false,"health":1},{"PRN":65,"gnssid":6,"svid":1,"az":256.0,"el":3.0,"ss":20.0,"used":false,"health":1},{"PRN":66,"gnssid":6,"svid":2,"az":311.0,"el":13.0,"ss":29.0,"used":true,"health":1},{"PRN":67,"gnssid":6,"svid":3,"az":358.0,"el":3.0,"ss":0.0,"used":false,"health":1},{"PRN":73,"gnssid":6,"svid":9,"az":116.0,"el":9.0,"ss":43.0,"used":true,"health":1},{"PRN":74,"gnssid":6,"svid":10,"az":95.0,"el":52.0,"ss":46.0,"used":true,"health":1},{"PRN":75,"gnssid":6,"svid":11,"az":332.0,"el":57.0,"ss":50.0,"used":true,"health":1},{"PRN":76,"gnssid":6,"svid":12,"az":311.0,"el":15.0,"ss":35.0,"used":true,"health":1},{"PRN":83,"gnssid":6,"svid":19,"az":24.0,"el":1.0,"ss":21.0,"used":false,"health":1},{"PRN":84,"gnssid":6,"svid":20,"az":47.0,"el":52.0,"ss":44.0,"used":true,"health":1},{"PRN":85,"gnssid":6,"svid":21,"az":170.0,"el":58.0,"ss":51.0,"used":true,"health":1},{"PRN":86,"gnssid":6,"svid":22,"az":196.0,"el":6.0,"ss":45.0,"used":true,"health":1}]}
{"class":"SKY","time":"2019-02-07T02:15:43.000Z","gdop":0.24,"hdop":0.59,"pdop":1.02,"tdop":0.24,"xdop":0.41,"ydop":0.42,"vdop":0.83}
$GPZDA,021543.00,07,02,2019,00,00*68
$GPGGA,021543.00,4404.1290,N,12118.8590,W,7,18,0.59,1132.39,M,-22.155,M,,*6A
$GPRMC,021543.00,A,4404.1290,N,12118.8590,W,0.0000,0.000,070219,14.4,E*46
$GPGSA,A,3,1,6,11,13,15,17,19,24,28,30,,,1.0,0.6,0.8*3D
$GPGBS,021543.00,6.190,6.280,19.116,,,,*7C
{"class":"TPV","status":7,"mode":3,"time":"2019-02-07T02:15:43.000Z","leapseconds":18,"ept":0.005,"lat":44.068817081,"lon":-121.314317437,"altHAE":1110.2328,"altMSL":1132.3877,"alt":1132.3877,"epx":6.190,"epy":6.280,"epv":19.116,"track":0.0000,"magtrack":14.4185,"magvar":14.4,"speed":0.000,"climb":0.000,"eps":0.01,"ecefx":-2386071.16,"ecefy":-3922189.40,"ecefz":4414361.02,"ecefvx":0.00,"ecefvy":0.00,"ecefvz":0.00,"ecefpAcc":0.99,"ecefvAcc":0.01,"velN":0.000,"velE":0.000,"velD":0.000,"geoidSep":-22.155,"eph":11.169,"sep":19.342}
$GPZDA,021544.00,07,02,2019,00,00*6F
$GPGGA,021544.00,4404.1290,N,12118.8590,W,7,18,,1132.39,M,-22.155,M,,*7F
$GPRMC,021544.00,A,4404.1290,N,12118.8590,W,0.0000,0.000,070219,14.4,E*41
$GPGSA,A,3,1,6,11,13,15,17,19,24,28,30,,,,,*1C
{"class":"TPV","status":7,"mode":3,"time":"2019-02-07T02:15:44.000Z","leapseconds":18,"ept":0.005,"lat":44.068817081,"lon":-121.314317437,"altHAE":1110.2328,"altMSL":1132.3877,"alt":1132.3877,"track":0.0000,"magtrack":14.4185,"magvar":14.4,"speed":0.000,"climb":0.000,"eps":0.01,"ecefx":-2386071.16,"ecefy":-3922189.40,"ecefz":4414361.02,"ecefvx":0.00,"ecefvy":0.00,"ecefvz":0.00,"ecefpAcc":0.99,"ecefvAcc":0.01,"velN":0.000,"velE":0.000,"velD":0.000,"geoidSep":-22.155}
{"class":"SKY","time":"2019-02-07T02:15:43.000Z","gdop":0.24,"tdop":0.24}
$GPZDA,021545.00,07,02,2019,00,00*6E
$GPGGA,021545.00,4404.1290,N,12118.8590,W,7,18,,1132.39,M,-22.155,M,,*7E
$GPRMC,021545.00,A,4404.1290,N,12118.8590,W,0.0000,0.000,070219,14.4,E*40
$GPGSA,A,3,1,6,11,13,15,17,19,24,28,30,,,,,*1C
{"class":"TPV","status":7,"mode":3,"time":"2019-02-07T02:15:45.000Z","leapseconds":18,"ept":0.005,"lat":44.068817081,"lon":-121.314317437,"altHAE":1110.2328,"altMSL":1132.3877,"alt":1132.3877,"track":0.0000,"magtrack":14.4185,"magvar":14.4,"speed":0.000,"climb":0.000,"eps":0.01,"ecefx":-2386071.16,"ecefy":-3922189.40,"ecefz":4414361.02,"ecefvx":0.00,"ecefvy":0.00,"ecefvz":0.00,"ecefpAcc":0.99,"ecefvAcc":0.01,"velN":0.000,"velE":0.000,"velD":0.000,"geoidSep":-22.155}
{"class":"SKY","time":"2019-02-07T02:15:43.000Z","gdop":0.24,"tdop":0.24}
$GPZDA,021545.00,07,02,2019,00,00*6E
$GPGGA,021545.00,4404.1290,N,12118.8590,W,7,18,,1132.39,M,-22.155,M,,*7E
$GPRMC,021545.00,A,4404.1290,N,12118.8590,W,0.0000,0.000,070219,14.4,E*40
$GPGSA,A,3,1,6,11,13,15,17,19,24,28,30,,,,,*1C
{"class":"TPV","status":7,"mode":3,"time":"2019-02-07T02:15:45.000Z","leapseconds":18,"ept":0.005,"lat":44.068817081,"lon":-121.314317437,"altHAE":1110.2328,"altMSL":1132.3877,"alt":1132.3877,"track":0.0000,"magtrack":14.4185,"magvar":14.4,"speed":0.000,"climb":0.000,"eps":0.01,"ecefx":-2386071.16,"ecefy":-3922189.40,"ecefz":4414361.02,"ecefvx":0.00,"ecefvy":0.00,"ecefvz":0.00,"ecefpAcc":0.99,"ecefvAcc":0.01,"velN":0.000,"velE":0.000,"velD":0.000,"geoidSep":-22.155}
