$GNRMC,223745.00,A,3806.62964,N,12237.61382,W,0.040,,110720,,,D,V*0E
{"class":"TPV","status":2,"mode":2,"time":"2020-07-11T22:37:45.000Z","ept":0.005,"lat":38.110494000,"lon":-122.626897000,"magvar":13.4,"speed":0.021}
$GNVTG,,T,,M,0.040,N,0.075,K,D*3E
$GNGGA,223745.00,3806.62964,N,12237.61382,W,2,12,0.54,83.1,M,-29.5,M,,0000*44
{"class":"TPV","status":2,"mode":3,"time":"2020-07-11T22:37:45.000Z","ept":0.005,"lat":38.110494000,"lon":-122.626897000,"altHAE":53.6000,"altMSL":83.1000,"alt":83.1000,"magvar":13.4,"speed":0.021,"geoidSep":-29.500,"eph":2.565}
$GNGSA,A,3,29,20,18,16,51,13,44,26,,,,,0.99,0.54,0.83,1*0E
{"class":"TPV","status":2,"mode":3,"time":"2020-07-11T22:37:45.000Z","ept":0.005,"lat":38.110494000,"lon":-122.626897000,"altHAE":53.6000,"altMSL":83.1000,"alt":83.1000,"epv":4.772,"magvar":13.4,"speed":0.021,"geoidSep":-29.500,"eph":2.565,"sep":4.702}
$GNGSA,A,3,82,73,74,67,81,83,68,,,,,,0.99,0.54,0.83,2*08
{"class":"TPV","status":2,"mode":3,"time":"2020-07-11T22:37:45.000Z","ept":0.005,"lat":38.110494000,"lon":-122.626897000,"altHAE":53.6000,"altMSL":83.1000,"alt":83.1000,"epv":4.772,"magvar":13.4,"speed":0.021,"geoidSep":-29.500,"eph":2.565,"sep":4.702}
$GNGSA,A,3,03,05,30,27,15,,,,,,,,0.99,0.54,0.83,3*0D
{"class":"TPV","status":2,"mode":3,"time":"2020-07-11T22:37:45.000Z","ept":0.005,"lat":38.110494000,"lon":-122.626897000,"altHAE":53.6000,"altMSL":83.1000,"alt":83.1000,"epv":4.772,"magvar":13.4,"speed":0.021,"geoidSep":-29.500,"eph":2.565,"sep":4.702}
$GNGSA,A,3,32,28,30,33,27,,,,,,,,0.99,0.54,0.83,4*03
{"class":"TPV","status":2,"mode":3,"time":"2020-07-11T22:37:45.000Z","ept":0.005,"lat":38.110494000,"lon":-122.626897000,"altHAE":53.6000,"altMSL":83.1000,"alt":83.1000,"epv":4.772,"magvar":13.4,"speed":0.021,"geoidSep":-29.500,"eph":2.565,"sep":4.702}
$GPGSV,4,1,16,05,01,047,,10,29,224,,13,22,062,23,15,40,094,,1*65
$GPGSV,4,2,16,16,25,306,30,18,68,358,39,20,63,235,37,21,35,292,,1*6B
$GPGSV,4,3,16,23,58,225,,25,00,179,,26,33,265,35,27,07,316,,1*60
$GPGSV,4,4,16,29,46,133,43,44,45,171,45,46,45,191,43,51,43,156,43,1*60
{"class":"SKY","xdop":0.66,"ydop":0.84,"vdop":0.83,"tdop":1.37,"hdop":0.54,"gdop":2.70,"pdop":0.99,"nSat":16,"uSat":8,"satellites":[{"PRN":5,"el":1.0,"az":47.0,"ss":0.0,"used":false,"gnssid":0,"svid":5},{"PRN":10,"el":29.0,"az":224.0,"ss":0.0,"used":false,"gnssid":0,"svid":10},{"PRN":13,"el":22.0,"az":62.0,"ss":23.0,"used":true,"gnssid":0,"svid":13},{"PRN":15,"el":40.0,"az":94.0,"ss":0.0,"used":false,"gnssid":0,"svid":15},{"PRN":16,"el":25.0,"az":306.0,"ss":30.0,"used":true,"gnssid":0,"svid":16},{"PRN":18,"el":68.0,"az":358.0,"ss":39.0,"used":true,"gnssid":0,"svid":18},{"PRN":20,"el":63.0,"az":235.0,"ss":37.0,"used":true,"gnssid":0,"svid":20},{"PRN":21,"el":35.0,"az":292.0,"ss":0.0,"used":false,"gnssid":0,"svid":21},{"PRN":23,"el":58.0,"az":225.0,"ss":0.0,"used":false,"gnssid":0,"svid":23},{"PRN":25,"el":0.0,"az":179.0,"ss":0.0,"used":false,"gnssid":0,"svid":25},{"PRN":26,"el":33.0,"az":265.0,"ss":35.0,"used":true,"gnssid":0,"svid":26},{"PRN":27,"el":7.0,"az":316.0,"ss":0.0,"used":false,"gnssid":0,"svid":27},{"PRN":29,"el":46.0,"az":133.0,"ss":43.0,"used":true,"gnssid":0,"svid":29},{"PRN":44,"el":45.0,"az":171.0,"ss":45.0,"used":true,"gnssid":1,"svid":131},{"PRN":46,"el":45.0,"az":191.0,"ss":43.0,"used":false,"gnssid":1,"svid":133},{"PRN":51,"el":43.0,"az":156.0,"ss":43.0,"used":true,"gnssid":1,"svid":138}]}
$GLGSV,3,1,10,66,09,027,,67,56,054,40,68,55,168,44,69,08,194,21,1*79
$GLGSV,3,2,10,73,13,282,27,74,10,318,13,81,09,110,16,82,51,077,39,1*7A
$GLGSV,3,3,10,83,52,346,29,84,05,307,,1*72
{"class":"SKY","xdop":0.46,"ydop":0.59,"vdop":0.83,"tdop":0.68,"hdop":0.54,"gdop":1.46,"pdop":0.99,"nSat":26,"uSat":15,"satellites":[{"PRN":5,"el":1.0,"az":47.0,"ss":0.0,"used":false,"gnssid":0,"svid":5},{"PRN":10,"el":29.0,"az":224.0,"ss":0.0,"used":false,"gnssid":0,"svid":10},{"PRN":13,"el":22.0,"az":62.0,"ss":23.0,"used":true,"gnssid":0,"svid":13},{"PRN":15,"el":40.0,"az":94.0,"ss":0.0,"used":false,"gnssid":0,"svid":15},{"PRN":16,"el":25.0,"az":306.0,"ss":30.0,"used":true,"gnssid":0,"svid":16},{"PRN":18,"el":68.0,"az":358.0,"ss":39.0,"used":true,"gnssid":0,"svid":18},{"PRN":20,"el":63.0,"az":235.0,"ss":37.0,"used":true,"gnssid":0,"svid":20},{"PRN":21,"el":35.0,"az":292.0,"ss":0.0,"used":false,"gnssid":0,"svid":21},{"PRN":23,"el":58.0,"az":225.0,"ss":0.0,"used":false,"gnssid":0,"svid":23},{"PRN":25,"el":0.0,"az":179.0,"ss":0.0,"used":false,"gnssid":0,"svid":25},{"PRN":26,"el":33.0,"az":265.0,"ss":35.0,"used":true,"gnssid":0,"svid":26},{"PRN":27,"el":7.0,"az":316.0,"ss":0.0,"used":false,"gnssid":0,"svid":27},{"PRN":29,"el":46.0,"az":133.0,"ss":43.0,"used":true,"gnssid":0,"svid":29},{"PRN":44,"el":45.0,"az":171.0,"ss":45.0,"used":true,"gnssid":1,"svid":131},{"PRN":46,"el":45.0,"az":191.0,"ss":43.0,"used":false,"gnssid":1,"svid":133},{"PRN":51,"el":43.0,"az":156.0,"ss":43.0,"used":true,"gnssid":1,"svid":138},{"PRN":66,"el":9.0,"az":27.0,"ss":0.0,"used":false,"gnssid":6,"svid":2},{"PRN":67,"el":56.0,"az":54.0,"ss":40.0,"used":true,"gnssid":6,"svid":3},{"PRN":68,"el":55.0,"az":168.0,"ss":44.0,"used":true,"gnssid":6,"svid":4},{"PRN":69,"el":8.0,"az":194.0,"ss":21.0,"used":false,"gnssid":6,"svid":5},{"PRN":73,"el":13.0,"az":282.0,"ss":27.0,"used":true,"gnssid":6,"svid":9},{"PRN":74,"el":10.0,"az":318.0,"ss":13.0,"used":true,"gnssid":6,"svid":10},{"PRN":81,"el":9.0,"az":110.0,"ss":16.0,"used":true,"gnssid":6,"svid":17},{"PRN":82,"el":51.0,"az":77.0,"ss":39.0,"used":true,"gnssid":6,"svid":18},{"PRN":83,"el":52.0,"az":346.0,"ss":29.0,"used":true,"gnssid":6,"svid":19},{"PRN":84,"el":5.0,"az":307.0,"ss":0.0,"used":false,"gnssid":6,"svid":20}]}
$GAGSV,3,1,10,03,44,149,40,05,42,071,39,08,08,190,,09,06,034,,7*74
$GAGSV,3,2,10,13,11,292,,15,56,322,39,21,10,318,,27,24,268,26,7*75
$GAGSV,3,3,10,30,14,215,16,36,08,098,,7*79
{"class":"SKY","xdop":0.46,"ydop":0.59,"vdop":0.83,"tdop":0.68,"hdop":0.54,"gdop":1.46,"pdop":0.99,"nSat":36,"uSat":15,"satellites":[{"PRN":5,"el":1.0,"az":47.0,"ss":0.0,"used":false,"gnssid":0,"svid":5},{"PRN":10,"el":29.0,"az":224.0,"ss":0.0,"used":false,"gnssid":0,"svid":10},{"PRN":13,"el":22.0,"az":62.0,"ss":23.0,"used":true,"gnssid":0,"svid":13},{"PRN":15,"el":40.0,"az":94.0,"ss":0.0,"used":false,"gnssid":0,"svid":15},{"PRN":16,"el":25.0,"az":306.0,"ss":30.0,"used":true,"gnssid":0,"svid":16},{"PRN":18,"el":68.0,"az":358.0,"ss":39.0,"used":true,"gnssid":0,"svid":18},{"PRN":20,"el":63.0,"az":235.0,"ss":37.0,"used":true,"gnssid":0,"svid":20},{"PRN":21,"el":35.0,"az":292.0,"ss":0.0,"used":false,"gnssid":0,"svid":21},{"PRN":23,"el":58.0,"az":225.0,"ss":0.0,"used":false,"gnssid":0,"svid":23},{"PRN":25,"el":0.0,"az":179.0,"ss":0.0,"used":false,"gnssid":0,"svid":25},{"PRN":26,"el":33.0,"az":265.0,"ss":35.0,"used":true,"gnssid":0,"svid":26},{"PRN":27,"el":7.0,"az":316.0,"ss":0.0,"used":false,"gnssid":0,"svid":27},{"PRN":29,"el":46.0,"az":133.0,"ss":43.0,"used":true,"gnssid":0,"svid":29},{"PRN":44,"el":45.0,"az":171.0,"ss":45.0,"used":true,"gnssid":1,"svid":131},{"PRN":46,"el":45.0,"az":191.0,"ss":43.0,"used":false,"gnssid":1,"svid":133},{"PRN":51,"el":43.0,"az":156.0,"ss":43.0,"used":true,"gnssid":1,"svid":138},{"PRN":66,"el":9.0,"az":27.0,"ss":0.0,"used":false,"gnssid":6,"svid":2},{"PRN":67,"el":56.0,"az":54.0,"ss":40.0,"used":true,"gnssid":6,"svid":3},{"PRN":68,"el":55.0,"az":168.0,"ss":44.0,"used":true,"gnssid":6,"svid":4},{"PRN":69,"el":8.0,"az":194.0,"ss":21.0,"used":false,"gnssid":6,"svid":5},{"PRN":73,"el":13.0,"az":282.0,"ss":27.0,"used":true,"gnssid":6,"svid":9},{"PRN":74,"el":10.0,"az":318.0,"ss":13.0,"used":true,"gnssid":6,"svid":10},{"PRN":81,"el":9.0,"az":110.0,"ss":16.0,"used":true,"gnssid":6,"svid":17},{"PRN":82,"el":51.0,"az":77.0,"ss":39.0,"used":true,"gnssid":6,"svid":18},{"PRN":83,"el":52.0,"az":346.0,"ss":29.0,"used":true,"gnssid":6,"svid":19},{"PRN":84,"el":5.0,"az":307.0,"ss":0.0,"used":false,"gnssid":6,"svid":20},{"PRN":303,"el":44.0,"az":149.0,"ss":40.0,"used":false,"gnssid":2,"svid":3},{"PRN":305,"el":42.0,"az":71.0,"ss":39.0,"used":false,"gnssid":2,"svid":5},{"PRN":308,"el":8.0,"az":190.0,"ss":0.0,"used":false,"gnssid":2,"svid":8},{"PRN":309,"el":6.0,"az":34.0,"ss":0.0,"used":false,"gnssid":2,"svid":9},{"PRN":313,"el":11.0,"az":292.0,"ss":0.0,"used":false,"gnssid":2,"svid":13},{"PRN":315,"el":56.0,"az":322.0,"ss":39.0,"used":false,"gnssid":2,"svid":15},{"PRN":321,"el":10.0,"az":318.0,"ss":0.0,"used":false,"gnssid":2,"svid":21},{"PRN":327,"el":24.0,"az":268.0,"ss":26.0,"used":false,"gnssid":2,"svid":27},{"PRN":330,"el":14.0,"az":215.0,"ss":16.0,"used":false,"gnssid":2,"svid":30},{"PRN":36,"el":8.0,"az":98.0,"ss":0.0,"used":false,"gnssid":1,"svid":123}]}
$GBGSV,2,1,07,04,01,262,,07,03,328,,27,78,059,44,28,29,115,34,1*79
$GBGSV,2,2,07,30,37,312,36,32,45,196,44,33,20,043,27,1*4D
{"class":"SKY","xdop":0.43,"ydop":0.55,"vdop":0.83,"tdop":0.66,"hdop":0.54,"gdop":1.41,"pdop":0.99,"nSat":43,"uSat":16,"satellites":[{"PRN":5,"el":1.0,"az":47.0,"ss":0.0,"used":false,"gnssid":0,"svid":5},{"PRN":10,"el":29.0,"az":224.0,"ss":0.0,"used":false,"gnssid":0,"svid":10},{"PRN":13,"el":22.0,"az":62.0,"ss":23.0,"used":true,"gnssid":0,"svid":13},{"PRN":15,"el":40.0,"az":94.0,"ss":0.0,"used":false,"gnssid":0,"svid":15},{"PRN":16,"el":25.0,"az":306.0,"ss":30.0,"used":true,"gnssid":0,"svid":16},{"PRN":18,"el":68.0,"az":358.0,"ss":39.0,"used":true,"gnssid":0,"svid":18},{"PRN":20,"el":63.0,"az":235.0,"ss":37.0,"used":true,"gnssid":0,"svid":20},{"PRN":21,"el":35.0,"az":292.0,"ss":0.0,"used":false,"gnssid":0,"svid":21},{"PRN":23,"el":58.0,"az":225.0,"ss":0.0,"used":false,"gnssid":0,"svid":23},{"PRN":25,"el":0.0,"az":179.0,"ss":0.0,"used":false,"gnssid":0,"svid":25},{"PRN":26,"el":33.0,"az":265.0,"ss":35.0,"used":true,"gnssid":0,"svid":26},{"PRN":27,"el":7.0,"az":316.0,"ss":0.0,"used":false,"gnssid":0,"svid":27},{"PRN":29,"el":46.0,"az":133.0,"ss":43.0,"used":true,"gnssid":0,"svid":29},{"PRN":44,"el":45.0,"az":171.0,"ss":45.0,"used":true,"gnssid":1,"svid":131},{"PRN":46,"el":45.0,"az":191.0,"ss":43.0,"used":false,"gnssid":1,"svid":133},{"PRN":51,"el":43.0,"az":156.0,"ss":43.0,"used":true,"gnssid":1,"svid":138},{"PRN":66,"el":9.0,"az":27.0,"ss":0.0,"used":false,"gnssid":6,"svid":2},{"PRN":67,"el":56.0,"az":54.0,"ss":40.0,"used":true,"gnssid":6,"svid":3},{"PRN":68,"el":55.0,"az":168.0,"ss":44.0,"used":true,"gnssid":6,"svid":4},{"PRN":69,"el":8.0,"az":194.0,"ss":21.0,"used":false,"gnssid":6,"svid":5},{"PRN":73,"el":13.0,"az":282.0,"ss":27.0,"used":true,"gnssid":6,"svid":9},{"PRN":74,"el":10.0,"az":318.0,"ss":13.0,"used":true,"gnssid":6,"svid":10},{"PRN":81,"el":9.0,"az":110.0,"ss":16.0,"used":true,"gnssid":6,"svid":17},{"PRN":82,"el":51.0,"az":77.0,"ss":39.0,"used":true,"gnssid":6,"svid":18},{"PRN":83,"el":52.0,"az":346.0,"ss":29.0,"used":true,"gnssid":6,"svid":19},{"PRN":84,"el":5.0,"az":307.0,"ss":0.0,"used":false,"gnssid":6,"svid":20},{"PRN":303,"el":44.0,"az":149.0,"ss":40.0,"used":false,"gnssid":2,"svid":3},{"PRN":305,"el":42.0,"az":71.0,"ss":39.0,"used":false,"gnssid":2,"svid":5},{"PRN":308,"el":8.0,"az":190.0,"ss":0.0,"used":false,"gnssid":2,"svid":8},{"PRN":309,"el":6.0,"az":34.0,"ss":0.0,"used":false,"gnssid":2,"svid":9},{"PRN":313,"el":11.0,"az":292.0,"ss":0.0,"used":false,"gnssid":2,"svid":13},{"PRN":315,"el":56.0,"az":322.0,"ss":39.0,"used":false,"gnssid":2,"svid":15},{"PRN":321,"el":10.0,"az":318.0,"ss":0.0,"used":false,"gnssid":2,"svid":21},{"PRN":327,"el":24.0,"az":268.0,"ss":26.0,"used":false,"gnssid":2,"svid":27},{"PRN":330,"el":14.0,"az":215.0,"ss":16.0,"used":false,"gnssid":2,"svid":30},{"PRN":36,"el":8.0,"az":98.0,"ss":0.0,"used":false,"gnssid":1,"svid":123},{"PRN":404,"el":1.0,"az":262.0,"ss":0.0,"used":false,"gnssid":3,"svid":4},{"PRN":407,"el":3.0,"az":328.0,"ss":0.0,"used":false,"gnssid":3,"svid":7},{"PRN":427,"el":78.0,"az":59.0,"ss":44.0,"used":false,"gnssid":3,"svid":27},{"PRN":428,"el":29.0,"az":115.0,"ss":34.0,"used":false,"gnssid":3,"svid":28},{"PRN":430,"el":37.0,"az":312.0,"ss":36.0,"used":false,"gnssid":3,"svid":30},{"PRN":432,"el":45.0,"az":196.0,"ss":44.0,"used":false,"gnssid":3,"svid":32},{"PRN":33,"el":20.0,"az":43.0,"ss":27.0,"used":true,"gnssid":1,"svid":120}]}
$GNGLL,3806.62964,N,12237.61382,W,223745.00,A,D*6C
{"class":"TPV","status":2,"mode":3,"time":"2020-07-11T22:37:45.000Z","ept":0.005,"lat":38.110494000,"lon":-122.626897000,"altHAE":53.6000,"altMSL":83.1000,"alt":83.1000,"epx":1.619,"epy":2.077,"epv":4.772,"magvar":13.4,"speed":0.021,"geoidSep":-29.500,"eph":2.565,"sep":4.702}
$GNGST,223745.00,228650,2.5,2.4,126,0.98,1.0,3.1*41
{"class":"GST","time":"2020-07-11T22:37:45.000Z","rms":228650.000,"major":2.500,"minor":2.400,"orient":126.000,"lat":0.980,"lon":1.000,"alt":3.100}
$GNZDA,223745.00,11,07,2020,00,00*7A
$GNGBS,223745.00,1.0,1.0,3.1,,,,,,*58
$GNRMC,223746.00,A,3806.62966,N,12237.61384,W,0.061,,110720,,,D,V*0A
$GNVTG,,T,,M,0.061,N,0.114,K,D*3B
$GNGGA,223746.00,3806.62966,N,12237.61384,W,2,12,0.56,83.0,M,-29.5,M,,0000*40
$GNGSA,A,3,29,20,18,16,51,13,44,26,,,,,1.04,0.56,0.88,1*02
$GNGSA,A,3,82,73,74,67,81,83,68,,,,,,1.04,0.56,0.88,2*04
$GNGSA,A,3,03,05,30,27,15,,,,,,,,1.04,0.56,0.88,3*01
$GNGSA,A,3,32,28,30,33,27,,,,,,,,1.04,0.56,0.88,4*0F
$GPGSV,4,1,16,05,01,047,,10,29,224,,13,22,062,24,15,40,094,,1*62
$GPGSV,4,2,16,16,25,306,29,18,68,358,39,20,63,235,37,21,35,292,,1*63
$GPGSV,4,3,16,23,58,225,,25,00,179,,26,33,265,36,27,07,316,,1*63
$GPGSV,4,4,16,29,46,133,43,44,45,171,45,46,45,191,43,51,43,156,43,1*60
$GLGSV,3,1,10,66,09,027,,67,56,054,40,68,55,168,44,69,08,194,20,1*78
$GLGSV,3,2,10,73,13,282,30,74,10,318,15,81,09,110,11,82,51,077,39,1*7D
$GLGSV,3,3,10,83,52,346,29,84,05,307,,1*72
{"class":"SKY","xdop":0.46,"ydop":0.59,"vdop":0.88,"tdop":0.68,"hdop":0.56,"gdop":1.46,"pdop":1.04,"nSat":26,"uSat":15,"satellites":[{"PRN":5,"el":1.0,"az":47.0,"ss":0.0,"used":false,"gnssid":0,"svid":5},{"PRN":10,"el":29.0,"az":224.0,"ss":0.0,"used":false,"gnssid":0,"svid":10},{"PRN":13,"el":22.0,"az":62.0,"ss":24.0,"used":true,"gnssid":0,"svid":13},{"PRN":15,"el":40.0,"az":94.0,"ss":0.0,"used":false,"gnssid":0,"svid":15},{"PRN":16,"el":25.0,"az":306.0,"ss":29.0,"used":true,"gnssid":0,"svid":16},{"PRN":18,"el":68.0,"az":358.0,"ss":39.0,"used":true,"gnssid":0,"svid":18},{"PRN":20,"el":63.0,"az":235.0,"ss":37.0,"used":true,"gnssid":0,"svid":20},{"PRN":21,"el":35.0,"az":292.0,"ss":0.0,"used":false,"gnssid":0,"svid":21},{"PRN":23,"el":58.0,"az":225.0,"ss":0.0,"used":false,"gnssid":0,"svid":23},{"PRN":25,"el":0.0,"az":179.0,"ss":0.0,"used":false,"gnssid":0,"svid":25},{"PRN":26,"el":33.0,"az":265.0,"ss":36.0,"used":true,"gnssid":0,"svid":26},{"PRN":27,"el":7.0,"az":316.0,"ss":0.0,"used":false,"gnssid":0,"svid":27},{"PRN":29,"el":46.0,"az":133.0,"ss":43.0,"used":true,"gnssid":0,"svid":29},{"PRN":44,"el":45.0,"az":171.0,"ss":45.0,"used":true,"gnssid":1,"svid":131},{"PRN":46,"el":45.0,"az":191.0,"ss":43.0,"used":false,"gnssid":1,"svid":133},{"PRN":51,"el":43.0,"az":156.0,"ss":43.0,"used":true,"gnssid":1,"svid":138},{"PRN":66,"el":9.0,"az":27.0,"ss":0.0,"used":false,"gnssid":6,"svid":2},{"PRN":67,"el":56.0,"az":54.0,"ss":40.0,"used":true,"gnssid":6,"svid":3},{"PRN":68,"el":55.0,"az":168.0,"ss":44.0,"used":true,"gnssid":6,"svid":4},{"PRN":69,"el":8.0,"az":194.0,"ss":20.0,"used":false,"gnssid":6,"svid":5},{"PRN":73,"el":13.0,"az":282.0,"ss":30.0,"used":true,"gnssid":6,"svid":9},{"PRN":74,"el":10.0,"az":318.0,"ss":15.0,"used":true,"gnssid":6,"svid":10},{"PRN":81,"el":9.0,"az":110.0,"ss":11.0,"used":true,"gnssid":6,"svid":17},{"PRN":82,"el":51.0,"az":77.0,"ss":39.0,"used":true,"gnssid":6,"svid":18},{"PRN":83,"el":52.0,"az":346.0,"ss":29.0,"used":true,"gnssid":6,"svid":19},{"PRN":84,"el":5.0,"az":307.0,"ss":0.0,"used":false,"gnssid":6,"svid":20}]}
$GAGSV,3,1,10,03,44,149,40,05,42,071,40,08,08,190,,09,06,034,,7*7A
$GAGSV,3,2,10,13,11,292,,15,56,322,38,21,10,318,,27,24,268,27,7*75
$GAGSV,3,3,10,30,14,215,20,36,08,098,,7*7C
{"class":"SKY","xdop":0.46,"ydop":0.59,"vdop":0.88,"tdop":0.68,"hdop":0.56,"gdop":1.46,"pdop":1.04,"nSat":36,"uSat":15,"satellites":[{"PRN":5,"el":1.0,"az":47.0,"ss":0.0,"used":false,"gnssid":0,"svid":5},{"PRN":10,"el":29.0,"az":224.0,"ss":0.0,"used":false,"gnssid":0,"svid":10},{"PRN":13,"el":22.0,"az":62.0,"ss":24.0,"used":true,"gnssid":0,"svid":13},{"PRN":15,"el":40.0,"az":94.0,"ss":0.0,"used":false,"gnssid":0,"svid":15},{"PRN":16,"el":25.0,"az":306.0,"ss":29.0,"used":true,"gnssid":0,"svid":16},{"PRN":18,"el":68.0,"az":358.0,"ss":39.0,"used":true,"gnssid":0,"svid":18},{"PRN":20,"el":63.0,"az":235.0,"ss":37.0,"used":true,"gnssid":0,"svid":20},{"PRN":21,"el":35.0,"az":292.0,"ss":0.0,"used":false,"gnssid":0,"svid":21},{"PRN":23,"el":58.0,"az":225.0,"ss":0.0,"used":false,"gnssid":0,"svid":23},{"PRN":25,"el":0.0,"az":179.0,"ss":0.0,"used":false,"gnssid":0,"svid":25},{"PRN":26,"el":33.0,"az":265.0,"ss":36.0,"used":true,"gnssid":0,"svid":26},{"PRN":27,"el":7.0,"az":316.0,"ss":0.0,"used":false,"gnssid":0,"svid":27},{"PRN":29,"el":46.0,"az":133.0,"ss":43.0,"used":true,"gnssid":0,"svid":29},{"PRN":44,"el":45.0,"az":171.0,"ss":45.0,"used":true,"gnssid":1,"svid":131},{"PRN":46,"el":45.0,"az":191.0,"ss":43.0,"used":false,"gnssid":1,"svid":133},{"PRN":51,"el":43.0,"az":156.0,"ss":43.0,"used":true,"gnssid":1,"svid":138},{"PRN":66,"el":9.0,"az":27.0,"ss":0.0,"used":false,"gnssid":6,"svid":2},{"PRN":67,"el":56.0,"az":54.0,"ss":40.0,"used":true,"gnssid":6,"svid":3},{"PRN":68,"el":55.0,"az":168.0,"ss":44.0,"used":true,"gnssid":6,"svid":4},{"PRN":69,"el":8.0,"az":194.0,"ss":20.0,"used":false,"gnssid":6,"svid":5},{"PRN":73,"el":13.0,"az":282.0,"ss":30.0,"used":true,"gnssid":6,"svid":9},{"PRN":74,"el":10.0,"az":318.0,"ss":15.0,"used":true,"gnssid":6,"svid":10},{"PRN":81,"el":9.0,"az":110.0,"ss":11.0,"used":true,"gnssid":6,"svid":17},{"PRN":82,"el":51.0,"az":77.0,"ss":39.0,"used":true,"gnssid":6,"svid":18},{"PRN":83,"el":52.0,"az":346.0,"ss":29.0,"used":true,"gnssid":6,"svid":19},{"PRN":84,"el":5.0,"az":307.0,"ss":0.0,"used":false,"gnssid":6,"svid":20},{"PRN":303,"el":44.0,"az":149.0,"ss":40.0,"used":false,"gnssid":2,"svid":3},{"PRN":305,"el":42.0,"az":71.0,"ss":40.0,"used":false,"gnssid":2,"svid":5},{"PRN":308,"el":8.0,"az":190.0,"ss":0.0,"used":false,"gnssid":2,"svid":8},{"PRN":309,"el":6.0,"az":34.0,"ss":0.0,"used":false,"gnssid":2,"svid":9},{"PRN":313,"el":11.0,"az":292.0,"ss":0.0,"used":false,"gnssid":2,"svid":13},{"PRN":315,"el":56.0,"az":322.0,"ss":38.0,"used":false,"gnssid":2,"svid":15},{"PRN":321,"el":10.0,"az":318.0,"ss":0.0,"used":false,"gnssid":2,"svid":21},{"PRN":327,"el":24.0,"az":268.0,"ss":27.0,"used":false,"gnssid":2,"svid":27},{"PRN":330,"el":14.0,"az":215.0,"ss":20.0,"used":false,"gnssid":2,"svid":30},{"PRN":36,"el":8.0,"az":98.0,"ss":0.0,"used":false,"gnssid":1,"svid":123}]}
$GBGSV,2,1,07,04,01,262,,07,03,328,,27,78,059,44,28,29,115,34,1*79
$GBGSV,2,2,07,30,37,312,36,32,45,196,44,33,20,043,29,1*43
{"class":"SKY","xdop":0.43,"ydop":0.55,"vdop":0.88,"tdop":0.66,"hdop":0.56,"gdop":1.41,"pdop":1.04,"nSat":43,"uSat":16,"satellites":[{"PRN":5,"el":1.0,"az":47.0,"ss":0.0,"used":false,"gnssid":0,"svid":5},{"PRN":10,"el":29.0,"az":224.0,"ss":0.0,"used":false,"gnssid":0,"svid":10},{"PRN":13,"el":22.0,"az":62.0,"ss":24.0,"used":true,"gnssid":0,"svid":13},{"PRN":15,"el":40.0,"az":94.0,"ss":0.0,"used":false,"gnssid":0,"svid":15},{"PRN":16,"el":25.0,"az":306.0,"ss":29.0,"used":true,"gnssid":0,"svid":16},{"PRN":18,"el":68.0,"az":358.0,"ss":39.0,"used":true,"gnssid":0,"svid":18},{"PRN":20,"el":63.0,"az":235.0,"ss":37.0,"used":true,"gnssid":0,"svid":20},{"PRN":21,"el":35.0,"az":292.0,"ss":0.0,"used":false,"gnssid":0,"svid":21},{"PRN":23,"el":58.0,"az":225.0,"ss":0.0,"used":false,"gnssid":0,"svid":23},{"PRN":25,"el":0.0,"az":179.0,"ss":0.0,"used":false,"gnssid":0,"svid":25},{"PRN":26,"el":33.0,"az":265.0,"ss":36.0,"used":true,"gnssid":0,"svid":26},{"PRN":27,"el":7.0,"az":316.0,"ss":0.0,"used":false,"gnssid":0,"svid":27},{"PRN":29,"el":46.0,"az":133.0,"ss":43.0,"used":true,"gnssid":0,"svid":29},{"PRN":44,"el":45.0,"az":171.0,"ss":45.0,"used":true,"gnssid":1,"svid":131},{"PRN":46,"el":45.0,"az":191.0,"ss":43.0,"used":false,"gnssid":1,"svid":133},{"PRN":51,"el":43.0,"az":156.0,"ss":43.0,"used":true,"gnssid":1,"svid":138},{"PRN":66,"el":9.0,"az":27.0,"ss":0.0,"used":false,"gnssid":6,"svid":2},{"PRN":67,"el":56.0,"az":54.0,"ss":40.0,"used":true,"gnssid":6,"svid":3},{"PRN":68,"el":55.0,"az":168.0,"ss":44.0,"used":true,"gnssid":6,"svid":4},{"PRN":69,"el":8.0,"az":194.0,"ss":20.0,"used":false,"gnssid":6,"svid":5},{"PRN":73,"el":13.0,"az":282.0,"ss":30.0,"used":true,"gnssid":6,"svid":9},{"PRN":74,"el":10.0,"az":318.0,"ss":15.0,"used":true,"gnssid":6,"svid":10},{"PRN":81,"el":9.0,"az":110.0,"ss":11.0,"used":true,"gnssid":6,"svid":17},{"PRN":82,"el":51.0,"az":77.0,"ss":39.0,"used":true,"gnssid":6,"svid":18},{"PRN":83,"el":52.0,"az":346.0,"ss":29.0,"used":true,"gnssid":6,"svid":19},{"PRN":84,"el":5.0,"az":307.0,"ss":0.0,"used":false,"gnssid":6,"svid":20},{"PRN":303,"el":44.0,"az":149.0,"ss":40.0,"used":false,"gnssid":2,"svid":3},{"PRN":305,"el":42.0,"az":71.0,"ss":40.0,"used":false,"gnssid":2,"svid":5},{"PRN":308,"el":8.0,"az":190.0,"ss":0.0,"used":false,"gnssid":2,"svid":8},{"PRN":309,"el":6.0,"az":34.0,"ss":0.0,"used":false,"gnssid":2,"svid":9},{"PRN":313,"el":11.0,"az":292.0,"ss":0.0,"used":false,"gnssid":2,"svid":13},{"PRN":315,"el":56.0,"az":322.0,"ss":38.0,"used":false,"gnssid":2,"svid":15},{"PRN":321,"el":10.0,"az":318.0,"ss":0.0,"used":false,"gnssid":2,"svid":21},{"PRN":327,"el":24.0,"az":268.0,"ss":27.0,"used":false,"gnssid":2,"svid":27},{"PRN":330,"el":14.0,"az":215.0,"ss":20.0,"used":false,"gnssid":2,"svid":30},{"PRN":36,"el":8.0,"az":98.0,"ss":0.0,"used":false,"gnssid":1,"svid":123},{"PRN":404,"el":1.0,"az":262.0,"ss":0.0,"used":false,"gnssid":3,"svid":4},{"PRN":407,"el":3.0,"az":328.0,"ss":0.0,"used":false,"gnssid":3,"svid":7},{"PRN":427,"el":78.0,"az":59.0,"ss":44.0,"used":false,"gnssid":3,"svid":27},{"PRN":428,"el":29.0,"az":115.0,"ss":34.0,"used":false,"gnssid":3,"svid":28},{"PRN":430,"el":37.0,"az":312.0,"ss":36.0,"used":false,"gnssid":3,"svid":30},{"PRN":432,"el":45.0,"az":196.0,"ss":44.0,"used":false,"gnssid":3,"svid":32},{"PRN":33,"el":20.0,"az":43.0,"ss":29.0,"used":true,"gnssid":1,"svid":120}]}
$GNGLL,3806.62966,N,12237.61384,W,223746.00,A,D*6B
$GNGST,223746.00,837,2.5,2.4,127,0.98,1.0,3.0*75
{"class":"GST","time":"2020-07-11T22:37:46.000Z","rms":837.000,"major":2.500,"minor":2.400,"orient":127.000,"lat":0.980,"lon":1.000,"alt":3.000}
$GNZDA,223746.00,11,07,2020,00,00*79
$GNGBS,223746.00,1.0,1.0,3.0,,,,,,*5A
{"class":"TPV","status":2,"mode":3,"time":"2020-07-11T22:37:46.000Z","ept":0.005,"lat":38.110494333,"lon":-122.626897333,"altHAE":53.5000,"altMSL":83.0000,"alt":83.0000,"epx":1.000,"epy":1.000,"epv":3.000,"magvar":13.4,"speed":0.031,"climb":-0.100,"eps":2.00,"epc":6.10,"geoidSep":-29.500,"eph":2.565,"sep":4.702}
$GNRMC,223747.00,A,3806.62968,N,12237.61386,W,0.084,,110720,,,D,V*0C
$GNVTG,,T,,M,0.084,N,0.155,K,D*35
$GNGGA,223747.00,3806.62968,N,12237.61386,W,2,12,0.56,83.0,M,-29.5,M,,0000*4D
$GNGSA,A,3,29,20,18,16,51,13,44,26,,,,,1.04,0.56,0.88,1*02
$GNGSA,A,3,82,73,74,67,81,83,68,,,,,,1.04,0.56,0.88,2*04
$GNGSA,A,3,03,05,30,27,15,,,,,,,,1.04,0.56,0.88,3*01
$GNGSA,A,3,32,28,30,33,27,,,,,,,,1.04,0.56,0.88,4*0F
$GPGSV,4,1,16,05,01,047,,10,29,224,,13,22,062,23,15,40,094,,1*65
$GPGSV,4,2,16,16,25,306,28,18,68,358,39,20,63,235,37,21,35,292,,1*62
$GPGSV,4,3,16,23,58,225,,25,00,179,,26,33,265,36,27,07,316,,1*63
$GPGSV,4,4,16,29,46,133,42,44,45,171,45,46,45,191,43,51,43,156,43,1*61
$GLGSV,3,1,10,66,09,027,,67,56,054,40,68,55,168,44,69,08,194,18,1*73
$GLGSV,3,2,10,73,13,282,30,74,10,318,11,81,09,110,13,82,51,077,40,1*75
$GLGSV,3,3,10,83,52,346,29,84,05,307,,1*72
{"class":"SKY","xdop":0.46,"ydop":0.59,"vdop":0.88,"tdop":0.68,"hdop":0.56,"gdop":1.46,"pdop":1.04,"nSat":26,"uSat":15,"satellites":[{"PRN":5,"el":1.0,"az":47.0,"ss":0.0,"used":false,"gnssid":0,"svid":5},{"PRN":10,"el":29.0,"az":224.0,"ss":0.0,"used":false,"gnssid":0,"svid":10},{"PRN":13,"el":22.0,"az":62.0,"ss":23.0,"used":true,"gnssid":0,"svid":13},{"PRN":15,"el":40.0,"az":94.0,"ss":0.0,"used":false,"gnssid":0,"svid":15},{"PRN":16,"el":25.0,"az":306.0,"ss":28.0,"used":true,"gnssid":0,"svid":16},{"PRN":18,"el":68.0,"az":358.0,"ss":39.0,"used":true,"gnssid":0,"svid":18},{"PRN":20,"el":63.0,"az":235.0,"ss":37.0,"used":true,"gnssid":0,"svid":20},{"PRN":21,"el":35.0,"az":292.0,"ss":0.0,"used":false,"gnssid":0,"svid":21},{"PRN":23,"el":58.0,"az":225.0,"ss":0.0,"used":false,"gnssid":0,"svid":23},{"PRN":25,"el":0.0,"az":179.0,"ss":0.0,"used":false,"gnssid":0,"svid":25},{"PRN":26,"el":33.0,"az":265.0,"ss":36.0,"used":true,"gnssid":0,"svid":26},{"PRN":27,"el":7.0,"az":316.0,"ss":0.0,"used":false,"gnssid":0,"svid":27},{"PRN":29,"el":46.0,"az":133.0,"ss":42.0,"used":true,"gnssid":0,"svid":29},{"PRN":44,"el":45.0,"az":171.0,"ss":45.0,"used":true,"gnssid":1,"svid":131},{"PRN":46,"el":45.0,"az":191.0,"ss":43.0,"used":false,"gnssid":1,"svid":133},{"PRN":51,"el":43.0,"az":156.0,"ss":43.0,"used":true,"gnssid":1,"svid":138},{"PRN":66,"el":9.0,"az":27.0,"ss":0.0,"used":false,"gnssid":6,"svid":2},{"PRN":67,"el":56.0,"az":54.0,"ss":40.0,"used":true,"gnssid":6,"svid":3},{"PRN":68,"el":55.0,"az":168.0,"ss":44.0,"used":true,"gnssid":6,"svid":4},{"PRN":69,"el":8.0,"az":194.0,"ss":18.0,"used":false,"gnssid":6,"svid":5},{"PRN":73,"el":13.0,"az":282.0,"ss":30.0,"used":true,"gnssid":6,"svid":9},{"PRN":74,"el":10.0,"az":318.0,"ss":11.0,"used":true,"gnssid":6,"svid":10},{"PRN":81,"el":9.0,"az":110.0,"ss":13.0,"used":true,"gnssid":6,"svid":17},{"PRN":82,"el":51.0,"az":77.0,"ss":40.0,"used":true,"gnssid":6,"svid":18},{"PRN":83,"el":52.0,"az":346.0,"ss":29.0,"used":true,"gnssid":6,"svid":19},{"PRN":84,"el":5.0,"az":307.0,"ss":0.0,"used":false,"gnssid":6,"svid":20}]}
$GAGSV,3,1,10,03,44,149,41,05,42,071,39,08,08,190,,09,06,034,,7*75
$GAGSV,3,2,10,13,11,292,,15,56,322,39,21,10,318,,27,24,268,27,7*74
$GAGSV,3,3,10,30,14,215,21,36,08,098,,7*7D
{"class":"SKY","xdop":0.46,"ydop":0.59,"vdop":0.88,"tdop":0.68,"hdop":0.56,"gdop":1.46,"pdop":1.04,"nSat":36,"uSat":15,"satellites":[{"PRN":5,"el":1.0,"az":47.0,"ss":0.0,"used":false,"gnssid":0,"svid":5},{"PRN":10,"el":29.0,"az":224.0,"ss":0.0,"used":false,"gnssid":0,"svid":10},{"PRN":13,"el":22.0,"az":62.0,"ss":23.0,"used":true,"gnssid":0,"svid":13},{"PRN":15,"el":40.0,"az":94.0,"ss":0.0,"used":false,"gnssid":0,"svid":15},{"PRN":16,"el":25.0,"az":306.0,"ss":28.0,"used":true,"gnssid":0,"svid":16},{"PRN":18,"el":68.0,"az":358.0,"ss":39.0,"used":true,"gnssid":0,"svid":18},{"PRN":20,"el":63.0,"az":235.0,"ss":37.0,"used":true,"gnssid":0,"svid":20},{"PRN":21,"el":35.0,"az":292.0,"ss":0.0,"used":false,"gnssid":0,"svid":21},{"PRN":23,"el":58.0,"az":225.0,"ss":0.0,"used":false,"gnssid":0,"svid":23},{"PRN":25,"el":0.0,"az":179.0,"ss":0.0,"used":false,"gnssid":0,"svid":25},{"PRN":26,"el":33.0,"az":265.0,"ss":36.0,"used":true,"gnssid":0,"svid":26},{"PRN":27,"el":7.0,"az":316.0,"ss":0.0,"used":false,"gnssid":0,"svid":27},{"PRN":29,"el":46.0,"az":133.0,"ss":42.0,"used":true,"gnssid":0,"svid":29},{"PRN":44,"el":45.0,"az":171.0,"ss":45.0,"used":true,"gnssid":1,"svid":131},{"PRN":46,"el":45.0,"az":191.0,"ss":43.0,"used":false,"gnssid":1,"svid":133},{"PRN":51,"el":43.0,"az":156.0,"ss":43.0,"used":true,"gnssid":1,"svid":138},{"PRN":66,"el":9.0,"az":27.0,"ss":0.0,"used":false,"gnssid":6,"svid":2},{"PRN":67,"el":56.0,"az":54.0,"ss":40.0,"used":true,"gnssid":6,"svid":3},{"PRN":68,"el":55.0,"az":168.0,"ss":44.0,"used":true,"gnssid":6,"svid":4},{"PRN":69,"el":8.0,"az":194.0,"ss":18.0,"used":false,"gnssid":6,"svid":5},{"PRN":73,"el":13.0,"az":282.0,"ss":30.0,"used":true,"gnssid":6,"svid":9},{"PRN":74,"el":10.0,"az":318.0,"ss":11.0,"used":true,"gnssid":6,"svid":10},{"PRN":81,"el":9.0,"az":110.0,"ss":13.0,"used":true,"gnssid":6,"svid":17},{"PRN":82,"el":51.0,"az":77.0,"ss":40.0,"used":true,"gnssid":6,"svid":18},{"PRN":83,"el":52.0,"az":346.0,"ss":29.0,"used":true,"gnssid":6,"svid":19},{"PRN":84,"el":5.0,"az":307.0,"ss":0.0,"used":false,"gnssid":6,"svid":20},{"PRN":303,"el":44.0,"az":149.0,"ss":41.0,"used":false,"gnssid":2,"svid":3},{"PRN":305,"el":42.0,"az":71.0,"ss":39.0,"used":false,"gnssid":2,"svid":5},{"PRN":308,"el":8.0,"az":190.0,"ss":0.0,"used":false,"gnssid":2,"svid":8},{"PRN":309,"el":6.0,"az":34.0,"ss":0.0,"used":false,"gnssid":2,"svid":9},{"PRN":313,"el":11.0,"az":292.0,"ss":0.0,"used":false,"gnssid":2,"svid":13},{"PRN":315,"el":56.0,"az":322.0,"ss":39.0,"used":false,"gnssid":2,"svid":15},{"PRN":321,"el":10.0,"az":318.0,"ss":0.0,"used":false,"gnssid":2,"svid":21},{"PRN":327,"el":24.0,"az":268.0,"ss":27.0,"used":false,"gnssid":2,"svid":27},{"PRN":330,"el":14.0,"az":215.0,"ss":21.0,"used":false,"gnssid":2,"svid":30},{"PRN":36,"el":8.0,"az":98.0,"ss":0.0,"used":false,"gnssid":1,"svid":123}]}
$GBGSV,2,1,07,04,01,262,,07,03,328,,27,78,059,43,28,29,115,34,1*7E
$GBGSV,2,2,07,30,37,312,36,32,45,196,43,33,20,043,29,1*44
{"class":"SKY","xdop":0.43,"ydop":0.55,"vdop":0.88,"tdop":0.66,"hdop":0.56,"gdop":1.41,"pdop":1.04,"nSat":43,"uSat":16,"satellites":[{"PRN":5,"el":1.0,"az":47.0,"ss":0.0,"used":false,"gnssid":0,"svid":5},{"PRN":10,"el":29.0,"az":224.0,"ss":0.0,"used":false,"gnssid":0,"svid":10},{"PRN":13,"el":22.0,"az":62.0,"ss":23.0,"used":true,"gnssid":0,"svid":13},{"PRN":15,"el":40.0,"az":94.0,"ss":0.0,"used":false,"gnssid":0,"svid":15},{"PRN":16,"el":25.0,"az":306.0,"ss":28.0,"used":true,"gnssid":0,"svid":16},{"PRN":18,"el":68.0,"az":358.0,"ss":39.0,"used":true,"gnssid":0,"svid":18},{"PRN":20,"el":63.0,"az":235.0,"ss":37.0,"used":true,"gnssid":0,"svid":20},{"PRN":21,"el":35.0,"az":292.0,"ss":0.0,"used":false,"gnssid":0,"svid":21},{"PRN":23,"el":58.0,"az":225.0,"ss":0.0,"used":false,"gnssid":0,"svid":23},{"PRN":25,"el":0.0,"az":179.0,"ss":0.0,"used":false,"gnssid":0,"svid":25},{"PRN":26,"el":33.0,"az":265.0,"ss":36.0,"used":true,"gnssid":0,"svid":26},{"PRN":27,"el":7.0,"az":316.0,"ss":0.0,"used":false,"gnssid":0,"svid":27},{"PRN":29,"el":46.0,"az":133.0,"ss":42.0,"used":true,"gnssid":0,"svid":29},{"PRN":44,"el":45.0,"az":171.0,"ss":45.0,"used":true,"gnssid":1,"svid":131},{"PRN":46,"el":45.0,"az":191.0,"ss":43.0,"used":false,"gnssid":1,"svid":133},{"PRN":51,"el":43.0,"az":156.0,"ss":43.0,"used":true,"gnssid":1,"svid":138},{"PRN":66,"el":9.0,"az":27.0,"ss":0.0,"used":false,"gnssid":6,"svid":2},{"PRN":67,"el":56.0,"az":54.0,"ss":40.0,"used":true,"gnssid":6,"svid":3},{"PRN":68,"el":55.0,"az":168.0,"ss":44.0,"used":true,"gnssid":6,"svid":4},{"PRN":69,"el":8.0,"az":194.0,"ss":18.0,"used":false,"gnssid":6,"svid":5},{"PRN":73,"el":13.0,"az":282.0,"ss":30.0,"used":true,"gnssid":6,"svid":9},{"PRN":74,"el":10.0,"az":318.0,"ss":11.0,"used":true,"gnssid":6,"svid":10},{"PRN":81,"el":9.0,"az":110.0,"ss":13.0,"used":true,"gnssid":6,"svid":17},{"PRN":82,"el":51.0,"az":77.0,"ss":40.0,"used":true,"gnssid":6,"svid":18},{"PRN":83,"el":52.0,"az":346.0,"ss":29.0,"used":true,"gnssid":6,"svid":19},{"PRN":84,"el":5.0,"az":307.0,"ss":0.0,"used":false,"gnssid":6,"svid":20},{"PRN":303,"el":44.0,"az":149.0,"ss":41.0,"used":false,"gnssid":2,"svid":3},{"PRN":305,"el":42.0,"az":71.0,"ss":39.0,"used":false,"gnssid":2,"svid":5},{"PRN":308,"el":8.0,"az":190.0,"ss":0.0,"used":false,"gnssid":2,"svid":8},{"PRN":309,"el":6.0,"az":34.0,"ss":0.0,"used":false,"gnssid":2,"svid":9},{"PRN":313,"el":11.0,"az":292.0,"ss":0.0,"used":false,"gnssid":2,"svid":13},{"PRN":315,"el":56.0,"az":322.0,"ss":39.0,"used":false,"gnssid":2,"svid":15},{"PRN":321,"el":10.0,"az":318.0,"ss":0.0,"used":false,"gnssid":2,"svid":21},{"PRN":327,"el":24.0,"az":268.0,"ss":27.0,"used":false,"gnssid":2,"svid":27},{"PRN":330,"el":14.0,"az":215.0,"ss":21.0,"used":false,"gnssid":2,"svid":30},{"PRN":36,"el":8.0,"az":98.0,"ss":0.0,"used":false,"gnssid":1,"svid":123},{"PRN":404,"el":1.0,"az":262.0,"ss":0.0,"used":false,"gnssid":3,"svid":4},{"PRN":407,"el":3.0,"az":328.0,"ss":0.0,"used":false,"gnssid":3,"svid":7},{"PRN":427,"el":78.0,"az":59.0,"ss":43.0,"used":false,"gnssid":3,"svid":27},{"PRN":428,"el":29.0,"az":115.0,"ss":34.0,"used":false,"gnssid":3,"svid":28},{"PRN":430,"el":37.0,"az":312.0,"ss":36.0,"used":false,"gnssid":3,"svid":30},{"PRN":432,"el":45.0,"az":196.0,"ss":43.0,"used":false,"gnssid":3,"svid":32},{"PRN":33,"el":20.0,"az":43.0,"ss":29.0,"used":true,"gnssid":1,"svid":120}]}
$GNGLL,3806.62968,N,12237.61386,W,223747.00,A,D*66
$GNGST,223747.00,865,2.5,2.4,125,0.98,1.0,3.0*71
{"class":"GST","time":"2020-07-11T22:37:47.000Z","rms":865.000,"major":2.500,"minor":2.400,"orient":125.000,"lat":0.980,"lon":1.000,"alt":3.000}
$GNZDA,223747.00,11,07,2020,00,00*78
$GNGBS,223747.00,1.0,1.0,3.0,,,,,,*5B
{"class":"TPV","status":2,"mode":3,"time":"2020-07-11T22:37:47.000Z","ept":0.005,"lat":38.110494667,"lon":-122.626897667,"altHAE":53.5000,"altMSL":83.0000,"alt":83.0000,"epx":1.000,"epy":1.000,"epv":3.000,"magvar":13.4,"speed":0.043,"climb":0.000,"eps":2.00,"epc":6.00,"geoidSep":-29.500,"eph":2.660,"sep":4.940}
$GNRMC,223748.00,A,3806.62969,N,12237.61387,W,0.041,,110720,,,D,V*0A
$GNVTG,,T,,M,0.041,N,0.076,K,D*3C
$GNGGA,223748.00,3806.62969,N,12237.61387,W,2,12,0.56,82.9,M,-29.5,M,,0000*4A
$GNGSA,A,3,29,20,18,16,51,13,44,26,,,,,1.04,0.56,0.88,1*02
$GNGSA,A,3,82,73,74,67,81,83,68,,,,,,1.04,0.56,0.88,2*04
$GNGSA,A,3,03,05,30,27,15,,,,,,,,1.04,0.56,0.88,3*01
$GNGSA,A,3,32,28,30,33,27,,,,,,,,1.04,0.56,0.88,4*0F
$GPGSV,4,1,16,05,01,047,,10,29,224,,13,22,062,23,15,40,094,,1*65
$GPGSV,4,2,16,16,25,306,28,18,68,358,39,20,63,235,36,21,35,292,,1*63
$GPGSV,4,3,16,23,58,225,,25,00,179,,26,33,265,36,27,07,316,,1*63
$GPGSV,4,4,16,29,46,133,43,44,45,171,45,46,45,191,42,51,43,156,43,1*61
$GLGSV,3,1,10,66,09,027,,67,56,054,40,68,55,168,44,69,08,194,19,1*72
$GLGSV,3,2,10,73,13,282,30,74,10,318,12,81,09,110,18,82,51,077,40,1*7D
$GLGSV,3,3,10,83,52,346,28,84,05,307,,1*73
{"class":"SKY","xdop":0.46,"ydop":0.59,"vdop":0.88,"tdop":0.68,"hdop":0.56,"gdop":1.46,"pdop":1.04,"nSat":26,"uSat":15,"satellites":[{"PRN":5,"el":1.0,"az":47.0,"ss":0.0,"used":false,"gnssid":0,"svid":5},{"PRN":10,"el":29.0,"az":224.0,"ss":0.0,"used":false,"gnssid":0,"svid":10},{"PRN":13,"el":22.0,"az":62.0,"ss":23.0,"used":true,"gnssid":0,"svid":13},{"PRN":15,"el":40.0,"az":94.0,"ss":0.0,"used":false,"gnssid":0,"svid":15},{"PRN":16,"el":25.0,"az":306.0,"ss":28.0,"used":true,"gnssid":0,"svid":16},{"PRN":18,"el":68.0,"az":358.0,"ss":39.0,"used":true,"gnssid":0,"svid":18},{"PRN":20,"el":63.0,"az":235.0,"ss":36.0,"used":true,"gnssid":0,"svid":20},{"PRN":21,"el":35.0,"az":292.0,"ss":0.0,"used":false,"gnssid":0,"svid":21},{"PRN":23,"el":58.0,"az":225.0,"ss":0.0,"used":false,"gnssid":0,"svid":23},{"PRN":25,"el":0.0,"az":179.0,"ss":0.0,"used":false,"gnssid":0,"svid":25},{"PRN":26,"el":33.0,"az":265.0,"ss":36.0,"used":true,"gnssid":0,"svid":26},{"PRN":27,"el":7.0,"az":316.0,"ss":0.0,"used":false,"gnssid":0,"svid":27},{"PRN":29,"el":46.0,"az":133.0,"ss":43.0,"used":true,"gnssid":0,"svid":29},{"PRN":44,"el":45.0,"az":171.0,"ss":45.0,"used":true,"gnssid":1,"svid":131},{"PRN":46,"el":45.0,"az":191.0,"ss":42.0,"used":false,"gnssid":1,"svid":133},{"PRN":51,"el":43.0,"az":156.0,"ss":43.0,"used":true,"gnssid":1,"svid":138},{"PRN":66,"el":9.0,"az":27.0,"ss":0.0,"used":false,"gnssid":6,"svid":2},{"PRN":67,"el":56.0,"az":54.0,"ss":40.0,"used":true,"gnssid":6,"svid":3},{"PRN":68,"el":55.0,"az":168.0,"ss":44.0,"used":true,"gnssid":6,"svid":4},{"PRN":69,"el":8.0,"az":194.0,"ss":19.0,"used":false,"gnssid":6,"svid":5},{"PRN":73,"el":13.0,"az":282.0,"ss":30.0,"used":true,"gnssid":6,"svid":9},{"PRN":74,"el":10.0,"az":318.0,"ss":12.0,"used":true,"gnssid":6,"svid":10},{"PRN":81,"el":9.0,"az":110.0,"ss":18.0,"used":true,"gnssid":6,"svid":17},{"PRN":82,"el":51.0,"az":77.0,"ss":40.0,"used":true,"gnssid":6,"svid":18},{"PRN":83,"el":52.0,"az":346.0,"ss":28.0,"used":true,"gnssid":6,"svid":19},{"PRN":84,"el":5.0,"az":307.0,"ss":0.0,"used":false,"gnssid":6,"svid":20}]}
$GAGSV,3,1,10,03,44,149,41,05,42,071,39,08,08,190,,09,06,034,,7*75
$GAGSV,3,2,10,13,11,292,,15,56,322,39,21,10,318,,27,24,268,27,7*74
$GAGSV,3,3,10,30,14,215,21,36,08,098,,7*7D
{"class":"SKY","xdop":0.46,"ydop":0.59,"vdop":0.88,"tdop":0.68,"hdop":0.56,"gdop":1.46,"pdop":1.04,"nSat":36,"uSat":15,"satellites":[{"PRN":5,"el":1.0,"az":47.0,"ss":0.0,"used":false,"gnssid":0,"svid":5},{"PRN":10,"el":29.0,"az":224.0,"ss":0.0,"used":false,"gnssid":0,"svid":10},{"PRN":13,"el":22.0,"az":62.0,"ss":23.0,"used":true,"gnssid":0,"svid":13},{"PRN":15,"el":40.0,"az":94.0,"ss":0.0,"used":false,"gnssid":0,"svid":15},{"PRN":16,"el":25.0,"az":306.0,"ss":28.0,"used":true,"gnssid":0,"svid":16},{"PRN":18,"el":68.0,"az":358.0,"ss":39.0,"used":true,"gnssid":0,"svid":18},{"PRN":20,"el":63.0,"az":235.0,"ss":36.0,"used":true,"gnssid":0,"svid":20},{"PRN":21,"el":35.0,"az":292.0,"ss":0.0,"used":false,"gnssid":0,"svid":21},{"PRN":23,"el":58.0,"az":225.0,"ss":0.0,"used":false,"gnssid":0,"svid":23},{"PRN":25,"el":0.0,"az":179.0,"ss":0.0,"used":false,"gnssid":0,"svid":25},{"PRN":26,"el":33.0,"az":265.0,"ss":36.0,"used":true,"gnssid":0,"svid":26},{"PRN":27,"el":7.0,"az":316.0,"ss":0.0,"used":false,"gnssid":0,"svid":27},{"PRN":29,"el":46.0,"az":133.0,"ss":43.0,"used":true,"gnssid":0,"svid":29},{"PRN":44,"el":45.0,"az":171.0,"ss":45.0,"used":true,"gnssid":1,"svid":131},{"PRN":46,"el":45.0,"az":191.0,"ss":42.0,"used":false,"gnssid":1,"svid":133},{"PRN":51,"el":43.0,"az":156.0,"ss":43.0,"used":true,"gnssid":1,"svid":138},{"PRN":66,"el":9.0,"az":27.0,"ss":0.0,"used":false,"gnssid":6,"svid":2},{"PRN":67,"el":56.0,"az":54.0,"ss":40.0,"used":true,"gnssid":6,"svid":3},{"PRN":68,"el":55.0,"az":168.0,"ss":44.0,"used":true,"gnssid":6,"svid":4},{"PRN":69,"el":8.0,"az":194.0,"ss":19.0,"used":false,"gnssid":6,"svid":5},{"PRN":73,"el":13.0,"az":282.0,"ss":30.0,"used":true,"gnssid":6,"svid":9},{"PRN":74,"el":10.0,"az":318.0,"ss":12.0,"used":true,"gnssid":6,"svid":10},{"PRN":81,"el":9.0,"az":110.0,"ss":18.0,"used":true,"gnssid":6,"svid":17},{"PRN":82,"el":51.0,"az":77.0,"ss":40.0,"used":true,"gnssid":6,"svid":18},{"PRN":83,"el":52.0,"az":346.0,"ss":28.0,"used":true,"gnssid":6,"svid":19},{"PRN":84,"el":5.0,"az":307.0,"ss":0.0,"used":false,"gnssid":6,"svid":20},{"PRN":303,"el":44.0,"az":149.0,"ss":41.0,"used":false,"gnssid":2,"svid":3},{"PRN":305,"el":42.0,"az":71.0,"ss":39.0,"used":false,"gnssid":2,"svid":5},{"PRN":308,"el":8.0,"az":190.0,"ss":0.0,"used":false,"gnssid":2,"svid":8},{"PRN":309,"el":6.0,"az":34.0,"ss":0.0,"used":false,"gnssid":2,"svid":9},{"PRN":313,"el":11.0,"az":292.0,"ss":0.0,"used":false,"gnssid":2,"svid":13},{"PRN":315,"el":56.0,"az":322.0,"ss":39.0,"used":false,"gnssid":2,"svid":15},{"PRN":321,"el":10.0,"az":318.0,"ss":0.0,"used":false,"gnssid":2,"svid":21},{"PRN":327,"el":24.0,"az":268.0,"ss":27.0,"used":false,"gnssid":2,"svid":27},{"PRN":330,"el":14.0,"az":215.0,"ss":21.0,"used":false,"gnssid":2,"svid":30},{"PRN":36,"el":8.0,"az":98.0,"ss":0.0,"used":false,"gnssid":1,"svid":123}]}
$GBGSV,2,1,07,04,01,262,,07,03,328,,27,78,059,43,28,29,115,35,1*7F
$GBGSV,2,2,07,30,38,312,37,32,45,196,43,33,20,043,29,1*4A
{"class":"SKY","xdop":0.43,"ydop":0.55,"vdop":0.88,"tdop":0.66,"hdop":0.56,"gdop":1.41,"pdop":1.04,"nSat":43,"uSat":16,"satellites":[{"PRN":5,"el":1.0,"az":47.0,"ss":0.0,"used":false,"gnssid":0,"svid":5},{"PRN":10,"el":29.0,"az":224.0,"ss":0.0,"used":false,"gnssid":0,"svid":10},{"PRN":13,"el":22.0,"az":62.0,"ss":23.0,"used":true,"gnssid":0,"svid":13},{"PRN":15,"el":40.0,"az":94.0,"ss":0.0,"used":false,"gnssid":0,"svid":15},{"PRN":16,"el":25.0,"az":306.0,"ss":28.0,"used":true,"gnssid":0,"svid":16},{"PRN":18,"el":68.0,"az":358.0,"ss":39.0,"used":true,"gnssid":0,"svid":18},{"PRN":20,"el":63.0,"az":235.0,"ss":36.0,"used":true,"gnssid":0,"svid":20},{"PRN":21,"el":35.0,"az":292.0,"ss":0.0,"used":false,"gnssid":0,"svid":21},{"PRN":23,"el":58.0,"az":225.0,"ss":0.0,"used":false,"gnssid":0,"svid":23},{"PRN":25,"el":0.0,"az":179.0,"ss":0.0,"used":false,"gnssid":0,"svid":25},{"PRN":26,"el":33.0,"az":265.0,"ss":36.0,"used":true,"gnssid":0,"svid":26},{"PRN":27,"el":7.0,"az":316.0,"ss":0.0,"used":false,"gnssid":0,"svid":27},{"PRN":29,"el":46.0,"az":133.0,"ss":43.0,"used":true,"gnssid":0,"svid":29},{"PRN":44,"el":45.0,"az":171.0,"ss":45.0,"used":true,"gnssid":1,"svid":131},{"PRN":46,"el":45.0,"az":191.0,"ss":42.0,"used":false,"gnssid":1,"svid":133},{"PRN":51,"el":43.0,"az":156.0,"ss":43.0,"used":true,"gnssid":1,"svid":138},{"PRN":66,"el":9.0,"az":27.0,"ss":0.0,"used":false,"gnssid":6,"svid":2},{"PRN":67,"el":56.0,"az":54.0,"ss":40.0,"used":true,"gnssid":6,"svid":3},{"PRN":68,"el":55.0,"az":168.0,"ss":44.0,"used":true,"gnssid":6,"svid":4},{"PRN":69,"el":8.0,"az":194.0,"ss":19.0,"used":false,"gnssid":6,"svid":5},{"PRN":73,"el":13.0,"az":282.0,"ss":30.0,"used":true,"gnssid":6,"svid":9},{"PRN":74,"el":10.0,"az":318.0,"ss":12.0,"used":true,"gnssid":6,"svid":10},{"PRN":81,"el":9.0,"az":110.0,"ss":18.0,"used":true,"gnssid":6,"svid":17},{"PRN":82,"el":51.0,"az":77.0,"ss":40.0,"used":true,"gnssid":6,"svid":18},{"PRN":83,"el":52.0,"az":346.0,"ss":28.0,"used":true,"gnssid":6,"svid":19},{"PRN":84,"el":5.0,"az":307.0,"ss":0.0,"used":false,"gnssid":6,"svid":20},{"PRN":303,"el":44.0,"az":149.0,"ss":41.0,"used":false,"gnssid":2,"svid":3},{"PRN":305,"el":42.0,"az":71.0,"ss":39.0,"used":false,"gnssid":2,"svid":5},{"PRN":308,"el":8.0,"az":190.0,"ss":0.0,"used":false,"gnssid":2,"svid":8},{"PRN":309,"el":6.0,"az":34.0,"ss":0.0,"used":false,"gnssid":2,"svid":9},{"PRN":313,"el":11.0,"az":292.0,"ss":0.0,"used":false,"gnssid":2,"svid":13},{"PRN":315,"el":56.0,"az":322.0,"ss":39.0,"used":false,"gnssid":2,"svid":15},{"PRN":321,"el":10.0,"az":318.0,"ss":0.0,"used":false,"gnssid":2,"svid":21},{"PRN":327,"el":24.0,"az":268.0,"ss":27.0,"used":false,"gnssid":2,"svid":27},{"PRN":330,"el":14.0,"az":215.0,"ss":21.0,"used":false,"gnssid":2,"svid":30},{"PRN":36,"el":8.0,"az":98.0,"ss":0.0,"used":false,"gnssid":1,"svid":123},{"PRN":404,"el":1.0,"az":262.0,"ss":0.0,"used":false,"gnssid":3,"svid":4},{"PRN":407,"el":3.0,"az":328.0,"ss":0.0,"used":false,"gnssid":3,"svid":7},{"PRN":427,"el":78.0,"az":59.0,"ss":43.0,"used":false,"gnssid":3,"svid":27},{"PRN":428,"el":29.0,"az":115.0,"ss":35.0,"used":false,"gnssid":3,"svid":28},{"PRN":430,"el":38.0,"az":312.0,"ss":37.0,"used":false,"gnssid":3,"svid":30},{"PRN":432,"el":45.0,"az":196.0,"ss":43.0,"used":false,"gnssid":3,"svid":32},{"PRN":33,"el":20.0,"az":43.0,"ss":29.0,"used":true,"gnssid":1,"svid":120}]}
$GNGLL,3806.62969,N,12237.61387,W,223748.00,A,D*69
$GNGST,223748.00,865,2.5,2.4,125,0.98,1.0,3.0*7E
{"class":"GST","time":"2020-07-11T22:37:48.000Z","rms":865.000,"major":2.500,"minor":2.400,"orient":125.000,"lat":0.980,"lon":1.000,"alt":3.000}
$GNZDA,223748.00,11,07,2020,00,00*77
$GNGBS,223748.00,1.0,1.0,3.0,,,,,,*54
{"class":"TPV","status":2,"mode":3,"time":"2020-07-11T22:37:48.000Z","ept":0.005,"lat":38.110494833,"lon":-122.626897833,"altHAE":53.4000,"altMSL":82.9000,"alt":82.9000,"epx":1.000,"epy":1.000,"epv":3.000,"magvar":13.4,"speed":0.021,"climb":-0.100,"eps":2.00,"epc":6.00,"geoidSep":-29.500,"eph":2.660,"sep":4.940}
$GNRMC,223749.00,A,3806.62969,N,12237.61388,W,0.012,,110720,,,D,V*02
$GNVTG,,T,,M,0.012,N,0.021,K,D*38
$GNGGA,223749.00,3806.62969,N,12237.61388,W,2,12,0.56,82.8,M,-29.5,M,,0000*45
$GNGSA,A,3,29,20,18,16,51,13,44,26,,,,,1.04,0.56,0.88,1*02
$GNGSA,A,3,82,73,74,67,81,83,68,,,,,,1.04,0.56,0.88,2*04
$GNGSA,A,3,03,05,30,27,15,,,,,,,,1.04,0.56,0.88,3*01
$GNGSA,A,3,32,28,30,33,27,,,,,,,,1.04,0.56,0.88,4*0F
$GPGSV,4,1,16,05,01,047,,10,29,224,,13,22,062,23,15,40,094,,1*65
$GPGSV,4,2,16,16,25,306,29,18,68,358,38,20,63,235,37,21,35,292,,1*62
$GPGSV,4,3,16,23,58,225,,25,00,179,,26,33,265,36,27,07,316,,1*63
$GPGSV,4,4,16,29,46,133,43,44,45,171,45,46,45,191,43,51,43,156,43,1*60
$GLGSV,3,1,10,66,09,027,,67,56,054,40,68,55,168,44,69,08,194,19,1*72
$GLGSV,3,2,10,73,13,282,31,74,10,318,16,81,09,110,15,82,51,077,40,1*75
$GLGSV,3,3,10,83,52,346,28,84,05,307,,1*73
{"class":"SKY","xdop":0.46,"ydop":0.59,"vdop":0.88,"tdop":0.68,"hdop":0.56,"gdop":1.46,"pdop":1.04,"nSat":26,"uSat":15,"satellites":[{"PRN":5,"el":1.0,"az":47.0,"ss":0.0,"used":false,"gnssid":0,"svid":5},{"PRN":10,"el":29.0,"az":224.0,"ss":0.0,"used":false,"gnssid":0,"svid":10},{"PRN":13,"el":22.0,"az":62.0,"ss":23.0,"used":true,"gnssid":0,"svid":13},{"PRN":15,"el":40.0,"az":94.0,"ss":0.0,"used":false,"gnssid":0,"svid":15},{"PRN":16,"el":25.0,"az":306.0,"ss":29.0,"used":true,"gnssid":0,"svid":16},{"PRN":18,"el":68.0,"az":358.0,"ss":38.0,"used":true,"gnssid":0,"svid":18},{"PRN":20,"el":63.0,"az":235.0,"ss":37.0,"used":true,"gnssid":0,"svid":20},{"PRN":21,"el":35.0,"az":292.0,"ss":0.0,"used":false,"gnssid":0,"svid":21},{"PRN":23,"el":58.0,"az":225.0,"ss":0.0,"used":false,"gnssid":0,"svid":23},{"PRN":25,"el":0.0,"az":179.0,"ss":0.0,"used":false,"gnssid":0,"svid":25},{"PRN":26,"el":33.0,"az":265.0,"ss":36.0,"used":true,"gnssid":0,"svid":26},{"PRN":27,"el":7.0,"az":316.0,"ss":0.0,"used":false,"gnssid":0,"svid":27},{"PRN":29,"el":46.0,"az":133.0,"ss":43.0,"used":true,"gnssid":0,"svid":29},{"PRN":44,"el":45.0,"az":171.0,"ss":45.0,"used":true,"gnssid":1,"svid":131},{"PRN":46,"el":45.0,"az":191.0,"ss":43.0,"used":false,"gnssid":1,"svid":133},{"PRN":51,"el":43.0,"az":156.0,"ss":43.0,"used":true,"gnssid":1,"svid":138},{"PRN":66,"el":9.0,"az":27.0,"ss":0.0,"used":false,"gnssid":6,"svid":2},{"PRN":67,"el":56.0,"az":54.0,"ss":40.0,"used":true,"gnssid":6,"svid":3},{"PRN":68,"el":55.0,"az":168.0,"ss":44.0,"used":true,"gnssid":6,"svid":4},{"PRN":69,"el":8.0,"az":194.0,"ss":19.0,"used":false,"gnssid":6,"svid":5},{"PRN":73,"el":13.0,"az":282.0,"ss":31.0,"used":true,"gnssid":6,"svid":9},{"PRN":74,"el":10.0,"az":318.0,"ss":16.0,"used":true,"gnssid":6,"svid":10},{"PRN":81,"el":9.0,"az":110.0,"ss":15.0,"used":true,"gnssid":6,"svid":17},{"PRN":82,"el":51.0,"az":77.0,"ss":40.0,"used":true,"gnssid":6,"svid":18},{"PRN":83,"el":52.0,"az":346.0,"ss":28.0,"used":true,"gnssid":6,"svid":19},{"PRN":84,"el":5.0,"az":307.0,"ss":0.0,"used":false,"gnssid":6,"svid":20}]}
$GAGSV,3,1,10,03,44,149,41,05,42,071,39,08,08,190,,09,06,034,,7*75
$GAGSV,3,2,10,13,11,292,,15,56,322,39,21,10,318,,27,24,268,28,7*7B
$GAGSV,3,3,10,30,14,215,18,36,08,098,,7*77
{"class":"SKY","xdop":0.46,"ydop":0.59,"vdop":0.88,"tdop":0.68,"hdop":0.56,"gdop":1.46,"pdop":1.04,"nSat":36,"uSat":15,"satellites":[{"PRN":5,"el":1.0,"az":47.0,"ss":0.0,"used":false,"gnssid":0,"svid":5},{"PRN":10,"el":29.0,"az":224.0,"ss":0.0,"used":false,"gnssid":0,"svid":10},{"PRN":13,"el":22.0,"az":62.0,"ss":23.0,"used":true,"gnssid":0,"svid":13},{"PRN":15,"el":40.0,"az":94.0,"ss":0.0,"used":false,"gnssid":0,"svid":15},{"PRN":16,"el":25.0,"az":306.0,"ss":29.0,"used":true,"gnssid":0,"svid":16},{"PRN":18,"el":68.0,"az":358.0,"ss":38.0,"used":true,"gnssid":0,"svid":18},{"PRN":20,"el":63.0,"az":235.0,"ss":37.0,"used":true,"gnssid":0,"svid":20},{"PRN":21,"el":35.0,"az":292.0,"ss":0.0,"used":false,"gnssid":0,"svid":21},{"PRN":23,"el":58.0,"az":225.0,"ss":0.0,"used":false,"gnssid":0,"svid":23},{"PRN":25,"el":0.0,"az":179.0,"ss":0.0,"used":false,"gnssid":0,"svid":25},{"PRN":26,"el":33.0,"az":265.0,"ss":36.0,"used":true,"gnssid":0,"svid":26},{"PRN":27,"el":7.0,"az":316.0,"ss":0.0,"used":false,"gnssid":0,"svid":27},{"PRN":29,"el":46.0,"az":133.0,"ss":43.0,"used":true,"gnssid":0,"svid":29},{"PRN":44,"el":45.0,"az":171.0,"ss":45.0,"used":true,"gnssid":1,"svid":131},{"PRN":46,"el":45.0,"az":191.0,"ss":43.0,"used":false,"gnssid":1,"svid":133},{"PRN":51,"el":43.0,"az":156.0,"ss":43.0,"used":true,"gnssid":1,"svid":138},{"PRN":66,"el":9.0,"az":27.0,"ss":0.0,"used":false,"gnssid":6,"svid":2},{"PRN":67,"el":56.0,"az":54.0,"ss":40.0,"used":true,"gnssid":6,"svid":3},{"PRN":68,"el":55.0,"az":168.0,"ss":44.0,"used":true,"gnssid":6,"svid":4},{"PRN":69,"el":8.0,"az":194.0,"ss":19.0,"used":false,"gnssid":6,"svid":5},{"PRN":73,"el":13.0,"az":282.0,"ss":31.0,"used":true,"gnssid":6,"svid":9},{"PRN":74,"el":10.0,"az":318.0,"ss":16.0,"used":true,"gnssid":6,"svid":10},{"PRN":81,"el":9.0,"az":110.0,"ss":15.0,"used":true,"gnssid":6,"svid":17},{"PRN":82,"el":51.0,"az":77.0,"ss":40.0,"used":true,"gnssid":6,"svid":18},{"PRN":83,"el":52.0,"az":346.0,"ss":28.0,"used":true,"gnssid":6,"svid":19},{"PRN":84,"el":5.0,"az":307.0,"ss":0.0,"used":false,"gnssid":6,"svid":20},{"PRN":303,"el":44.0,"az":149.0,"ss":41.0,"used":false,"gnssid":2,"svid":3},{"PRN":305,"el":42.0,"az":71.0,"ss":39.0,"used":false,"gnssid":2,"svid":5},{"PRN":308,"el":8.0,"az":190.0,"ss":0.0,"used":false,"gnssid":2,"svid":8},{"PRN":309,"el":6.0,"az":34.0,"ss":0.0,"used":false,"gnssid":2,"svid":9},{"PRN":313,"el":11.0,"az":292.0,"ss":0.0,"used":false,"gnssid":2,"svid":13},{"PRN":315,"el":56.0,"az":322.0,"ss":39.0,"used":false,"gnssid":2,"svid":15},{"PRN":321,"el":10.0,"az":318.0,"ss":0.0,"used":false,"gnssid":2,"svid":21},{"PRN":327,"el":24.0,"az":268.0,"ss":28.0,"used":false,"gnssid":2,"svid":27},{"PRN":330,"el":14.0,"az":215.0,"ss":18.0,"used":false,"gnssid":2,"svid":30},{"PRN":36,"el":8.0,"az":98.0,"ss":0.0,"used":false,"gnssid":1,"svid":123}]}
$GBGSV,2,1,07,04,01,262,,07,03,328,,27,78,059,43,28,29,115,35,1*7F
$GBGSV,2,2,07,30,38,312,37,32,46,196,44,33,20,043,28,1*4F
{"class":"SKY","xdop":0.43,"ydop":0.55,"vdop":0.88,"tdop":0.66,"hdop":0.56,"gdop":1.41,"pdop":1.04,"nSat":43,"uSat":16,"satellites":[{"PRN":5,"el":1.0,"az":47.0,"ss":0.0,"used":false,"gnssid":0,"svid":5},{"PRN":10,"el":29.0,"az":224.0,"ss":0.0,"used":false,"gnssid":0,"svid":10},{"PRN":13,"el":22.0,"az":62.0,"ss":23.0,"used":true,"gnssid":0,"svid":13},{"PRN":15,"el":40.0,"az":94.0,"ss":0.0,"used":false,"gnssid":0,"svid":15},{"PRN":16,"el":25.0,"az":306.0,"ss":29.0,"used":true,"gnssid":0,"svid":16},{"PRN":18,"el":68.0,"az":358.0,"ss":38.0,"used":true,"gnssid":0,"svid":18},{"PRN":20,"el":63.0,"az":235.0,"ss":37.0,"used":true,"gnssid":0,"svid":20},{"PRN":21,"el":35.0,"az":292.0,"ss":0.0,"used":false,"gnssid":0,"svid":21},{"PRN":23,"el":58.0,"az":225.0,"ss":0.0,"used":false,"gnssid":0,"svid":23},{"PRN":25,"el":0.0,"az":179.0,"ss":0.0,"used":false,"gnssid":0,"svid":25},{"PRN":26,"el":33.0,"az":265.0,"ss":36.0,"used":true,"gnssid":0,"svid":26},{"PRN":27,"el":7.0,"az":316.0,"ss":0.0,"used":false,"gnssid":0,"svid":27},{"PRN":29,"el":46.0,"az":133.0,"ss":43.0,"used":true,"gnssid":0,"svid":29},{"PRN":44,"el":45.0,"az":171.0,"ss":45.0,"used":true,"gnssid":1,"svid":131},{"PRN":46,"el":45.0,"az":191.0,"ss":43.0,"used":false,"gnssid":1,"svid":133},{"PRN":51,"el":43.0,"az":156.0,"ss":43.0,"used":true,"gnssid":1,"svid":138},{"PRN":66,"el":9.0,"az":27.0,"ss":0.0,"used":false,"gnssid":6,"svid":2},{"PRN":67,"el":56.0,"az":54.0,"ss":40.0,"used":true,"gnssid":6,"svid":3},{"PRN":68,"el":55.0,"az":168.0,"ss":44.0,"used":true,"gnssid":6,"svid":4},{"PRN":69,"el":8.0,"az":194.0,"ss":19.0,"used":false,"gnssid":6,"svid":5},{"PRN":73,"el":13.0,"az":282.0,"ss":31.0,"used":true,"gnssid":6,"svid":9},{"PRN":74,"el":10.0,"az":318.0,"ss":16.0,"used":true,"gnssid":6,"svid":10},{"PRN":81,"el":9.0,"az":110.0,"ss":15.0,"used":true,"gnssid":6,"svid":17},{"PRN":82,"el":51.0,"az":77.0,"ss":40.0,"used":true,"gnssid":6,"svid":18},{"PRN":83,"el":52.0,"az":346.0,"ss":28.0,"used":true,"gnssid":6,"svid":19},{"PRN":84,"el":5.0,"az":307.0,"ss":0.0,"used":false,"gnssid":6,"svid":20},{"PRN":303,"el":44.0,"az":149.0,"ss":41.0,"used":false,"gnssid":2,"svid":3},{"PRN":305,"el":42.0,"az":71.0,"ss":39.0,"used":false,"gnssid":2,"svid":5},{"PRN":308,"el":8.0,"az":190.0,"ss":0.0,"used":false,"gnssid":2,"svid":8},{"PRN":309,"el":6.0,"az":34.0,"ss":0.0,"used":false,"gnssid":2,"svid":9},{"PRN":313,"el":11.0,"az":292.0,"ss":0.0,"used":false,"gnssid":2,"svid":13},{"PRN":315,"el":56.0,"az":322.0,"ss":39.0,"used":false,"gnssid":2,"svid":15},{"PRN":321,"el":10.0,"az":318.0,"ss":0.0,"used":false,"gnssid":2,"svid":21},{"PRN":327,"el":24.0,"az":268.0,"ss":28.0,"used":false,"gnssid":2,"svid":27},{"PRN":330,"el":14.0,"az":215.0,"ss":18.0,"used":false,"gnssid":2,"svid":30},{"PRN":36,"el":8.0,"az":98.0,"ss":0.0,"used":false,"gnssid":1,"svid":123},{"PRN":404,"el":1.0,"az":262.0,"ss":0.0,"used":false,"gnssid":3,"svid":4},{"PRN":407,"el":3.0,"az":328.0,"ss":0.0,"used":false,"gnssid":3,"svid":7},{"PRN":427,"el":78.0,"az":59.0,"ss":43.0,"used":false,"gnssid":3,"svid":27},{"PRN":428,"el":29.0,"az":115.0,"ss":35.0,"used":false,"gnssid":3,"svid":28},{"PRN":430,"el":38.0,"az":312.0,"ss":37.0,"used":false,"gnssid":3,"svid":30},{"PRN":432,"el":46.0,"az":196.0,"ss":44.0,"used":false,"gnssid":3,"svid":32},{"PRN":33,"el":20.0,"az":43.0,"ss":28.0,"used":true,"gnssid":1,"svid":120}]}
$GNGLL,3806.62969,N,12237.61388,W,223749.00,A,D*67
$GNGST,223749.00,837,2.5,2.4,126,0.98,1.0,3.0*7B
{"class":"GST","time":"2020-07-11T22:37:49.000Z","rms":837.000,"major":2.500,"minor":2.400,"orient":126.000,"lat":0.980,"lon":1.000,"alt":3.000}
$GNZDA,223749.00,11,07,2020,00,00*76
$GNGBS,223749.00,1.0,1.0,3.0,,,,,,*55
{"class":"TPV","status":2,"mode":3,"time":"2020-07-11T22:37:49.000Z","ept":0.005,"lat":38.110494833,"lon":-122.626898000,"altHAE":53.3000,"altMSL":82.8000,"alt":82.8000,"epx":1.000,"epy":1.000,"epv":3.000,"magvar":13.4,"speed":0.006,"climb":-0.100,"eps":2.00,"epc":6.00,"geoidSep":-29.500,"eph":2.660,"sep":4.940}
$GNRMC,223750.00,A,3806.62969,N,12237.61389,W,0.039,,110720,,,D,V*02
$GNVTG,,T,,M,0.039,N,0.072,K,D*37
$GNGGA,223750.00,3806.62969,N,12237.61389,W,2,12,0.56,82.7,M,-29.5,M,,0000*43
$GNGSA,A,3,29,20,18,16,51,13,44,26,,,,,1.04,0.56,0.88,1*02
$GNGSA,A,3,82,73,74,67,81,83,68,,,,,,1.04,0.56,0.88,2*04
$GNGSA,A,3,03,05,30,27,15,,,,,,,,1.04,0.56,0.88,3*01
$GNGSA,A,3,32,28,30,33,27,,,,,,,,1.04,0.56,0.88,4*0F
$GPGSV,4,1,16,05,01,047,,10,29,224,,13,22,062,23,15,40,094,,1*65
$GPGSV,4,2,16,16,25,306,29,18,68,358,39,20,63,235,37,21,35,292,,1*63
$GPGSV,4,3,16,23,58,225,,25,00,179,,26,33,265,35,27,07,316,,1*60
$GPGSV,4,4,16,29,46,133,44,44,45,171,45,46,45,191,43,51,43,156,43,1*67
$GLGSV,3,1,10,66,09,027,,67,56,054,40,68,55,168,44,69,08,194,18,1*73
$GLGSV,3,2,10,73,13,282,31,74,10,318,10,81,09,110,19,82,51,077,39,1*71
$GLGSV,3,3,10,83,52,346,28,84,05,307,,1*73
{"class":"SKY","xdop":0.46,"ydop":0.59,"vdop":0.88,"tdop":0.68,"hdop":0.56,"gdop":1.46,"pdop":1.04,"nSat":26,"uSat":15,"satellites":[{"PRN":5,"el":1.0,"az":47.0,"ss":0.0,"used":false,"gnssid":0,"svid":5},{"PRN":10,"el":29.0,"az":224.0,"ss":0.0,"used":false,"gnssid":0,"svid":10},{"PRN":13,"el":22.0,"az":62.0,"ss":23.0,"used":true,"gnssid":0,"svid":13},{"PRN":15,"el":40.0,"az":94.0,"ss":0.0,"used":false,"gnssid":0,"svid":15},{"PRN":16,"el":25.0,"az":306.0,"ss":29.0,"used":true,"gnssid":0,"svid":16},{"PRN":18,"el":68.0,"az":358.0,"ss":39.0,"used":true,"gnssid":0,"svid":18},{"PRN":20,"el":63.0,"az":235.0,"ss":37.0,"used":true,"gnssid":0,"svid":20},{"PRN":21,"el":35.0,"az":292.0,"ss":0.0,"used":false,"gnssid":0,"svid":21},{"PRN":23,"el":58.0,"az":225.0,"ss":0.0,"used":false,"gnssid":0,"svid":23},{"PRN":25,"el":0.0,"az":179.0,"ss":0.0,"used":false,"gnssid":0,"svid":25},{"PRN":26,"el":33.0,"az":265.0,"ss":35.0,"used":true,"gnssid":0,"svid":26},{"PRN":27,"el":7.0,"az":316.0,"ss":0.0,"used":false,"gnssid":0,"svid":27},{"PRN":29,"el":46.0,"az":133.0,"ss":44.0,"used":true,"gnssid":0,"svid":29},{"PRN":44,"el":45.0,"az":171.0,"ss":45.0,"used":true,"gnssid":1,"svid":131},{"PRN":46,"el":45.0,"az":191.0,"ss":43.0,"used":false,"gnssid":1,"svid":133},{"PRN":51,"el":43.0,"az":156.0,"ss":43.0,"used":true,"gnssid":1,"svid":138},{"PRN":66,"el":9.0,"az":27.0,"ss":0.0,"used":false,"gnssid":6,"svid":2},{"PRN":67,"el":56.0,"az":54.0,"ss":40.0,"used":true,"gnssid":6,"svid":3},{"PRN":68,"el":55.0,"az":168.0,"ss":44.0,"used":true,"gnssid":6,"svid":4},{"PRN":69,"el":8.0,"az":194.0,"ss":18.0,"used":false,"gnssid":6,"svid":5},{"PRN":73,"el":13.0,"az":282.0,"ss":31.0,"used":true,"gnssid":6,"svid":9},{"PRN":74,"el":10.0,"az":318.0,"ss":10.0,"used":true,"gnssid":6,"svid":10},{"PRN":81,"el":9.0,"az":110.0,"ss":19.0,"used":true,"gnssid":6,"svid":17},{"PRN":82,"el":51.0,"az":77.0,"ss":39.0,"used":true,"gnssid":6,"svid":18},{"PRN":83,"el":52.0,"az":346.0,"ss":28.0,"used":true,"gnssid":6,"svid":19},{"PRN":84,"el":5.0,"az":307.0,"ss":0.0,"used":false,"gnssid":6,"svid":20}]}
$GAGSV,3,1,10,03,44,149,41,05,42,071,39,08,08,190,,09,06,034,,7*75
$GAGSV,3,2,10,13,11,292,,15,56,322,39,21,10,318,,27,24,268,29,7*7A
$GAGSV,3,3,10,30,14,215,20,36,08,098,,7*7C
{"class":"SKY","xdop":0.46,"ydop":0.59,"vdop":0.88,"tdop":0.68,"hdop":0.56,"gdop":1.46,"pdop":1.04,"nSat":36,"uSat":15,"satellites":[{"PRN":5,"el":1.0,"az":47.0,"ss":0.0,"used":false,"gnssid":0,"svid":5},{"PRN":10,"el":29.0,"az":224.0,"ss":0.0,"used":false,"gnssid":0,"svid":10},{"PRN":13,"el":22.0,"az":62.0,"ss":23.0,"used":true,"gnssid":0,"svid":13},{"PRN":15,"el":40.0,"az":94.0,"ss":0.0,"used":false,"gnssid":0,"svid":15},{"PRN":16,"el":25.0,"az":306.0,"ss":29.0,"used":true,"gnssid":0,"svid":16},{"PRN":18,"el":68.0,"az":358.0,"ss":39.0,"used":true,"gnssid":0,"svid":18},{"PRN":20,"el":63.0,"az":235.0,"ss":37.0,"used":true,"gnssid":0,"svid":20},{"PRN":21,"el":35.0,"az":292.0,"ss":0.0,"used":false,"gnssid":0,"svid":21},{"PRN":23,"el":58.0,"az":225.0,"ss":0.0,"used":false,"gnssid":0,"svid":23},{"PRN":25,"el":0.0,"az":179.0,"ss":0.0,"used":false,"gnssid":0,"svid":25},{"PRN":26,"el":33.0,"az":265.0,"ss":35.0,"used":true,"gnssid":0,"svid":26},{"PRN":27,"el":7.0,"az":316.0,"ss":0.0,"used":false,"gnssid":0,"svid":27},{"PRN":29,"el":46.0,"az":133.0,"ss":44.0,"used":true,"gnssid":0,"svid":29},{"PRN":44,"el":45.0,"az":171.0,"ss":45.0,"used":true,"gnssid":1,"svid":131},{"PRN":46,"el":45.0,"az":191.0,"ss":43.0,"used":false,"gnssid":1,"svid":133},{"PRN":51,"el":43.0,"az":156.0,"ss":43.0,"used":true,"gnssid":1,"svid":138},{"PRN":66,"el":9.0,"az":27.0,"ss":0.0,"used":false,"gnssid":6,"svid":2},{"PRN":67,"el":56.0,"az":54.0,"ss":40.0,"used":true,"gnssid":6,"svid":3},{"PRN":68,"el":55.0,"az":168.0,"ss":44.0,"used":true,"gnssid":6,"svid":4},{"PRN":69,"el":8.0,"az":194.0,"ss":18.0,"used":false,"gnssid":6,"svid":5},{"PRN":73,"el":13.0,"az":282.0,"ss":31.0,"used":true,"gnssid":6,"svid":9},{"PRN":74,"el":10.0,"az":318.0,"ss":10.0,"used":true,"gnssid":6,"svid":10},{"PRN":81,"el":9.0,"az":110.0,"ss":19.0,"used":true,"gnssid":6,"svid":17},{"PRN":82,"el":51.0,"az":77.0,"ss":39.0,"used":true,"gnssid":6,"svid":18},{"PRN":83,"el":52.0,"az":346.0,"ss":28.0,"used":true,"gnssid":6,"svid":19},{"PRN":84,"el":5.0,"az":307.0,"ss":0.0,"used":false,"gnssid":6,"svid":20},{"PRN":303,"el":44.0,"az":149.0,"ss":41.0,"used":false,"gnssid":2,"svid":3},{"PRN":305,"el":42.0,"az":71.0,"ss":39.0,"used":false,"gnssid":2,"svid":5},{"PRN":308,"el":8.0,"az":190.0,"ss":0.0,"used":false,"gnssid":2,"svid":8},{"PRN":309,"el":6.0,"az":34.0,"ss":0.0,"used":false,"gnssid":2,"svid":9},{"PRN":313,"el":11.0,"az":292.0,"ss":0.0,"used":false,"gnssid":2,"svid":13},{"PRN":315,"el":56.0,"az":322.0,"ss":39.0,"used":false,"gnssid":2,"svid":15},{"PRN":321,"el":10.0,"az":318.0,"ss":0.0,"used":false,"gnssid":2,"svid":21},{"PRN":327,"el":24.0,"az":268.0,"ss":29.0,"used":false,"gnssid":2,"svid":27},{"PRN":330,"el":14.0,"az":215.0,"ss":20.0,"used":false,"gnssid":2,"svid":30},{"PRN":36,"el":8.0,"az":98.0,"ss":0.0,"used":false,"gnssid":1,"svid":123}]}
$GBGSV,2,1,07,04,01,262,,07,03,328,,27,78,059,44,28,29,115,35,1*78
$GBGSV,2,2,07,30,38,312,37,32,46,196,44,33,19,043,28,1*45
