$GPZDA,231120.00,23,12,2007,00,00*62
$GPGGA,231120.00,2037.7569215,N,08704.0845315,W,2,07,,76.92,M,-15.012,M,,*7F
$GPRMC,231120.00,A,2037.7569215,N,8704.0845315,W,0.0000,0.000,231207,-2.0,W*79
$GPGSA,A,3,,,,,,,,,,,,,2.6,,*36
{"class":"TPV","status":2,"mode":3,"time":"2007-12-23T23:11:19.999Z","ept":0.005,"lat":20.629282025,"lon":-87.068075525,"altHAE":61.9117,"altMSL":76.9234,"alt":76.9234,"track":0.0000,"magtrack":358.0078,"magvar":-2.0,"speed":0.000,"climb":0.000,"eps":0.17,"ecefx":305449.31,"ecefy":-5963890.99,"ecefz":2233051.73,"ecefvx":0.00,"ecefvy":0.00,"ecefvz":0.00,"ecefpAcc":2.80,"ecefvAcc":0.17,"velN":0.000,"velE":0.000,"velD":0.000,"geoidSep":-15.012,"sep":12.350}
{"class":"SKY","pdop":2.60}
{"class":"SKY","gdop":2.92,"hdop":1.67,"pdop":2.60,"tdop":1.33,"vdop":2.00}
$GPGSV,4,1,14,26,66,116,00,15,67,141,32,24,44,344,00,02,21,089,31*7C
$GPGSV,4,2,14,30,21,234,50,05,18,217,40,12,16,201,41,18,25,255,41*7D
$GPGSV,4,3,14,10,31,032,00,21,19,310,00,48,33,251,45,06,54,308,24*71
$GPGSV,4,4,14,09,05,174,00,35,-9,000,00*60
{"class":"SKY","time":"2007-12-23T23:11:23.999Z","gdop":2.92,"hdop":1.67,"pdop":2.60,"tdop":1.33,"xdop":0.69,"ydop":1.52,"vdop":2.00,"nSat":14,"uSat":7,"satellites":[{"PRN":26,"gnssid":0,"svid":26,"az":116.0,"el":66.0,"ss":0.0,"used":false,"health":1},{"PRN":15,"gnssid":0,"svid":15,"az":141.0,"el":67.0,"ss":32.0,"used":true,"health":1},{"PRN":24,"gnssid":0,"svid":24,"az":344.0,"el":44.0,"ss":0.0,"used":false,"health":1},{"PRN":2,"gnssid":0,"svid":2,"az":89.0,"el":21.0,"ss":31.0,"used":true,"health":1},{"PRN":30,"gnssid":0,"svid":30,"az":234.0,"el":21.0,"ss":50.0,"used":true,"health":1},{"PRN":5,"gnssid":0,"svid":5,"az":217.0,"el":18.0,"ss":40.0,"used":true,"health":1},{"PRN":12,"gnssid":0,"svid":12,"az":201.0,"el":16.0,"ss":41.0,"used":true,"health":1},{"PRN":18,"gnssid":0,"svid":18,"az":255.0,"el":25.0,"ss":41.0,"used":true,"health":1},{"PRN":10,"gnssid":0,"svid":10,"az":32.0,"el":31.0,"ss":0.0,"used":false,"health":1},{"PRN":21,"gnssid":0,"svid":21,"az":310.0,"el":19.0,"ss":0.0,"used":false,"health":1},{"PRN":48,"gnssid":1,"svid":135,"az":251.0,"el":33.0,"ss":45.0,"used":true,"health":1},{"PRN":6,"gnssid":0,"svid":6,"az":308.0,"el":54.0,"ss":24.0,"used":false,"health":1},{"PRN":9,"gnssid":0,"svid":9,"az":174.0,"el":5.0,"ss":0.0,"used":false,"health":1},{"PRN":35,"gnssid":1,"svid":122,"az":0.0,"el":-9.0,"ss":0.0,"used":false,"health":1}]}
$GPZDA,231125.00,23,12,2007,00,00*67
$GPGGA,231125.00,2037.7569184,N,08704.0845312,W,2,07,,76.91,M,-15.012,M,,*75
$GPRMC,231125.00,A,2037.7569184,N,8704.0845312,W,0.0000,0.000,231207,-2.0,W*70
$GPGSA,A,3,15,2,30,5,12,18,48,,,,,,2.6,,*30
{"class":"TPV","status":2,"mode":3,"time":"2007-12-23T23:11:24.999Z","leapseconds":14,"ept":0.005,"lat":20.629281973,"lon":-87.068075520,"altHAE":61.8989,"altMSL":76.9105,"alt":76.9105,"track":0.0000,"magtrack":358.0078,"magvar":-2.0,"speed":0.000,"climb":0.000,"eps":0.17,"ecefx":305449.31,"ecefy":-5963890.98,"ecefz":2233051.72,"ecefvx":0.00,"ecefvy":0.00,"ecefvz":0.00,"ecefpAcc":2.80,"ecefvAcc":0.17,"velN":0.000,"velE":0.000,"velD":0.000,"geoidSep":-15.012,"sep":12.350}
{"class":"SKY","time":"2007-12-23T23:11:23.999Z","pdop":2.60}
{"class":"SKY","time":"2007-12-23T23:11:23.999Z","gdop":2.92,"hdop":1.67,"pdop":2.60,"tdop":1.33,"vdop":1.99}
$GPGSV,4,1,14,26,66,116,00,15,67,141,32,24,44,344,00,02,21,089,32*7F
$GPGSV,4,2,14,30,21,234,50,05,18,217,40,12,16,201,41,18,25,255,41*7D
$GPGSV,4,3,14,10,31,032,00,21,19,310,00,48,33,251,45,06,54,308,25*70
$GPGSV,4,4,14,09,05,174,00,35,-9,000,00*60
{"class":"SKY","time":"2007-12-23T23:11:24.999Z","gdop":2.92,"hdop":1.67,"pdop":2.60,"tdop":1.33,"xdop":0.69,"ydop":1.52,"vdop":1.99,"nSat":14,"uSat":7,"satellites":[{"PRN":26,"gnssid":0,"svid":26,"az":116.0,"el":66.0,"ss":0.0,"used":false,"health":1},{"PRN":15,"gnssid":0,"svid":15,"az":141.0,"el":67.0,"ss":32.0,"used":true,"health":1},{"PRN":24,"gnssid":0,"svid":24,"az":344.0,"el":44.0,"ss":0.0,"used":false,"health":1},{"PRN":2,"gnssid":0,"svid":2,"az":89.0,"el":21.0,"ss":32.0,"used":true,"health":1},{"PRN":30,"gnssid":0,"svid":30,"az":234.0,"el":21.0,"ss":50.0,"used":true,"health":1},{"PRN":5,"gnssid":0,"svid":5,"az":217.0,"el":18.0,"ss":40.0,"used":true,"health":1},{"PRN":12,"gnssid":0,"svid":12,"az":201.0,"el":16.0,"ss":41.0,"used":true,"health":1},{"PRN":18,"gnssid":0,"svid":18,"az":255.0,"el":25.0,"ss":41.0,"used":true,"health":1},{"PRN":10,"gnssid":0,"svid":10,"az":32.0,"el":31.0,"ss":0.0,"used":false,"health":1},{"PRN":21,"gnssid":0,"svid":21,"az":310.0,"el":19.0,"ss":0.0,"used":false,"health":1},{"PRN":48,"gnssid":1,"svid":135,"az":251.0,"el":33.0,"ss":45.0,"used":true,"health":1},{"PRN":6,"gnssid":0,"svid":6,"az":308.0,"el":54.0,"ss":25.0,"used":false,"health":1},{"PRN":9,"gnssid":0,"svid":9,"az":174.0,"el":5.0,"ss":0.0,"used":false,"health":1},{"PRN":35,"gnssid":1,"svid":122,"az":0.0,"el":-9.0,"ss":0.0,"used":false,"health":1}]}
$GPZDA,231125.00,23,12,2007,00,00*67
$GPGGA,231125.00,2037.7569184,N,08704.0845312,W,2,07,1.67,76.91,M,-15.012,M,,*6B
$GPRMC,231125.00,A,2037.7569184,N,8704.0845312,W,0.0000,0.000,231207,-2.0,W*70
$GPGSA,A,3,15,2,30,5,12,18,48,,,,,,2.6,1.7,2.0*34
$GPGBS,231125.00,2.588,5.690,11.443,,,,*79
{"class":"TPV","status":2,"mode":3,"time":"2007-12-23T23:11:24.999Z","leapseconds":14,"ept":0.005,"lat":20.629281973,"lon":-87.068075520,"altHAE":61.8989,"altMSL":76.9105,"alt":76.9105,"epx":2.588,"epy":5.690,"epv":11.443,"track":0.0000,"magtrack":358.0078,"magvar":-2.0,"speed":0.000,"climb":0.000,"eps":11.38,"epc":22.94,"ecefx":305449.31,"ecefy":-5963890.98,"ecefz":2233051.72,"ecefvx":0.00,"ecefvy":0.00,"ecefvz":0.00,"ecefpAcc":2.80,"ecefvAcc":0.17,"velN":0.000,"velE":0.000,"velD":0.000,"geoidSep":-15.012,"eph":7.932,"sep":12.350}
$GPZDA,231126.00,23,12,2007,00,00*64
$GPGGA,231126.00,2037.7569081,N,08704.0845254,W,2,07,,76.90,M,-15.012,M,,*70
$GPRMC,231126.00,A,2037.7569081,N,8704.0845254,W,0.0000,0.000,231207,-2.0,W*74
$GPGSA,A,3,15,2,30,5,12,18,48,,,,,,2.6,,*30
{"class":"TPV","status":2,"mode":3,"time":"2007-12-23T23:11:25.999Z","leapseconds":14,"ept":0.005,"lat":20.629281802,"lon":-87.068075424,"altHAE":61.8923,"altMSL":76.9040,"alt":76.9040,"track":0.0000,"magtrack":358.0078,"magvar":-2.0,"speed":0.000,"climb":0.000,"eps":0.17,"ecefx":305449.32,"ecefy":-5963890.98,"ecefz":2233051.70,"ecefvx":0.00,"ecefvy":0.00,"ecefvz":0.00,"ecefpAcc":2.80,"ecefvAcc":0.17,"velN":0.000,"velE":0.000,"velD":0.000,"geoidSep":-15.012,"sep":12.350}
{"class":"SKY","time":"2007-12-23T23:11:24.999Z","pdop":2.60}
{"class":"SKY","time":"2007-12-23T23:11:24.999Z","gdop":2.92,"hdop":1.67,"pdop":2.60,"tdop":1.33,"vdop":1.99}
$GPGSV,4,1,14,26,66,116,00,15,67,141,33,24,44,344,00,02,21,089,33*7F
$GPGSV,4,2,14,30,21,234,50,05,18,217,40,12,16,201,41,18,25,255,41*7D
$GPGSV,4,3,14,10,31,032,00,21,19,310,00,48,33,251,45,06,54,308,24*71
$GPGSV,4,4,14,09,05,174,00,35,-9,000,00*60
{"class":"SKY","time":"2007-12-23T23:11:25.999Z","gdop":2.92,"hdop":1.67,"pdop":2.60,"tdop":1.33,"xdop":0.69,"ydop":1.52,"vdop":1.99,"nSat":14,"uSat":7,"satellites":[{"PRN":26,"gnssid":0,"svid":26,"az":116.0,"el":66.0,"ss":0.0,"used":false,"health":1},{"PRN":15,"gnssid":0,"svid":15,"az":141.0,"el":67.0,"ss":33.0,"used":true,"health":1},{"PRN":24,"gnssid":0,"svid":24,"az":344.0,"el":44.0,"ss":0.0,"used":false,"health":1},{"PRN":2,"gnssid":0,"svid":2,"az":89.0,"el":21.0,"ss":33.0,"used":true,"health":1},{"PRN":30,"gnssid":0,"svid":30,"az":234.0,"el":21.0,"ss":50.0,"used":true,"health":1},{"PRN":5,"gnssid":0,"svid":5,"az":217.0,"el":18.0,"ss":40.0,"used":true,"health":1},{"PRN":12,"gnssid":0,"svid":12,"az":201.0,"el":16.0,"ss":41.0,"used":true,"health":1},{"PRN":18,"gnssid":0,"svid":18,"az":255.0,"el":25.0,"ss":41.0,"used":true,"health":1},{"PRN":10,"gnssid":0,"svid":10,"az":32.0,"el":31.0,"ss":0.0,"used":false,"health":1},{"PRN":21,"gnssid":0,"svid":21,"az":310.0,"el":19.0,"ss":0.0,"used":false,"health":1},{"PRN":48,"gnssid":1,"svid":135,"az":251.0,"el":33.0,"ss":45.0,"used":true,"health":1},{"PRN":6,"gnssid":0,"svid":6,"az":308.0,"el":54.0,"ss":24.0,"used":false,"health":1},{"PRN":9,"gnssid":0,"svid":9,"az":174.0,"el":5.0,"ss":0.0,"used":false,"health":1},{"PRN":35,"gnssid":1,"svid":122,"az":0.0,"el":-9.0,"ss":0.0,"used":false,"health":1}]}
$GPZDA,231126.00,23,12,2007,00,00*64
$GPGGA,231126.00,2037.7569081,N,08704.0845254,W,2,07,1.67,76.90,M,-15.012,M,,*6E
$GPRMC,231126.00,A,2037.7569081,N,8704.0845254,W,0.0000,0.000,231207,-2.0,W*74
$GPGSA,A,3,15,2,30,5,12,18,48,,,,,,2.6,1.7,2.0*34
$GPGBS,231126.00,2.588,5.690,11.443,,,,*7A
{"class":"TPV","status":2,"mode":3,"time":"2007-12-23T23:11:25.999Z","leapseconds":14,"ept":0.005,"lat":20.629281802,"lon":-87.068075424,"altHAE":61.8923,"altMSL":76.9040,"alt":76.9040,"epx":2.588,"epy":5.690,"epv":11.443,"track":0.0000,"magtrack":358.0078,"magvar":-2.0,"speed":0.000,"climb":0.000,"eps":11.38,"epc":22.88,"ecefx":305449.32,"ecefy":-5963890.98,"ecefz":2233051.70,"ecefvx":0.00,"ecefvy":0.00,"ecefvz":0.00,"ecefpAcc":2.80,"ecefvAcc":0.17,"velN":0.000,"velE":0.000,"velD":0.000,"geoidSep":-15.012,"eph":7.932,"sep":12.350}
$GPZDA,231127.00,23,12,2007,00,00*65
$GPGGA,231127.00,2037.7569030,N,08704.0845254,W,2,07,,76.90,M,-15.012,M,,*7B
$GPRMC,231127.00,A,2037.7569030,N,8704.0845254,W,0.0000,0.000,231207,-2.0,W*7F
$GPGSA,A,3,15,2,30,5,12,18,48,,,,,,2.6,,*30
{"class":"TPV","status":2,"mode":3,"time":"2007-12-23T23:11:26.999Z","leapseconds":14,"ept":0.005,"lat":20.629281717,"lon":-87.068075424,"altHAE":61.8888,"altMSL":76.9005,"alt":76.9005,"track":0.0000,"magtrack":358.0078,"magvar":-2.0,"speed":0.000,"climb":0.000,"eps":0.17,"ecefx":305449.32,"ecefy":-5963890.98,"ecefz":2233051.69,"ecefvx":0.00,"ecefvy":0.00,"ecefvz":0.00,"ecefpAcc":2.80,"ecefvAcc":0.17,"velN":0.000,"velE":0.000,"velD":0.000,"geoidSep":-15.012,"sep":12.350}
{"class":"SKY","time":"2007-12-23T23:11:25.999Z","pdop":2.60}
