$GPGSV,3,1,09,66,27,063,33,67,78,017,27,68,41,258,17,75,13,005,32*79
$GPGSV,3,2,09,76,28,063,38,77,14,111,00,82,38,202,18,83,60,271,00*71
$GPGSV,3,3,09,84,16,336,21*4E
{"class":"SKY","time":"2019-04-10T14:52:11.000Z","nSat":9,"uSat":3,"satellites":[{"PRN":66,"gnssid":6,"svid":2,"az":63.0,"el":27.0,"prRes":6.3,"qual":7,"ss":33.0,"used":true,"health":1},{"PRN":67,"gnssid":6,"svid":3,"az":17.0,"el":78.0,"prRes":1.7,"qual":3,"ss":27.0,"used":false,"health":1},{"PRN":68,"gnssid":6,"svid":4,"az":258.0,"el":41.0,"prRes":25.8,"qual":4,"ss":17.0,"used":false,"health":1},{"PRN":75,"gnssid":6,"svid":11,"az":5.0,"el":13.0,"prRes":0.5,"qual":7,"ss":32.0,"used":true,"health":1},{"PRN":76,"gnssid":6,"svid":12,"az":63.0,"el":28.0,"prRes":6.3,"qual":7,"ss":38.0,"used":true,"health":1},{"PRN":77,"gnssid":6,"svid":13,"az":111.0,"el":14.0,"prRes":11.1,"qual":0,"ss":0.0,"used":false,"health":1},{"PRN":82,"gnssid":6,"svid":18,"az":202.0,"el":38.0,"prRes":20.2,"qual":4,"ss":18.0,"used":false,"health":1},{"PRN":83,"gnssid":6,"svid":19,"az":271.0,"el":60.0,"prRes":27.1,"qual":1,"ss":0.0,"used":false,"health":1},{"PRN":84,"gnssid":6,"svid":20,"az":336.0,"el":16.0,"prRes":33.6,"qual":4,"ss":21.0,"used":false,"health":1}]}
$GPGSV,2,1,08,66,27,063,33,67,78,017,27,68,41,258,17,75,13,005,32*79
$GPGSV,2,2,08,76,28,063,38,82,38,202,18,83,60,271,00,84,16,336,21*7B
{"class":"SKY","time":"2019-04-10T14:52:11.000Z","gdop":7.61,"hdop":1.94,"pdop":6.79,"tdop":3.43,"xdop":0.74,"ydop":1.79,"vdop":6.51,"nSat":8,"uSat":6,"satellites":[{"PRN":66,"gnssid":6,"svid":2,"freqid":3,"az":63.0,"el":27.0,"prRes":-0.7,"qual":7,"ss":33.0,"used":true,"health":1},{"PRN":67,"gnssid":6,"svid":3,"freqid":12,"az":17.0,"el":78.0,"prRes":-4.5,"qual":3,"ss":27.0,"used":false,"health":1},{"PRN":68,"gnssid":6,"svid":4,"freqid":13,"az":258.0,"el":41.0,"prRes":0.0,"qual":4,"ss":17.0,"used":true,"health":1},{"PRN":75,"gnssid":6,"svid":11,"freqid":7,"az":5.0,"el":13.0,"prRes":-0.2,"qual":7,"ss":32.0,"used":true,"health":1},{"PRN":76,"gnssid":6,"svid":12,"freqid":6,"az":63.0,"el":28.0,"prRes":0.2,"qual":7,"ss":38.0,"used":true,"health":1},{"PRN":82,"gnssid":6,"svid":18,"freqid":4,"az":202.0,"el":38.0,"prRes":0.0,"qual":4,"ss":18.0,"used":true,"health":1},{"PRN":83,"gnssid":6,"svid":19,"freqid":10,"az":271.0,"el":60.0,"prRes":0.0,"qual":1,"ss":0.0,"used":false,"health":1},{"PRN":84,"gnssid":6,"svid":20,"freqid":9,"az":336.0,"el":16.0,"prRes":0.0,"qual":4,"ss":21.0,"used":true,"health":1}]}
{"class":"SKY","time":"2019-04-10T14:52:11.000Z","gdop":7.61,"hdop":1.94,"pdop":6.79,"tdop":3.43,"xdop":0.74,"ydop":1.79,"vdop":1.00}
$GPGSV,3,1,09,66,27,063,34,67,78,017,28,68,41,258,16,75,13,005,32*70
$GPGSV,3,2,09,76,28,063,38,77,14,111,00,82,38,202,19,83,60,271,00*70
$GPGSV,3,3,09,84,16,336,21*4E
{"class":"SKY","time":"2023-06-28T14:52:12.000Z","nSat":9,"uSat":3,"satellites":[{"PRN":66,"gnssid":6,"svid":2,"az":63.0,"el":27.0,"prRes":6.3,"qual":7,"ss":34.0,"used":true,"health":1},{"PRN":67,"gnssid":6,"svid":3,"az":17.0,"el":78.0,"prRes":1.7,"qual":3,"ss":28.0,"used":false,"health":1},{"PRN":68,"gnssid":6,"svid":4,"az":258.0,"el":41.0,"prRes":25.8,"qual":4,"ss":16.0,"used":false,"health":1},{"PRN":75,"gnssid":6,"svid":11,"az":5.0,"el":13.0,"prRes":0.5,"qual":7,"ss":32.0,"used":true,"health":1},{"PRN":76,"gnssid":6,"svid":12,"az":63.0,"el":28.0,"prRes":6.3,"qual":7,"ss":38.0,"used":true,"health":1},{"PRN":77,"gnssid":6,"svid":13,"az":111.0,"el":14.0,"prRes":11.1,"qual":1,"ss":0.0,"used":false,"health":1},{"PRN":82,"gnssid":6,"svid":18,"az":202.0,"el":38.0,"prRes":20.2,"qual":4,"ss":19.0,"used":false,"health":1},{"PRN":83,"gnssid":6,"svid":19,"az":271.0,"el":60.0,"prRes":27.1,"qual":0,"ss":0.0,"used":false,"health":1},{"PRN":84,"gnssid":6,"svid":20,"az":336.0,"el":16.0,"prRes":33.6,"qual":4,"ss":21.0,"used":false,"health":1}]}
$GPGSV,2,1,08,66,27,063,34,67,78,017,28,68,41,258,16,75,13,005,32*70
$GPGSV,2,2,08,76,28,063,38,77,14,111,00,82,38,202,19,84,16,336,21*77
{"class":"SKY","time":"2023-06-28T14:52:12.000Z","gdop":7.61,"hdop":1.94,"pdop":6.79,"tdop":3.43,"xdop":0.74,"ydop":1.79,"vdop":6.51,"nSat":8,"uSat":6,"satellites":[{"PRN":66,"gnssid":6,"svid":2,"freqid":3,"az":63.0,"el":27.0,"prRes":-1.0,"qual":7,"ss":34.0,"used":true,"health":1},{"PRN":67,"gnssid":6,"svid":3,"freqid":12,"az":17.0,"el":78.0,"prRes":-5.2,"qual":3,"ss":28.0,"used":false,"health":1},{"PRN":68,"gnssid":6,"svid":4,"freqid":13,"az":258.0,"el":41.0,"prRes":0.0,"qual":4,"ss":16.0,"used":true,"health":1},{"PRN":75,"gnssid":6,"svid":11,"freqid":7,"az":5.0,"el":13.0,"prRes":-0.1,"qual":7,"ss":32.0,"used":true,"health":1},{"PRN":76,"gnssid":6,"svid":12,"freqid":6,"az":63.0,"el":28.0,"prRes":0.2,"qual":7,"ss":38.0,"used":true,"health":1},{"PRN":77,"gnssid":6,"svid":13,"freqid":5,"az":111.0,"el":14.0,"prRes":0.0,"qual":1,"ss":0.0,"used":false,"health":1},{"PRN":82,"gnssid":6,"svid":18,"freqid":4,"az":202.0,"el":38.0,"prRes":0.0,"qual":4,"ss":19.0,"used":true,"health":1},{"PRN":84,"gnssid":6,"svid":20,"freqid":9,"az":336.0,"el":16.0,"prRes":0.0,"qual":4,"ss":21.0,"used":true,"health":1}]}
{"class":"SKY","time":"2023-06-28T14:52:12.000Z","gdop":7.61,"hdop":1.94,"pdop":6.79,"tdop":3.43,"xdop":0.74,"ydop":1.79,"vdop":1.00}
$GPZDA,145212.00,28,06,2023,00,00*68
$GPGGA,145212.00,5536.1492260,N,03735.8783620,E,1,06,1.94,192.76,M,13.629,M,,*6E
$GPRMC,145212.00,A,5536.1492260,N,3735.8783620,E,0.0408,343.817,280623,11.3,E*6C
$GPGSA,A,2,66,68,75,76,82,84,,,,,,,6.8,1.9,1.0*3F
$GPGBS,145212.00,11.143,26.901,68.507,,,,*76
{"class":"TPV","mode":2,"time":"2023-06-28T14:52:12.000Z","ept":0.005,"lat":55.602487100,"lon":37.597972700,"altHAE":206.1210,"altMSL":192.7580,"alt":192.7580,"epx":11.143,"epy":26.901,"epv":68.507,"track":343.8170,"magtrack":355.1161,"magvar":11.3,"speed":0.021,"eps":0.63,"eph":28.568,"sep":129.001}
$GPGSV,3,1,09,66,27,063,34,67,78,017,28,68,41,258,17,75,13,005,32*71
$GPGSV,3,2,09,76,28,063,38,77,14,111,00,82,38,202,19,83,60,271,00*70
$GPGSV,3,3,09,84,16,336,21*4E
{"class":"SKY","time":"2023-06-28T14:52:13.000Z","nSat":9,"uSat":3,"satellites":[{"PRN":66,"gnssid":6,"svid":2,"az":63.0,"el":27.0,"prRes":6.3,"qual":7,"ss":34.0,"used":true,"health":1},{"PRN":67,"gnssid":6,"svid":3,"az":17.0,"el":78.0,"prRes":1.7,"qual":3,"ss":28.0,"used":false,"health":1},{"PRN":68,"gnssid":6,"svid":4,"az":258.0,"el":41.0,"prRes":25.8,"qual":4,"ss":17.0,"used":false,"health":1},{"PRN":75,"gnssid":6,"svid":11,"az":5.0,"el":13.0,"prRes":0.5,"qual":7,"ss":32.0,"used":true,"health":1},{"PRN":76,"gnssid":6,"svid":12,"az":63.0,"el":28.0,"prRes":6.3,"qual":7,"ss":38.0,"used":true,"health":1},{"PRN":77,"gnssid":6,"svid":13,"az":111.0,"el":14.0,"prRes":11.1,"qual":1,"ss":0.0,"used":false,"health":1},{"PRN":82,"gnssid":6,"svid":18,"az":202.0,"el":38.0,"prRes":20.2,"qual":4,"ss":19.0,"used":false,"health":1},{"PRN":83,"gnssid":6,"svid":19,"az":271.0,"el":60.0,"prRes":27.1,"qual":1,"ss":0.0,"used":false,"health":1},{"PRN":84,"gnssid":6,"svid":20,"az":336.0,"el":16.0,"prRes":33.6,"qual":4,"ss":21.0,"used":false,"health":1}]}
$GPGSV,3,1,09,66,27,063,34,67,78,017,28,68,41,258,17,75,13,005,32*71
$GPGSV,3,2,09,76,28,063,38,77,14,111,00,82,38,202,19,83,60,271,00*70
$GPGSV,3,3,09,84,16,336,21*4E
{"class":"SKY","time":"2023-06-28T14:52:13.000Z","gdop":7.61,"hdop":1.94,"pdop":6.79,"tdop":3.43,"xdop":0.74,"ydop":1.79,"vdop":6.51,"nSat":9,"uSat":6,"satellites":[{"PRN":66,"gnssid":6,"svid":2,"freqid":3,"az":63.0,"el":27.0,"prRes":-1.3,"qual":7,"ss":34.0,"used":true,"health":1},{"PRN":67,"gnssid":6,"svid":3,"freqid":12,"az":17.0,"el":78.0,"prRes":-7.3,"qual":3,"ss":28.0,"used":false,"health":1},{"PRN":68,"gnssid":6,"svid":4,"freqid":13,"az":258.0,"el":41.0,"prRes":0.0,"qual":4,"ss":17.0,"used":true,"health":1},{"PRN":75,"gnssid":6,"svid":11,"freqid":7,"az":5.0,"el":13.0,"prRes":0.0,"qual":7,"ss":32.0,"used":true,"health":1},{"PRN":76,"gnssid":6,"svid":12,"freqid":6,"az":63.0,"el":28.0,"prRes":0.3,"qual":7,"ss":38.0,"used":true,"health":1},{"PRN":77,"gnssid":6,"svid":13,"freqid":5,"az":111.0,"el":14.0,"prRes":0.0,"qual":1,"ss":0.0,"used":false,"health":1},{"PRN":82,"gnssid":6,"svid":18,"freqid":4,"az":202.0,"el":38.0,"prRes":0.0,"qual":4,"ss":19.0,"used":true,"health":1},{"PRN":83,"gnssid":6,"svid":19,"freqid":10,"az":271.0,"el":60.0,"prRes":0.0,"qual":1,"ss":0.0,"used":false,"health":1},{"PRN":84,"gnssid":6,"svid":20,"freqid":9,"az":336.0,"el":16.0,"prRes":0.0,"qual":4,"ss":21.0,"used":true,"health":1}]}
{"class":"SKY","time":"2023-06-28T14:52:13.000Z","gdop":7.61,"hdop":1.94,"pdop":6.79,"tdop":3.43,"xdop":0.74,"ydop":1.79,"vdop":1.00}
$GPZDA,145213.00,28,06,2023,00,00*69
$GPGGA,145213.00,5536.1491420,N,03735.8782900,E,1,06,1.94,193.17,M,13.629,M,,*64
$GPRMC,145213.00,A,5536.1491420,N,3735.8782900,E,0.0700,343.817,280623,11.3,E*6B
$GPGSA,A,2,66,68,75,76,82,84,,,,,,,6.8,1.9,1.0*3F
$GPGBS,145213.00,11.143,26.901,68.272,,,,*72
{"class":"TPV","mode":2,"time":"2023-06-28T14:52:13.000Z","ept":0.005,"lat":55.602485700,"lon":37.597971500,"altHAE":206.5370,"altMSL":193.1740,"alt":193.1740,"epx":11.143,"epy":26.901,"epv":68.272,"track":343.8170,"magtrack":355.1161,"magvar":11.3,"speed":0.036,"eps":53.80,"eph":28.308,"sep":129.001}
$GPGSV,3,1,09,66,27,063,35,67,78,017,29,68,41,258,18,75,13,005,31*7D
$GPGSV,3,2,09,76,28,063,38,77,14,111,00,82,38,202,20,83,60,271,00*7A
$GPGSV,3,3,09,84,16,336,21*4E
{"class":"SKY","time":"2023-06-28T14:52:14.000Z","nSat":9,"uSat":4,"satellites":[{"PRN":66,"gnssid":6,"svid":2,"az":63.0,"el":27.0,"prRes":6.3,"qual":7,"ss":35.0,"used":true,"health":1},{"PRN":67,"gnssid":6,"svid":3,"az":17.0,"el":78.0,"prRes":1.7,"qual":7,"ss":29.0,"used":true,"health":1},{"PRN":68,"gnssid":6,"svid":4,"az":258.0,"el":41.0,"prRes":25.8,"qual":3,"ss":18.0,"used":false,"health":1},{"PRN":75,"gnssid":6,"svid":11,"az":5.0,"el":13.0,"prRes":0.5,"qual":7,"ss":31.0,"used":true,"health":1},{"PRN":76,"gnssid":6,"svid":12,"az":63.0,"el":28.0,"prRes":6.3,"qual":7,"ss":38.0,"used":true,"health":1},{"PRN":77,"gnssid":6,"svid":13,"az":111.0,"el":14.0,"prRes":11.1,"qual":1,"ss":0.0,"used":false,"health":1},{"PRN":82,"gnssid":6,"svid":18,"az":202.0,"el":38.0,"prRes":20.2,"qual":4,"ss":20.0,"used":false,"health":1},{"PRN":83,"gnssid":6,"svid":19,"az":271.0,"el":60.0,"prRes":27.1,"qual":1,"ss":0.0,"used":false,"health":1},{"PRN":84,"gnssid":6,"svid":20,"az":336.0,"el":16.0,"prRes":33.6,"qual":4,"ss":21.0,"used":false,"health":1}]}
$GPGSV,3,1,09,66,27,063,35,67,78,017,29,68,41,258,18,75,13,005,31*7D
$GPGSV,3,2,09,76,28,063,38,77,14,111,00,82,38,202,20,83,60,271,00*7A
$GPGSV,3,3,09,84,16,336,21*4E
{"class":"SKY","time":"2023-06-28T14:52:14.000Z","gdop":2.74,"hdop":1.28,"pdop":2.41,"tdop":1.31,"xdop":0.89,"ydop":0.92,"vdop":2.05,"nSat":9,"uSat":6,"satellites":[{"PRN":66,"gnssid":6,"svid":2,"freqid":3,"az":63.0,"el":27.0,"prRes":-1.2,"qual":7,"ss":35.0,"used":true,"health":1},{"PRN":67,"gnssid":6,"svid":3,"freqid":12,"az":17.0,"el":78.0,"prRes":-5.6,"qual":7,"ss":29.0,"used":true,"health":1},{"PRN":68,"gnssid":6,"svid":4,"freqid":13,"az":258.0,"el":41.0,"prRes":0.0,"qual":3,"ss":18.0,"used":false,"health":1},{"PRN":75,"gnssid":6,"svid":11,"freqid":7,"az":5.0,"el":13.0,"prRes":0.7,"qual":7,"ss":31.0,"used":true,"health":1},{"PRN":76,"gnssid":6,"svid":12,"freqid":6,"az":63.0,"el":28.0,"prRes":1.1,"qual":7,"ss":38.0,"used":true,"health":1},{"PRN":77,"gnssid":6,"svid":13,"freqid":5,"az":111.0,"el":14.0,"prRes":0.0,"qual":1,"ss":0.0,"used":false,"health":1},{"PRN":82,"gnssid":6,"svid":18,"freqid":4,"az":202.0,"el":38.0,"prRes":0.0,"qual":4,"ss":20.0,"used":true,"health":1},{"PRN":83,"gnssid":6,"svid":19,"freqid":10,"az":271.0,"el":60.0,"prRes":0.0,"qual":1,"ss":0.0,"used":false,"health":1},{"PRN":84,"gnssid":6,"svid":20,"freqid":9,"az":336.0,"el":16.0,"prRes":0.0,"qual":4,"ss":21.0,"used":true,"health":1}]}
{"class":"SKY","time":"2023-06-28T14:52:14.000Z","gdop":2.74,"hdop":94.47,"pdop":2.41,"tdop":1.31,"xdop":39.48,"ydop":85.82,"vdop":90.20}
$GPZDA,145214.00,28,06,2023,00,00*6E
$GPGGA,145214.00,5536.1497120,N,03735.8790460,E,1,06,94.47,192.22,M,13.629,M,,*5D
$GPRMC,145214.00,A,5536.1497120,N,3735.8790460,E,0.2177,343.817,280623,11.3,E*63
$GPGSA,A,3,66,67,75,76,82,84,,,,,,,2.4,94.5,90.2*33
$GPGBS,145214.00,592.200,1287.300,24.418,,,,*4E
{"class":"TPV","mode":3,"time":"2023-06-28T14:52:14.000Z","ept":0.005,"lat":55.602495200,"lon":37.597984100,"altHAE":205.5790,"altMSL":192.2160,"alt":192.2160,"epx":592.200,"epy":1287.300,"epv":24.418,"track":343.8170,"magtrack":355.1161,"magvar":11.3,"speed":0.112,"eps":1314.20,"epc":92.69,"ecefx":2861481.95,"ecefy":2203477.38,"ecefz":5239736.32,"ecefvx":-0.09,"ecefvy":-0.03,"ecefvz":0.06,"ecefpAcc":36.62,"ecefvAcc":0.85,"geoidSep":13.629,"eph":27.297,"sep":45.841}
$GPGSV,3,1,09,66,27,063,35,67,78,017,28,68,41,258,17,75,13,005,30*72
$GPGSV,3,2,09,76,28,063,38,77,14,111,00,82,38,202,20,83,60,271,00*7A
$GPGSV,3,3,09,84,16,336,21*4E
{"class":"SKY","time":"2023-06-28T14:52:15.000Z","nSat":9,"uSat":4,"satellites":[{"PRN":66,"gnssid":6,"svid":2,"az":63.0,"el":27.0,"prRes":6.3,"qual":7,"ss":35.0,"used":true,"health":1},{"PRN":67,"gnssid":6,"svid":3,"az":17.0,"el":78.0,"prRes":1.7,"qual":7,"ss":28.0,"used":true,"health":1},{"PRN":68,"gnssid":6,"svid":4,"az":258.0,"el":41.0,"prRes":25.8,"qual":4,"ss":17.0,"used":false,"health":1},{"PRN":75,"gnssid":6,"svid":11,"az":5.0,"el":13.0,"prRes":0.5,"qual":5,"ss":30.0,"used":true,"health":1},{"PRN":76,"gnssid":6,"svid":12,"az":63.0,"el":28.0,"prRes":6.3,"qual":7,"ss":38.0,"used":true,"health":1},{"PRN":77,"gnssid":6,"svid":13,"az":111.0,"el":14.0,"prRes":11.1,"qual":0,"ss":0.0,"used":false,"health":1},{"PRN":82,"gnssid":6,"svid":18,"az":202.0,"el":38.0,"prRes":20.2,"qual":4,"ss":20.0,"used":false,"health":1},{"PRN":83,"gnssid":6,"svid":19,"az":271.0,"el":60.0,"prRes":27.1,"qual":1,"ss":0.0,"used":false,"health":1},{"PRN":84,"gnssid":6,"svid":20,"az":336.0,"el":16.0,"prRes":33.6,"qual":4,"ss":21.0,"used":false,"health":1}]}
$GPGSV,2,1,08,66,27,063,35,67,78,017,28,68,41,258,17,75,13,005,30*72
$GPGSV,2,2,08,76,28,063,38,82,38,202,20,83,60,271,00,84,16,336,21*70
{"class":"SKY","time":"2023-06-28T14:52:15.000Z","gdop":2.69,"hdop":1.18,"pdop":2.35,"tdop":1.30,"xdop":0.74,"ydop":0.92,"vdop":2.04,"nSat":8,"uSat":7,"satellites":[{"PRN":66,"gnssid":6,"svid":2,"freqid":3,"az":63.0,"el":27.0,"prRes":-1.6,"qual":7,"ss":35.0,"used":true,"health":1},{"PRN":67,"gnssid":6,"svid":3,"freqid":12,"az":17.0,"el":78.0,"prRes":-8.3,"qual":7,"ss":28.0,"used":true,"health":1},{"PRN":68,"gnssid":6,"svid":4,"freqid":13,"az":258.0,"el":41.0,"prRes":0.0,"qual":4,"ss":17.0,"used":true,"health":1},{"PRN":75,"gnssid":6,"svid":11,"freqid":7,"az":5.0,"el":13.0,"prRes":0.6,"qual":5,"ss":30.0,"used":true,"health":1},{"PRN":76,"gnssid":6,"svid":12,"freqid":6,"az":63.0,"el":28.0,"prRes":0.9,"qual":7,"ss":38.0,"used":true,"health":1},{"PRN":82,"gnssid":6,"svid":18,"freqid":4,"az":202.0,"el":38.0,"prRes":0.0,"qual":4,"ss":20.0,"used":true,"health":1},{"PRN":83,"gnssid":6,"svid":19,"freqid":10,"az":271.0,"el":60.0,"prRes":0.0,"qual":1,"ss":0.0,"used":false,"health":1},{"PRN":84,"gnssid":6,"svid":20,"freqid":9,"az":336.0,"el":16.0,"prRes":0.0,"qual":4,"ss":21.0,"used":true,"health":1}]}
{"class":"SKY","time":"2023-06-28T14:52:15.000Z","gdop":2.69,"hdop":93.13,"pdop":2.35,"tdop":1.30,"xdop":38.92,"ydop":84.61,"vdop":88.90}
$GPZDA,145215.00,28,06,2023,00,00*6F
$GPGGA,145215.00,5536.1499400,N,03735.8793640,E,1,07,93.13,192.57,M,13.629,M,,*53
$GPRMC,145215.00,A,5536.1499400,N,3735.8793640,E,0.1419,343.817,280623,11.3,E*66
$GPGSA,A,3,66,67,68,75,76,82,84,,,,,,2.4,93.1,88.9*3C
$GPGBS,145215.00,583.800,1269.150,22.408,,,,*45
{"class":"TPV","mode":3,"time":"2023-06-28T14:52:15.000Z","ept":0.005,"lat":55.602499000,"lon":37.597989400,"altHAE":205.9330,"altMSL":192.5700,"alt":192.5700,"epx":583.800,"epy":1269.150,"epv":22.408,"track":343.8170,"magtrack":355.1161,"magvar":11.3,"speed":0.073,"climb":0.354,"eps":2556.45,"epc":46.83,"ecefx":2861481.63,"ecefy":2203477.55,"ecefz":5239736.86,"ecefvx":-0.06,"ecefvy":0.04,"ecefvz":0.02,"ecefpAcc":35.29,"ecefvAcc":0.88,"geoidSep":13.629,"eph":27.258,"sep":44.743}
$GPGSV,3,1,09,66,27,063,34,67,78,017,28,68,41,258,18,75,13,005,30*7C
$GPGSV,3,2,09,76,28,063,38,77,14,111,00,82,38,202,20,83,60,271,00*7A
$GPGSV,3,3,09,84,16,336,20*4F
{"class":"SKY","time":"2023-06-28T14:52:16.000Z","nSat":9,"uSat":4,"satellites":[{"PRN":66,"gnssid":6,"svid":2,"az":63.0,"el":27.0,"prRes":6.3,"qual":7,"ss":34.0,"used":true,"health":1},{"PRN":67,"gnssid":6,"svid":3,"az":17.0,"el":78.0,"prRes":1.7,"qual":7,"ss":28.0,"used":true,"health":1},{"PRN":68,"gnssid":6,"svid":4,"az":258.0,"el":41.0,"prRes":25.8,"qual":4,"ss":18.0,"used":false,"health":1},{"PRN":75,"gnssid":6,"svid":11,"az":5.0,"el":13.0,"prRes":0.5,"qual":6,"ss":30.0,"used":true,"health":1},{"PRN":76,"gnssid":6,"svid":12,"az":63.0,"el":28.0,"prRes":6.3,"qual":7,"ss":38.0,"used":true,"health":1},{"PRN":77,"gnssid":6,"svid":13,"az":111.0,"el":14.0,"prRes":11.1,"qual":1,"ss":0.0,"used":false,"health":1},{"PRN":82,"gnssid":6,"svid":18,"az":202.0,"el":38.0,"prRes":20.2,"qual":4,"ss":20.0,"used":false,"health":1},{"PRN":83,"gnssid":6,"svid":19,"az":271.0,"el":60.0,"prRes":27.1,"qual":0,"ss":0.0,"used":false,"health":1},{"PRN":84,"gnssid":6,"svid":20,"az":336.0,"el":16.0,"prRes":33.6,"qual":4,"ss":20.0,"used":false,"health":1}]}
$GPGSV,2,1,08,66,27,063,34,67,78,017,28,68,41,258,18,75,13,005,30*7C
$GPGSV,2,2,08,76,28,063,38,77,14,111,00,82,38,202,20,84,16,336,20*7C
{"class":"SKY","time":"2023-06-28T14:52:16.000Z","gdop":2.69,"hdop":1.18,"pdop":2.35,"tdop":1.30,"xdop":0.74,"ydop":0.92,"vdop":2.04,"nSat":8,"uSat":7,"satellites":[{"PRN":66,"gnssid":6,"svid":2,"freqid":3,"az":63.0,"el":27.0,"prRes":-2.0,"qual":7,"ss":34.0,"used":true,"health":1},{"PRN":67,"gnssid":6,"svid":3,"freqid":12,"az":17.0,"el":78.0,"prRes":-7.9,"qual":7,"ss":28.0,"used":true,"health":1},{"PRN":68,"gnssid":6,"svid":4,"freqid":13,"az":258.0,"el":41.0,"prRes":0.0,"qual":4,"ss":18.0,"used":true,"health":1},{"PRN":75,"gnssid":6,"svid":11,"freqid":7,"az":5.0,"el":13.0,"prRes":0.7,"qual":6,"ss":30.0,"used":true,"health":1},{"PRN":76,"gnssid":6,"svid":12,"freqid":6,"az":63.0,"el":28.0,"prRes":1.3,"qual":7,"ss":38.0,"used":true,"health":1},{"PRN":77,"gnssid":6,"svid":13,"freqid":5,"az":111.0,"el":14.0,"prRes":0.0,"qual":1,"ss":0.0,"used":false,"health":1},{"PRN":82,"gnssid":6,"svid":18,"freqid":4,"az":202.0,"el":38.0,"prRes":0.0,"qual":4,"ss":20.0,"used":true,"health":1},{"PRN":84,"gnssid":6,"svid":20,"freqid":9,"az":336.0,"el":16.0,"prRes":0.0,"qual":4,"ss":20.0,"used":true,"health":1}]}
{"class":"SKY","time":"2023-06-28T14:52:16.000Z","gdop":2.69,"hdop":91.83,"pdop":2.35,"tdop":1.30,"xdop":38.38,"ydop":83.43,"vdop":87.63}
$GPZDA,145216.00,28,06,2023,00,00*6C
$GPGGA,145216.00,5536.1502340,N,03735.8797720,E,1,07,91.83,193.01,M,13.629,M,,*5A
$GPRMC,145216.00,A,5536.1502340,N,3735.8797720,E,0.0797,343.817,280623,11.3,E*62
$GPGSA,A,3,66,67,68,75,76,82,84,,,,,,2.4,91.8,87.6*37
$GPGBS,145216.00,575.700,1251.450,21.619,,,,*4F
{"class":"TPV","mode":3,"time":"2023-06-28T14:52:16.000Z","ept":0.005,"lat":55.602503900,"lon":37.597996200,"altHAE":206.3760,"altMSL":193.0130,"alt":193.0130,"epx":575.700,"epy":1251.450,"epv":21.619,"track":343.8170,"magtrack":355.1161,"magvar":11.3,"speed":0.041,"climb":0.443,"eps":2520.60,"epc":44.03,"ecefx":2861481.21,"ecefy":2203477.76,"ecefz":5239737.53,"ecefvx":-0.04,"ecefvy":0.00,"ecefvz":0.02,"ecefpAcc":34.76,"ecefvAcc":1.13,"geoidSep":13.629,"eph":27.215,"sep":44.743}
$GPGSV,3,1,09,66,27,063,35,67,78,017,29,68,41,258,18,75,13,005,30*7C
$GPGSV,3,2,09,76,28,063,38,77,14,111,00,82,38,202,20,83,60,271,00*7A
$GPGSV,3,3,09,84,16,336,21*4E
{"class":"SKY","time":"2023-06-28T14:52:17.000Z","nSat":9,"uSat":4,"satellites":[{"PRN":66,"gnssid":6,"svid":2,"az":63.0,"el":27.0,"prRes":6.3,"qual":7,"ss":35.0,"used":true,"health":1},{"PRN":67,"gnssid":6,"svid":3,"az":17.0,"el":78.0,"prRes":1.7,"qual":7,"ss":29.0,"used":true,"health":1},{"PRN":68,"gnssid":6,"svid":4,"az":258.0,"el":41.0,"prRes":25.8,"qual":4,"ss":18.0,"used":false,"health":1},{"PRN":75,"gnssid":6,"svid":11,"az":5.0,"el":13.0,"prRes":0.5,"qual":6,"ss":30.0,"used":true,"health":1},{"PRN":76,"gnssid":6,"svid":12,"az":63.0,"el":28.0,"prRes":6.3,"qual":7,"ss":38.0,"used":true,"health":1},{"PRN":77,"gnssid":6,"svid":13,"az":111.0,"el":14.0,"prRes":11.1,"qual":1,"ss":0.0,"used":false,"health":1},{"PRN":82,"gnssid":6,"svid":18,"az":202.0,"el":38.0,"prRes":20.2,"qual":4,"ss":20.0,"used":false,"health":1},{"PRN":83,"gnssid":6,"svid":19,"az":271.0,"el":60.0,"prRes":27.1,"qual":1,"ss":0.0,"used":false,"health":1},{"PRN":84,"gnssid":6,"svid":20,"az":336.0,"el":16.0,"prRes":33.6,"qual":4,"ss":21.0,"used":false,"health":1}]}
$GPGSV,3,1,09,66,27,063,35,67,78,017,29,68,41,258,18,75,13,005,30*7C
$GPGSV,3,2,09,76,28,063,38,77,14,111,00,82,38,202,20,83,60,271,00*7A
$GPGSV,3,3,09,84,16,336,21*4E
{"class":"SKY","time":"2023-06-28T14:52:17.000Z","gdop":2.69,"hdop":1.18,"pdop":2.35,"tdop":1.30,"xdop":0.74,"ydop":0.92,"vdop":2.04,"nSat":9,"uSat":7,"satellites":[{"PRN":66,"gnssid":6,"svid":2,"freqid":3,"az":63.0,"el":27.0,"prRes":-2.3,"qual":7,"ss":35.0,"used":true,"health":1},{"PRN":67,"gnssid":6,"svid":3,"freqid":12,"az":17.0,"el":78.0,"prRes":-7.8,"qual":7,"ss":29.0,"used":true,"health":1},{"PRN":68,"gnssid":6,"svid":4,"freqid":13,"az":258.0,"el":41.0,"prRes":0.0,"qual":4,"ss":18.0,"used":true,"health":1},{"PRN":75,"gnssid":6,"svid":11,"freqid":7,"az":5.0,"el":13.0,"prRes":1.0,"qual":6,"ss":30.0,"used":true,"health":1},{"PRN":76,"gnssid":6,"svid":12,"freqid":6,"az":63.0,"el":28.0,"prRes":1.3,"qual":7,"ss":38.0,"used":true,"health":1},{"PRN":77,"gnssid":6,"svid":13,"freqid":5,"az":111.0,"el":14.0,"prRes":0.0,"qual":1,"ss":0.0,"used":false,"health":1},{"PRN":82,"gnssid":6,"svid":18,"freqid":4,"az":202.0,"el":38.0,"prRes":0.0,"qual":4,"ss":20.0,"used":true,"health":1},{"PRN":83,"gnssid":6,"svid":19,"freqid":10,"az":271.0,"el":60.0,"prRes":0.0,"qual":1,"ss":0.0,"used":false,"health":1},{"PRN":84,"gnssid":6,"svid":20,"freqid":9,"az":336.0,"el":16.0,"prRes":0.0,"qual":4,"ss":21.0,"used":true,"health":1}]}
{"class":"SKY","time":"2023-06-28T14:52:17.000Z","gdop":2.69,"hdop":90.57,"pdop":2.35,"tdop":1.30,"xdop":37.84,"ydop":82.28,"vdop":86.40}
$GPZDA,145217.00,28,06,2023,00,00*6D
$GPGGA,145217.00,5536.1506240,N,03735.8803000,E,1,07,90.57,193.15,M,13.629,M,,*54
$GPRMC,145217.00,A,5536.1506240,N,3735.8803000,E,0.1069,343.817,280623,11.3,E*66
$GPGSA,A,3,66,67,68,75,76,82,84,,,,,,2.4,90.6,86.4*3B
$GPGBS,145217.00,567.600,1234.200,21.168,,,,*4D
{"class":"TPV","mode":3,"time":"2023-06-28T14:52:17.000Z","ept":0.005,"lat":55.602510400,"lon":37.598005000,"altHAE":206.5150,"altMSL":193.1520,"alt":193.1520,"epx":567.600,"epy":1234.200,"epv":21.168,"track":343.8170,"magtrack":355.1161,"magvar":11.3,"speed":0.055,"climb":0.139,"eps":2485.65,"epc":42.79,"ecefx":2861480.46,"ecefy":2203477.89,"ecefz":5239738.06,"ecefvx":-0.05,"ecefvy":0.01,"ecefvz":0.02,"ecefpAcc":34.39,"ecefvAcc":1.20,"geoidSep":13.629,"eph":27.100,"sep":44.743}
$GPGSV,3,1,09,66,27,063,35,67,78,017,29,68,41,258,18,75,13,005,30*7C
$GPGSV,3,2,09,76,28,063,37,77,14,111,16,82,38,202,18,83,60,271,00*79
$GPGSV,3,3,09,84,16,336,20*4F
{"class":"SKY","time":"2023-06-28T14:52:18.000Z","nSat":9,"uSat":4,"satellites":[{"PRN":66,"gnssid":6,"svid":2,"az":63.0,"el":27.0,"prRes":6.3,"qual":7,"ss":35.0,"used":true,"health":1},{"PRN":67,"gnssid":6,"svid":3,"az":17.0,"el":78.0,"prRes":1.7,"qual":7,"ss":29.0,"used":true,"health":1},{"PRN":68,"gnssid":6,"svid":4,"az":258.0,"el":41.0,"prRes":25.8,"qual":4,"ss":18.0,"used":false,"health":1},{"PRN":75,"gnssid":6,"svid":11,"az":5.0,"el":13.0,"prRes":0.5,"qual":6,"ss":30.0,"used":true,"health":1},{"PRN":76,"gnssid":6,"svid":12,"az":63.0,"el":28.0,"prRes":6.3,"qual":7,"ss":37.0,"used":true,"health":1},{"PRN":77,"gnssid":6,"svid":13,"az":111.0,"el":14.0,"prRes":11.1,"qual":3,"ss":16.0,"used":false,"health":1},{"PRN":82,"gnssid":6,"svid":18,"az":202.0,"el":38.0,"prRes":20.2,"qual":4,"ss":18.0,"used":false,"health":1},{"PRN":83,"gnssid":6,"svid":19,"az":271.0,"el":60.0,"prRes":27.1,"qual":1,"ss":0.0,"used":false,"health":1},{"PRN":84,"gnssid":6,"svid":20,"az":336.0,"el":16.0,"prRes":33.6,"qual":4,"ss":20.0,"used":false,"health":1}]}
$GPGSV,3,1,09,66,27,063,35,67,78,017,29,68,41,258,18,75,13,005,30*7C
$GPGSV,3,2,09,76,28,063,37,77,14,111,16,82,38,202,18,83,60,271,00*79
$GPGSV,3,3,09,84,16,336,20*4F
{"class":"SKY","time":"2023-06-28T14:52:18.000Z","gdop":2.69,"hdop":1.18,"pdop":2.35,"tdop":1.30,"xdop":0.74,"ydop":0.92,"vdop":2.04,"nSat":9,"uSat":7,"satellites":[{"PRN":66,"gnssid":6,"svid":2,"freqid":3,"az":63.0,"el":27.0,"prRes":-2.3,"qual":7,"ss":35.0,"used":true,"health":1},{"PRN":67,"gnssid":6,"svid":3,"freqid":12,"az":17.0,"el":78.0,"prRes":-6.1,"qual":7,"ss":29.0,"used":true,"health":1},{"PRN":68,"gnssid":6,"svid":4,"freqid":13,"az":258.0,"el":41.0,"prRes":0.0,"qual":4,"ss":18.0,"used":true,"health":1},{"PRN":75,"gnssid":6,"svid":11,"freqid":7,"az":5.0,"el":13.0,"prRes":1.2,"qual":6,"ss":30.0,"used":true,"health":1},{"PRN":76,"gnssid":6,"svid":12,"freqid":6,"az":63.0,"el":28.0,"prRes":1.6,"qual":7,"ss":37.0,"used":true,"health":1},{"PRN":77,"gnssid":6,"svid":13,"freqid":5,"az":111.0,"el":14.0,"prRes":0.0,"qual":3,"ss":16.0,"used":false,"health":1},{"PRN":82,"gnssid":6,"svid":18,"freqid":4,"az":202.0,"el":38.0,"prRes":0.0,"qual":4,"ss":18.0,"used":true,"health":1},{"PRN":83,"gnssid":6,"svid":19,"freqid":10,"az":271.0,"el":60.0,"prRes":0.0,"qual":1,"ss":0.0,"used":false,"health":1},{"PRN":84,"gnssid":6,"svid":20,"freqid":9,"az":336.0,"el":16.0,"prRes":0.0,"qual":4,"ss":20.0,"used":true,"health":1}]}
{"class":"SKY","time":"2023-06-28T14:52:18.000Z","gdop":2.69,"hdop":89.34,"pdop":2.35,"tdop":1.30,"xdop":37.33,"ydop":81.17,"vdop":85.21}
$GPZDA,145218.00,28,06,2023,00,00*62
$GPGGA,145218.00,5536.1510020,N,03735.8808040,E,1,07,89.34,193.14,M,13.629,M,,*5B
$GPRMC,145218.00,A,5536.1510020,N,3735.8808040,E,0.0952,343.817,280623,11.3,E*65
$GPGSA,A,3,66,67,68,75,76,82,84,,,,,,2.4,89.3,85.2*33
$GPGBS,145218.00,559.950,1217.550,20.954,,,,*40
{"class":"TPV","mode":3,"time":"2023-06-28T14:52:18.000Z","ept":0.005,"lat":55.602516700,"lon":37.598013400,"altHAE":206.5030,"altMSL":193.1400,"alt":193.1400,"epx":559.950,"epy":1217.550,"epv":20.954,"track":343.8170,"magtrack":355.1161,"magvar":11.3,"speed":0.049,"climb":-0.012,"eps":2451.75,"epc":42.12,"ecefx":2861479.67,"ecefy":2203477.95,"ecefz":5239738.44,"ecefvx":-0.04,"ecefvy":0.01,"ecefvz":0.02,"ecefpAcc":34.05,"ecefvAcc":1.13,"geoidSep":13.629,"eph":26.845,"sep":44.743}
$GPGSV,3,1,09,66,27,063,35,67,78,017,29,68,41,258,17,75,13,005,30*73
$GPGSV,3,2,09,76,28,063,38,77,14,111,16,82,38,202,18,83,60,271,00*76
$GPGSV,3,3,09,84,16,336,20*4F
{"class":"SKY","time":"2023-06-28T14:52:19.000Z","nSat":9,"uSat":4,"satellites":[{"PRN":66,"gnssid":6,"svid":2,"az":63.0,"el":27.0,"prRes":6.3,"qual":7,"ss":35.0,"used":true,"health":1},{"PRN":67,"gnssid":6,"svid":3,"az":17.0,"el":78.0,"prRes":1.7,"qual":7,"ss":29.0,"used":true,"health":1},{"PRN":68,"gnssid":6,"svid":4,"az":258.0,"el":41.0,"prRes":25.8,"qual":4,"ss":17.0,"used":false,"health":1},{"PRN":75,"gnssid":6,"svid":11,"az":5.0,"el":13.0,"prRes":0.5,"qual":7,"ss":30.0,"used":true,"health":1},{"PRN":76,"gnssid":6,"svid":12,"az":63.0,"el":28.0,"prRes":6.3,"qual":7,"ss":38.0,"used":true,"health":1},{"PRN":77,"gnssid":6,"svid":13,"az":111.0,"el":14.0,"prRes":11.1,"qual":3,"ss":16.0,"used":false,"health":1},{"PRN":82,"gnssid":6,"svid":18,"az":202.0,"el":38.0,"prRes":20.2,"qual":4,"ss":18.0,"used":false,"health":1},{"PRN":83,"gnssid":6,"svid":19,"az":271.0,"el":60.0,"prRes":27.1,"qual":1,"ss":0.0,"used":false,"health":1},{"PRN":84,"gnssid":6,"svid":20,"az":336.0,"el":16.0,"prRes":33.6,"qual":4,"ss":20.0,"used":false,"health":1}]}
$GPGSV,3,1,09,66,27,063,35,67,78,017,29,68,41,258,17,75,13,005,30*73
$GPGSV,3,2,09,76,28,063,38,77,14,111,16,82,38,202,18,83,60,271,00*76
$GPGSV,3,3,09,84,16,336,20*4F
{"class":"SKY","time":"2023-06-28T14:52:19.000Z","gdop":2.69,"hdop":1.18,"pdop":2.35,"tdop":1.30,"xdop":0.74,"ydop":0.92,"vdop":2.04,"nSat":9,"uSat":7,"satellites":[{"PRN":66,"gnssid":6,"svid":2,"freqid":3,"az":63.0,"el":27.0,"prRes":-2.5,"qual":7,"ss":35.0,"used":true,"health":1},{"PRN":67,"gnssid":6,"svid":3,"freqid":12,"az":17.0,"el":78.0,"prRes":-4.6,"qual":7,"ss":29.0,"used":true,"health":1},{"PRN":68,"gnssid":6,"svid":4,"freqid":13,"az":258.0,"el":41.0,"prRes":0.0,"qual":4,"ss":17.0,"used":true,"health":1},{"PRN":75,"gnssid":6,"svid":11,"freqid":7,"az":5.0,"el":13.0,"prRes":1.1,"qual":7,"ss":30.0,"used":true,"health":1},{"PRN":76,"gnssid":6,"svid":12,"freqid":6,"az":63.0,"el":28.0,"prRes":1.7,"qual":7,"ss":38.0,"used":true,"health":1},{"PRN":77,"gnssid":6,"svid":13,"freqid":5,"az":111.0,"el":14.0,"prRes":0.0,"qual":3,"ss":16.0,"used":false,"health":1},{"PRN":82,"gnssid":6,"svid":18,"freqid":4,"az":202.0,"el":38.0,"prRes":0.0,"qual":4,"ss":18.0,"used":true,"health":1},{"PRN":83,"gnssid":6,"svid":19,"freqid":10,"az":271.0,"el":60.0,"prRes":0.0,"qual":1,"ss":0.0,"used":false,"health":1},{"PRN":84,"gnssid":6,"svid":20,"freqid":9,"az":336.0,"el":16.0,"prRes":0.0,"qual":4,"ss":20.0,"used":true,"health":1}]}
{"class":"SKY","time":"2023-06-28T14:52:19.000Z","gdop":2.69,"hdop":88.14,"pdop":2.35,"tdop":1.30,"xdop":36.82,"ydop":80.08,"vdop":84.05}
$GPZDA,145219.00,28,06,2023,00,00*63
$GPGGA,145219.00,5536.1513260,N,03735.8812420,E,1,07,88.14,193.35,M,13.629,M,,*56
$GPRMC,145219.00,A,5536.1513260,N,3735.8812420,E,0.0544,343.817,280623,11.3,E*63
$GPGSA,A,3,66,67,68,75,76,82,84,,,,,,2.4,88.1,84.0*33
$GPGBS,145219.00,552.300,1201.200,20.752,,,,*48
{"class":"TPV","mode":3,"time":"2023-06-28T14:52:19.000Z","ept":0.005,"lat":55.602522100,"lon":37.598020700,"altHAE":206.7090,"altMSL":193.3460,"alt":193.3460,"epx":552.300,"epy":1201.200,"epv":20.752,"track":343.8170,"magtrack":355.1161,"magvar":11.3,"speed":0.028,"climb":0.206,"eps":2418.75,"epc":41.71,"ecefx":2861479.10,"ecefy":2203478.09,"ecefz":5239738.95,"ecefvx":-0.02,"ecefvy":0.02,"ecefvz":0.00,"ecefpAcc":33.60,"ecefvAcc":0.56,"geoidSep":13.629,"eph":26.431,"sep":44.743}
$GPGSV,3,1,09,66,27,063,34,67,78,017,29,68,41,258,17,75,13,005,30*72
$GPGSV,3,2,09,76,28,063,37,77,14,111,17,82,38,202,18,83,60,271,00*78
$GPGSV,3,3,09,84,16,336,21*4E
{"class":"SKY","time":"2023-06-28T14:52:20.000Z","nSat":9,"uSat":4,"satellites":[{"PRN":66,"gnssid":6,"svid":2,"az":63.0,"el":27.0,"prRes":6.3,"qual":7,"ss":34.0,"used":true,"health":1},{"PRN":67,"gnssid":6,"svid":3,"az":17.0,"el":78.0,"prRes":1.7,"qual":7,"ss":29.0,"used":true,"health":1},{"PRN":68,"gnssid":6,"svid":4,"az":258.0,"el":41.0,"prRes":25.8,"qual":4,"ss":17.0,"used":false,"health":1},{"PRN":75,"gnssid":6,"svid":11,"az":5.0,"el":13.0,"prRes":0.5,"qual":7,"ss":30.0,"used":true,"health":1},{"PRN":76,"gnssid":6,"svid":12,"az":63.0,"el":28.0,"prRes":6.3,"qual":7,"ss":37.0,"used":true,"health":1},{"PRN":77,"gnssid":6,"svid":13,"az":111.0,"el":14.0,"prRes":11.1,"qual":3,"ss":17.0,"used":false,"health":1},{"PRN":82,"gnssid":6,"svid":18,"az":202.0,"el":38.0,"prRes":20.2,"qual":4,"ss":18.0,"used":false,"health":1},{"PRN":83,"gnssid":6,"svid":19,"az":271.0,"el":60.0,"prRes":27.1,"qual":1,"ss":0.0,"used":false,"health":1},{"PRN":84,"gnssid":6,"svid":20,"az":336.0,"el":16.0,"prRes":33.6,"qual":4,"ss":21.0,"used":false,"health":1}]}
$GPGSV,3,1,09,66,27,063,34,67,78,017,29,68,41,258,17,75,13,005,30*72
$GPGSV,3,2,09,76,28,063,37,77,14,111,17,82,38,202,18,83,60,271,00*78
$GPGSV,3,3,09,84,16,336,21*4E
{"class":"SKY","time":"2023-06-28T14:52:20.000Z","gdop":2.69,"hdop":1.18,"pdop":2.35,"tdop":1.30,"xdop":0.74,"ydop":0.92,"vdop":2.04,"nSat":9,"uSat":7,"satellites":[{"PRN":66,"gnssid":6,"svid":2,"freqid":3,"az":63.0,"el":27.0,"prRes":-2.7,"qual":7,"ss":34.0,"used":true,"health":1},{"PRN":67,"gnssid":6,"svid":3,"freqid":12,"az":17.0,"el":78.0,"prRes":-7.1,"qual":7,"ss":29.0,"used":true,"health":1},{"PRN":68,"gnssid":6,"svid":4,"freqid":13,"az":258.0,"el":41.0,"prRes":0.0,"qual":4,"ss":17.0,"used":true,"health":1},{"PRN":75,"gnssid":6,"svid":11,"freqid":7,"az":5.0,"el":13.0,"prRes":1.1,"qual":7,"ss":30.0,"used":true,"health":1},{"PRN":76,"gnssid":6,"svid":12,"freqid":6,"az":63.0,"el":28.0,"prRes":2.0,"qual":7,"ss":37.0,"used":true,"health":1},{"PRN":77,"gnssid":6,"svid":13,"freqid":5,"az":111.0,"el":14.0,"prRes":0.0,"qual":3,"ss":17.0,"used":false,"health":1},{"PRN":82,"gnssid":6,"svid":18,"freqid":4,"az":202.0,"el":38.0,"prRes":0.0,"qual":4,"ss":18.0,"used":true,"health":1},{"PRN":83,"gnssid":6,"svid":19,"freqid":10,"az":271.0,"el":60.0,"prRes":0.0,"qual":1,"ss":0.0,"used":false,"health":1},{"PRN":84,"gnssid":6,"svid":20,"freqid":9,"az":336.0,"el":16.0,"prRes":0.0,"qual":4,"ss":21.0,"used":true,"health":1}]}
{"class":"SKY","time":"2023-06-28T14:52:20.000Z","gdop":2.69,"hdop":86.98,"pdop":2.35,"tdop":98.77,"xdop":36.33,"ydop":79.02,"vdop":82.91}
$GPZDA,145220.00,28,06,2023,00,00*69
$GPGGA,145220.00,5536.1517580,N,03735.8818480,E,1,07,86.98,193.41,M,13.629,M,,*58
$GPRMC,145220.00,A,5536.1517580,N,3735.8818480,E,0.0641,343.817,280623,11.3,E*62
$GPGSA,A,3,66,67,68,75,76,82,84,,,,,,2.4,87.0,82.9*32
$GPGBS,145220.00,544.950,1185.300,20.646,,,,*40
{"class":"TPV","mode":3,"time":"2023-06-28T14:52:20.000Z","ept":0.005,"lat":55.602529300,"lon":37.598030800,"altHAE":206.7680,"altMSL":193.4050,"alt":193.4050,"epx":544.950,"epy":1185.300,"epv":20.646,"track":343.8170,"magtrack":355.1162,"magvar":11.3,"speed":0.033,"climb":0.059,"eps":2386.50,"epc":41.40,"ecefx":2861478.21,"ecefy":2203478.21,"ecefz":5239739.45,"ecefvx":-0.03,"ecefvy":0.02,"ecefvz":0.01,"ecefpAcc":33.32,"ecefvAcc":0.61,"geoidSep":13.629,"eph":26.154,"sep":44.743}
$GPGSV,3,1,09,66,27,063,34,67,78,017,30,68,41,258,17,75,13,005,30*7A
$GPGSV,3,2,09,76,28,063,38,77,14,111,17,82,38,202,18,83,60,271,00*77
$GPGSV,3,3,09,84,16,336,20*4F
{"class":"SKY","time":"2023-06-28T14:52:21.000Z","nSat":9,"uSat":4,"satellites":[{"PRN":66,"gnssid":6,"svid":2,"az":63.0,"el":27.0,"prRes":6.3,"qual":7,"ss":34.0,"used":true,"health":1},{"PRN":67,"gnssid":6,"svid":3,"az":17.0,"el":78.0,"prRes":1.7,"qual":7,"ss":30.0,"used":true,"health":1},{"PRN":68,"gnssid":6,"svid":4,"az":258.0,"el":41.0,"prRes":25.8,"qual":4,"ss":17.0,"used":false,"health":1},{"PRN":75,"gnssid":6,"svid":11,"az":5.0,"el":13.0,"prRes":0.5,"qual":7,"ss":30.0,"used":true,"health":1},{"PRN":76,"gnssid":6,"svid":12,"az":63.0,"el":28.0,"prRes":6.3,"qual":7,"ss":38.0,"used":true,"health":1},{"PRN":77,"gnssid":6,"svid":13,"az":111.0,"el":14.0,"prRes":11.1,"qual":4,"ss":17.0,"used":false,"health":1},{"PRN":82,"gnssid":6,"svid":18,"az":202.0,"el":38.0,"prRes":20.2,"qual":4,"ss":18.0,"used":false,"health":1},{"PRN":83,"gnssid":6,"svid":19,"az":271.0,"el":60.0,"prRes":27.1,"qual":1,"ss":0.0,"used":false,"health":1},{"PRN":84,"gnssid":6,"svid":20,"az":336.0,"el":16.0,"prRes":33.6,"qual":4,"ss":20.0,"used":false,"health":1}]}
$GPGSV,3,1,09,66,27,063,34,67,78,017,30,68,41,258,17,75,13,005,30*7A
$GPGSV,3,2,09,76,28,063,38,77,14,111,17,82,38,202,18,83,60,271,00*77
$GPGSV,3,3,09,84,16,336,20*4F
{"class":"SKY","time":"2023-06-28T14:52:21.000Z","gdop":2.16,"hdop":0.95,"pdop":1.92,"tdop":0.98,"xdop":0.64,"ydop":0.69,"vdop":1.67,"nSat":9,"uSat":8,"satellites":[{"PRN":66,"gnssid":6,"svid":2,"freqid":3,"az":63.0,"el":27.0,"prRes":-2.8,"qual":7,"ss":34.0,"used":true,"health":1},{"PRN":67,"gnssid":6,"svid":3,"freqid":12,"az":17.0,"el":78.0,"prRes":-8.5,"qual":7,"ss":30.0,"used":true,"health":1},{"PRN":68,"gnssid":6,"svid":4,"freqid":13,"az":258.0,"el":41.0,"prRes":0.0,"qual":4,"ss":17.0,"used":true,"health":1},{"PRN":75,"gnssid":6,"svid":11,"freqid":7,"az":5.0,"el":13.0,"prRes":1.1,"qual":7,"ss":30.0,"used":true,"health":1},{"PRN":76,"gnssid":6,"svid":12,"freqid":6,"az":63.0,"el":28.0,"prRes":2.1,"qual":7,"ss":38.0,"used":true,"health":1},{"PRN":77,"gnssid":6,"svid":13,"freqid":5,"az":111.0,"el":14.0,"prRes":0.0,"qual":4,"ss":17.0,"used":true,"health":1},{"PRN":82,"gnssid":6,"svid":18,"freqid":4,"az":202.0,"el":38.0,"prRes":0.0,"qual":4,"ss":18.0,"used":true,"health":1},{"PRN":83,"gnssid":6,"svid":19,"freqid":10,"az":271.0,"el":60.0,"prRes":0.0,"qual":1,"ss":0.0,"used":false,"health":1},{"PRN":84,"gnssid":6,"svid":20,"freqid":9,"az":336.0,"el":16.0,"prRes":0.0,"qual":4,"ss":20.0,"used":true,"health":1}]}
{"class":"SKY","time":"2023-06-28T14:52:21.000Z","gdop":2.16,"hdop":85.84,"pdop":1.92,"tdop":97.47,"xdop":35.86,"ydop":77.99,"vdop":81.81}
$GPZDA,145221.00,28,06,2023,00,00*68
$GPGGA,145221.00,5536.1523580,N,03735.8826820,E,1,08,85.84,193.60,M,13.629,M,,*57
$GPRMC,145221.00,A,5536.1523580,N,3735.8826820,E,0.0894,343.817,280623,11.3,E*69
$GPGSA,A,3,66,67,68,75,76,77,82,84,,,,,1.9,85.8,81.8*34
$GPGBS,145221.00,537.900,1169.850,20.529,,,,*46
{"class":"TPV","mode":3,"time":"2023-06-28T14:52:21.000Z","ept":0.005,"lat":55.602539300,"lon":37.598044700,"altHAE":206.9590,"altMSL":193.5960,"alt":193.5960,"epx":537.900,"epy":1169.850,"epv":20.529,"track":343.8170,"magtrack":355.1162,"magvar":11.3,"speed":0.046,"climb":0.191,"eps":2355.15,"epc":41.17,"ecefx":2861477.03,"ecefy":2203478.41,"ecefz":5239740.24,"ecefvx":-0.04,"ecefvy":0.00,"ecefvz":0.02,"ecefpAcc":33.02,"ecefvAcc":0.68,"geoidSep":13.629,"eph":25.861,"sep":36.473}
$GPGSV,3,1,09,66,27,063,34,67,78,017,29,68,41,258,18,75,13,005,30*7D
$GPGSV,3,2,09,76,28,063,38,77,14,111,18,82,38,202,18,83,60,271,00*78
$GPGSV,3,3,09,84,16,336,21*4E
{"class":"SKY","time":"2023-06-28T14:52:22.000Z","nSat":9,"uSat":4,"satellites":[{"PRN":66,"gnssid":6,"svid":2,"az":63.0,"el":27.0,"prRes":6.3,"qual":7,"ss":34.0,"used":true,"health":1},{"PRN":67,"gnssid":6,"svid":3,"az":17.0,"el":78.0,"prRes":1.7,"qual":7,"ss":29.0,"used":true,"health":1},{"PRN":68,"gnssid":6,"svid":4,"az":258.0,"el":41.0,"prRes":25.8,"qual":4,"ss":18.0,"used":false,"health":1},{"PRN":75,"gnssid":6,"svid":11,"az":5.0,"el":13.0,"prRes":0.5,"qual":7,"ss":30.0,"used":true,"health":1},{"PRN":76,"gnssid":6,"svid":12,"az":63.0,"el":28.0,"prRes":6.3,"qual":7,"ss":38.0,"used":true,"health":1},{"PRN":77,"gnssid":6,"svid":13,"az":111.0,"el":14.0,"prRes":11.1,"qual":4,"ss":18.0,"used":false,"health":1},{"PRN":82,"gnssid":6,"svid":18,"az":202.0,"el":38.0,"prRes":20.2,"qual":4,"ss":18.0,"used":false,"health":1},{"PRN":83,"gnssid":6,"svid":19,"az":271.0,"el":60.0,"prRes":27.1,"qual":1,"ss":0.0,"used":false,"health":1},{"PRN":84,"gnssid":6,"svid":20,"az":336.0,"el":16.0,"prRes":33.6,"qual":4,"ss":21.0,"used":false,"health":1}]}
$GPGSV,3,1,09,66,27,063,34,67,78,017,29,68,41,258,18,75,13,005,30*7D
$GPGSV,3,2,09,76,28,063,38,77,14,111,18,82,38,202,18,83,60,271,00*78
$GPGSV,3,3,09,84,16,336,21*4E
{"class":"SKY","time":"2023-06-28T14:52:22.000Z","gdop":2.16,"hdop":0.95,"pdop":1.92,"tdop":0.98,"xdop":0.64,"ydop":0.69,"vdop":1.67,"nSat":9,"uSat":8,"satellites":[{"PRN":66,"gnssid":6,"svid":2,"freqid":3,"az":63.0,"el":27.0,"prRes":-2.8,"qual":7,"ss":34.0,"used":true,"health":1},{"PRN":67,"gnssid":6,"svid":3,"freqid":12,"az":17.0,"el":78.0,"prRes":-7.3,"qual":7,"ss":29.0,"used":true,"health":1},{"PRN":68,"gnssid":6,"svid":4,"freqid":13,"az":258.0,"el":41.0,"prRes":0.0,"qual":4,"ss":18.0,"used":true,"health":1},{"PRN":75,"gnssid":6,"svid":11,"freqid":7,"az":5.0,"el":13.0,"prRes":1.0,"qual":7,"ss":30.0,"used":true,"health":1},{"PRN":76,"gnssid":6,"svid":12,"freqid":6,"az":63.0,"el":28.0,"prRes":2.0,"qual":7,"ss":38.0,"used":true,"health":1},{"PRN":77,"gnssid":6,"svid":13,"freqid":5,"az":111.0,"el":14.0,"prRes":0.0,"qual":4,"ss":18.0,"used":true,"health":1},{"PRN":82,"gnssid":6,"svid":18,"freqid":4,"az":202.0,"el":38.0,"prRes":0.0,"qual":4,"ss":18.0,"used":true,"health":1},{"PRN":83,"gnssid":6,"svid":19,"freqid":10,"az":271.0,"el":60.0,"prRes":0.0,"qual":1,"ss":0.0,"used":false,"health":1},{"PRN":84,"gnssid":6,"svid":20,"freqid":9,"az":336.0,"el":16.0,"prRes":0.0,"qual":4,"ss":21.0,"used":true,"health":1}]}
{"class":"SKY","time":"2023-06-28T14:52:22.000Z","gdop":2.16,"hdop":84.74,"pdop":1.92,"tdop":96.21,"xdop":35.39,"ydop":76.99,"vdop":80.74}
$GPZDA,145222.00,28,06,2023,00,00*6B
$GPGGA,145222.00,5536.1528140,N,03735.8832880,E,1,08,84.74,193.85,M,13.629,M,,*5D
$GPRMC,145222.00,A,5536.1528140,N,3735.8832880,E,0.0972,343.817,280623,11.3,E*6F
$GPGSA,A,3,66,67,68,75,76,77,82,84,,,,,1.9,84.7,80.7*34
$GPGBS,145222.00,530.850,1154.850,20.438,,,,*49
{"class":"TPV","mode":3,"time":"2023-06-28T14:52:22.000Z","ept":0.005,"lat":55.602546900,"lon":37.598054800,"altHAE":207.2110,"altMSL":193.8480,"alt":193.8480,"epx":530.850,"epy":1154.850,"epv":20.438,"track":343.8170,"magtrack":355.1162,"magvar":11.3,"speed":0.050,"climb":0.252,"eps":2324.70,"epc":40.97,"ecefx":2861476.20,"ecefy":2203478.58,"ecefz":5239740.92,"ecefvx":-0.04,"ecefvy":-0.01,"ecefvz":0.03,"ecefpAcc":32.79,"ecefvAcc":0.69,"geoidSep":13.629,"eph":25.646,"sep":36.473}
$GPGSV,3,1,09,66,27,063,34,67,78,017,29,68,41,258,19,75,13,005,30*7C
$GPGSV,3,2,09,76,28,063,38,77,14,111,17,82,38,202,18,83,60,271,00*77
$GPGSV,3,3,09,84,16,336,21*4E
{"class":"SKY","time":"2023-06-28T14:52:23.000Z","nSat":9,"uSat":4,"satellites":[{"PRN":66,"gnssid":6,"svid":2,"az":63.0,"el":27.0,"prRes":6.3,"qual":7,"ss":34.0,"used":true,"health":1},{"PRN":67,"gnssid":6,"svid":3,"az":17.0,"el":78.0,"prRes":1.7,"qual":7,"ss":29.0,"used":true,"health":1},{"PRN":68,"gnssid":6,"svid":4,"az":258.0,"el":41.0,"prRes":25.8,"qual":4,"ss":19.0,"used":false,"health":1},{"PRN":75,"gnssid":6,"svid":11,"az":5.0,"el":13.0,"prRes":0.5,"qual":7,"ss":30.0,"used":true,"health":1},{"PRN":76,"gnssid":6,"svid":12,"az":63.0,"el":28.0,"prRes":6.3,"qual":7,"ss":38.0,"used":true,"health":1},{"PRN":77,"gnssid":6,"svid":13,"az":111.0,"el":14.0,"prRes":11.1,"qual":4,"ss":17.0,"used":false,"health":1},{"PRN":82,"gnssid":6,"svid":18,"az":202.0,"el":38.0,"prRes":20.2,"qual":4,"ss":18.0,"used":false,"health":1},{"PRN":83,"gnssid":6,"svid":19,"az":271.0,"el":60.0,"prRes":27.1,"qual":1,"ss":0.0,"used":false,"health":1},{"PRN":84,"gnssid":6,"svid":20,"az":336.0,"el":16.0,"prRes":33.6,"qual":4,"ss":21.0,"used":false,"health":1}]}
$GPGSV,3,1,09,66,27,063,34,67,78,017,29,68,41,258,19,75,13,005,30*7C
$GPGSV,3,2,09,76,28,063,38,77,14,111,17,82,38,202,18,83,60,271,00*77
$GPGSV,3,3,09,84,16,336,21*4E
{"class":"SKY","time":"2023-06-28T14:52:23.000Z","gdop":2.16,"hdop":0.95,"pdop":1.92,"tdop":0.98,"xdop":0.64,"ydop":0.69,"vdop":1.67,"nSat":9,"uSat":8,"satellites":[{"PRN":66,"gnssid":6,"svid":2,"freqid":3,"az":63.0,"el":27.0,"prRes":-2.7,"qual":7,"ss":34.0,"used":true,"health":1},{"PRN":67,"gnssid":6,"svid":3,"freqid":12,"az":17.0,"el":78.0,"prRes":-6.3,"qual":7,"ss":29.0,"used":true,"health":1},{"PRN":68,"gnssid":6,"svid":4,"freqid":13,"az":258.0,"el":41.0,"prRes":0.0,"qual":4,"ss":19.0,"used":true,"health":1},{"PRN":75,"gnssid":6,"svid":11,"freqid":7,"az":5.0,"el":13.0,"prRes":1.0,"qual":7,"ss":30.0,"used":true,"health":1},{"PRN":76,"gnssid":6,"svid":12,"freqid":6,"az":63.0,"el":28.0,"prRes":1.6,"qual":7,"ss":38.0,"used":true,"health":1},{"PRN":77,"gnssid":6,"svid":13,"freqid":5,"az":111.0,"el":14.0,"prRes":0.0,"qual":4,"ss":17.0,"used":true,"health":1},{"PRN":82,"gnssid":6,"svid":18,"freqid":4,"az":202.0,"el":38.0,"prRes":0.0,"qual":4,"ss":18.0,"used":true,"health":1},{"PRN":83,"gnssid":6,"svid":19,"freqid":10,"az":271.0,"el":60.0,"prRes":0.0,"qual":1,"ss":0.0,"used":false,"health":1},{"PRN":84,"gnssid":6,"svid":20,"freqid":9,"az":336.0,"el":16.0,"prRes":0.0,"qual":4,"ss":21.0,"used":true,"health":1}]}
{"class":"SKY","time":"2023-06-28T14:52:23.000Z","gdop":2.16,"hdop":83.66,"pdop":1.92,"tdop":94.97,"xdop":34.94,"ydop":76.01,"vdop":79.69}
$GPZDA,145223.00,28,06,2023,00,00*6A
$GPGGA,145223.00,5536.1531440,N,03735.8837500,E,1,08,83.66,194.00,M,13.629,M,,*5F
$GPRMC,145223.00,A,5536.1531440,N,3735.8837500,E,0.0311,343.817,280623,11.3,E*6C
$GPGSA,A,3,66,67,68,75,76,77,82,84,,,,,1.9,83.7,79.7*35
$GPGBS,145223.00,524.100,1140.150,20.370,,,,*46
{"class":"TPV","mode":3,"time":"2023-06-28T14:52:23.000Z","ept":0.005,"lat":55.602552400,"lon":37.598062500,"altHAE":207.3590,"altMSL":193.9960,"alt":193.9960,"epx":524.100,"epy":1140.150,"epv":20.370,"track":343.8170,"magtrack":355.1162,"magvar":11.3,"speed":0.016,"climb":0.148,"eps":2295.00,"epc":40.81,"ecefx":2861475.57,"ecefy":2203478.70,"ecefz":5239741.40,"ecefvx":0.00,"ecefvy":0.02,"ecefvz":0.00,"ecefpAcc":32.60,"ecefvAcc":0.55,"geoidSep":13.629,"eph":25.454,"sep":36.473}
$GPGSV,3,1,09,66,27,063,34,67,78,017,29,68,41,258,20,75,13,005,31*77
$GPGSV,3,2,09,76,28,063,38,77,14,111,16,82,38,202,16,83,60,271,00*78
$GPGSV,3,3,09,84,16,336,22*4D
{"class":"SKY","time":"2023-06-28T14:52:24.000Z","nSat":9,"uSat":4,"satellites":[{"PRN":66,"gnssid":6,"svid":2,"az":63.0,"el":27.0,"prRes":6.3,"qual":7,"ss":34.0,"used":true,"health":1},{"PRN":67,"gnssid":6,"svid":3,"az":17.0,"el":78.0,"prRes":1.7,"qual":7,"ss":29.0,"used":true,"health":1},{"PRN":68,"gnssid":6,"svid":4,"az":258.0,"el":41.0,"prRes":25.8,"qual":4,"ss":20.0,"used":false,"health":1},{"PRN":75,"gnssid":6,"svid":11,"az":5.0,"el":13.0,"prRes":0.5,"qual":7,"ss":31.0,"used":true,"health":1},{"PRN":76,"gnssid":6,"svid":12,"az":63.0,"el":28.0,"prRes":6.3,"qual":7,"ss":38.0,"used":true,"health":1},{"PRN":77,"gnssid":6,"svid":13,"az":111.0,"el":14.0,"prRes":11.1,"qual":4,"ss":16.0,"used":false,"health":1},{"PRN":82,"gnssid":6,"svid":18,"az":202.0,"el":38.0,"prRes":20.2,"qual":4,"ss":16.0,"used":false,"health":1},{"PRN":83,"gnssid":6,"svid":19,"az":271.0,"el":60.0,"prRes":27.1,"qual":0,"ss":0.0,"used":false,"health":1},{"PRN":84,"gnssid":6,"svid":20,"az":336.0,"el":16.0,"prRes":33.6,"qual":4,"ss":22.0,"used":false,"health":1}]}
$GPGSV,2,1,08,66,27,063,34,67,78,017,29,68,41,258,20,75,13,005,31*77
$GPGSV,2,2,08,76,28,063,38,77,14,111,16,82,38,202,16,84,16,336,22*7C
{"class":"SKY","time":"2023-06-28T14:52:24.000Z","gdop":2.16,"hdop":0.95,"pdop":1.92,"tdop":0.98,"xdop":0.64,"ydop":0.69,"vdop":1.67,"nSat":8,"uSat":8,"satellites":[{"PRN":66,"gnssid":6,"svid":2,"freqid":3,"az":63.0,"el":27.0,"prRes":-2.9,"qual":7,"ss":34.0,"used":true,"health":1},{"PRN":67,"gnssid":6,"svid":3,"freqid":12,"az":17.0,"el":78.0,"prRes":-5.3,"qual":7,"ss":29.0,"used":true,"health":1},{"PRN":68,"gnssid":6,"svid":4,"freqid":13,"az":258.0,"el":41.0,"prRes":0.0,"qual":4,"ss":20.0,"used":true,"health":1},{"PRN":75,"gnssid":6,"svid":11,"freqid":7,"az":5.0,"el":13.0,"prRes":1.0,"qual":7,"ss":31.0,"used":true,"health":1},{"PRN":76,"gnssid":6,"svid":12,"freqid":6,"az":63.0,"el":28.0,"prRes":1.7,"qual":7,"ss":38.0,"used":true,"health":1},{"PRN":77,"gnssid":6,"svid":13,"freqid":5,"az":111.0,"el":14.0,"prRes":0.0,"qual":4,"ss":16.0,"used":true,"health":1},{"PRN":82,"gnssid":6,"svid":18,"freqid":4,"az":202.0,"el":38.0,"prRes":0.0,"qual":4,"ss":16.0,"used":true,"health":1},{"PRN":84,"gnssid":6,"svid":20,"freqid":9,"az":336.0,"el":16.0,"prRes":0.0,"qual":4,"ss":22.0,"used":true,"health":1}]}
{"class":"SKY","time":"2023-06-28T14:52:24.000Z","gdop":2.16,"hdop":82.61,"pdop":1.92,"tdop":93.77,"xdop":34.50,"ydop":75.06,"vdop":78.67}
$GPZDA,145224.00,28,06,2023,00,00*6D
$GPGGA,145224.00,5536.1534380,N,03735.8841820,E,1,08,82.61,194.18,M,13.629,M,,*57
$GPRMC,145224.00,A,5536.1534380,N,3735.8841820,E,0.1011,343.817,280623,11.3,E*69
$GPGSA,A,3,66,67,68,75,76,77,82,84,,,,,1.9,82.6,78.7*34
$GPGBS,145224.00,517.500,1125.900,20.311,,,,*4C
{"class":"TPV","mode":3,"time":"2023-06-28T14:52:24.000Z","ept":0.005,"lat":55.602557300,"lon":37.598069700,"altHAE":207.5460,"altMSL":194.1830,"alt":194.1830,"epx":517.500,"epy":1125.900,"epv":20.311,"track":343.8170,"magtrack":355.1162,"magvar":11.3,"speed":0.052,"climb":0.187,"eps":2266.05,"epc":40.68,"ecefx":2861475.02,"ecefy":2203478.85,"ecefz":5239741.86,"ecefvx":-0.03,"ecefvy":0.04,"ecefvz":0.00,"ecefpAcc":32.42,"ecefvAcc":0.52,"geoidSep":13.629,"eph":25.274,"sep":36.473}
$GPGSV,3,1,09,66,27,063,35,67,78,017,28,68,41,258,20,75,13,005,31*77
$GPGSV,3,2,09,76,28,063,38,77,14,111,15,82,38,202,18,83,60,271,00*75
$GPGSV,3,3,09,84,16,336,21*4E
{"class":"SKY","time":"2023-06-28T14:52:25.000Z","nSat":9,"uSat":4,"satellites":[{"PRN":66,"gnssid":6,"svid":2,"az":63.0,"el":27.0,"prRes":6.3,"qual":7,"ss":35.0,"used":true,"health":1},{"PRN":67,"gnssid":6,"svid":3,"az":17.0,"el":78.0,"prRes":1.7,"qual":7,"ss":28.0,"used":true,"health":1},{"PRN":68,"gnssid":6,"svid":4,"az":258.0,"el":41.0,"prRes":25.8,"qual":4,"ss":20.0,"used":false,"health":1},{"PRN":75,"gnssid":6,"svid":11,"az":5.0,"el":13.0,"prRes":0.5,"qual":7,"ss":31.0,"used":true,"health":1},{"PRN":76,"gnssid":6,"svid":12,"az":63.0,"el":28.0,"prRes":6.3,"qual":7,"ss":38.0,"used":true,"health":1},{"PRN":77,"gnssid":6,"svid":13,"az":111.0,"el":14.0,"prRes":11.1,"qual":4,"ss":15.0,"used":false,"health":1},{"PRN":82,"gnssid":6,"svid":18,"az":202.0,"el":38.0,"prRes":20.2,"qual":4,"ss":18.0,"used":false,"health":1},{"PRN":83,"gnssid":6,"svid":19,"az":271.0,"el":60.0,"prRes":27.1,"qual":1,"ss":0.0,"used":false,"health":1},{"PRN":84,"gnssid":6,"svid":20,"az":336.0,"el":16.0,"prRes":33.6,"qual":4,"ss":21.0,"used":false,"health":1}]}
$GPGSV,3,1,09,66,27,063,35,67,78,017,28,68,41,258,20,75,13,005,31*77
$GPGSV,3,2,09,76,28,063,38,77,14,111,15,82,38,202,18,83,60,271,00*75
$GPGSV,3,3,09,84,16,336,21*4E
{"class":"SKY","time":"2023-06-28T14:52:25.000Z","gdop":2.16,"hdop":0.95,"pdop":1.92,"tdop":0.98,"xdop":0.64,"ydop":0.69,"vdop":1.67,"nSat":9,"uSat":8,"satellites":[{"PRN":66,"gnssid":6,"svid":2,"freqid":3,"az":63.0,"el":27.0,"prRes":-2.9,"qual":7,"ss":35.0,"used":true,"health":1},{"PRN":67,"gnssid":6,"svid":3,"freqid":12,"az":17.0,"el":78.0,"prRes":-2.7,"qual":7,"ss":28.0,"used":true,"health":1},{"PRN":68,"gnssid":6,"svid":4,"freqid":13,"az":258.0,"el":41.0,"prRes":0.0,"qual":4,"ss":20.0,"used":true,"health":1},{"PRN":75,"gnssid":6,"svid":11,"freqid":7,"az":5.0,"el":13.0,"prRes":0.8,"qual":7,"ss":31.0,"used":true,"health":1},{"PRN":76,"gnssid":6,"svid":12,"freqid":6,"az":63.0,"el":28.0,"prRes":1.4,"qual":7,"ss":38.0,"used":true,"health":1},{"PRN":77,"gnssid":6,"svid":13,"freqid":5,"az":111.0,"el":14.0,"prRes":0.0,"qual":4,"ss":15.0,"used":true,"health":1},{"PRN":82,"gnssid":6,"svid":18,"freqid":4,"az":202.0,"el":38.0,"prRes":0.0,"qual":4,"ss":18.0,"used":true,"health":1},{"PRN":83,"gnssid":6,"svid":19,"freqid":10,"az":271.0,"el":60.0,"prRes":0.0,"qual":1,"ss":0.0,"used":false,"health":1},{"PRN":84,"gnssid":6,"svid":20,"freqid":9,"az":336.0,"el":16.0,"prRes":0.0,"qual":4,"ss":21.0,"used":true,"health":1}]}
{"class":"SKY","time":"2023-06-28T14:52:25.000Z","gdop":2.16,"hdop":81.59,"pdop":1.92,"tdop":92.60,"xdop":34.07,"ydop":74.13,"vdop":77.68}
$GPZDA,145225.00,28,06,2023,00,00*6C
$GPGGA,145225.00,5536.1536180,N,03735.8844040,E,1,08,81.59,194.32,M,13.629,M,,*5D
$GPRMC,145225.00,A,5536.1536180,N,3735.8844040,E,0.0816,343.817,280623,11.3,E*6D
$GPGSA,A,3,66,67,68,75,76,77,82,84,,,,,1.9,81.6,77.7*38
$GPGBS,145225.00,511.050,1111.950,20.265,,,,*4B
{"class":"TPV","mode":3,"time":"2023-06-28T14:52:25.000Z","ept":0.005,"lat":55.602560300,"lon":37.598073400,"altHAE":207.6840,"altMSL":194.3210,"alt":194.3210,"epx":511.050,"epy":1111.950,"epv":20.265,"track":343.8170,"magtrack":355.1162,"magvar":11.3,"speed":0.042,"climb":0.138,"eps":2237.85,"epc":40.58,"ecefx":2861474.72,"ecefy":2203478.91,"ecefz":5239742.16,"ecefvx":-0.04,"ecefvy":0.01,"ecefvz":0.02,"ecefpAcc":32.29,"ecefvAcc":0.64,"geoidSep":13.629,"eph":25.136,"sep":36.473}
$GPGSV,3,1,09,66,27,063,35,67,78,017,28,68,41,258,20,75,13,005,32*74
$GPGSV,3,2,09,76,28,063,39,77,14,111,16,82,38,202,18,83,60,271,00*77
$GPGSV,3,3,09,84,16,336,21*4E
{"class":"SKY","time":"2023-06-28T14:52:26.000Z","nSat":9,"uSat":4,"satellites":[{"PRN":66,"gnssid":6,"svid":2,"az":63.0,"el":27.0,"prRes":6.3,"qual":7,"ss":35.0,"used":true,"health":1},{"PRN":67,"gnssid":6,"svid":3,"az":17.0,"el":78.0,"prRes":1.7,"qual":7,"ss":28.0,"used":true,"health":1},{"PRN":68,"gnssid":6,"svid":4,"az":258.0,"el":41.0,"prRes":25.8,"qual":4,"ss":20.0,"used":false,"health":1},{"PRN":75,"gnssid":6,"svid":11,"az":5.0,"el":13.0,"prRes":0.5,"qual":7,"ss":32.0,"used":true,"health":1},{"PRN":76,"gnssid":6,"svid":12,"az":63.0,"el":28.0,"prRes":6.3,"qual":7,"ss":39.0,"used":true,"health":1},{"PRN":77,"gnssid":6,"svid":13,"az":111.0,"el":14.0,"prRes":11.1,"qual":4,"ss":16.0,"used":false,"health":1},{"PRN":82,"gnssid":6,"svid":18,"az":202.0,"el":38.0,"prRes":20.2,"qual":4,"ss":18.0,"used":false,"health":1},{"PRN":83,"gnssid":6,"svid":19,"az":271.0,"el":60.0,"prRes":27.1,"qual":1,"ss":0.0,"used":false,"health":1},{"PRN":84,"gnssid":6,"svid":20,"az":336.0,"el":16.0,"prRes":33.6,"qual":4,"ss":21.0,"used":false,"health":1}]}
$GPGSV,3,1,09,66,27,063,35,67,78,017,28,68,41,258,20,75,13,005,32*74
$GPGSV,3,2,09,76,28,063,39,77,14,111,16,82,38,202,18,83,60,271,00*77
$GPGSV,3,3,09,84,16,336,21*4E
{"class":"SKY","time":"2023-06-28T14:52:26.000Z","gdop":2.16,"hdop":0.95,"pdop":1.92,"tdop":0.98,"xdop":0.64,"ydop":0.69,"vdop":1.67,"nSat":9,"uSat":8,"satellites":[{"PRN":66,"gnssid":6,"svid":2,"freqid":3,"az":63.0,"el":27.0,"prRes":-3.0,"qual":7,"ss":35.0,"used":true,"health":1},{"PRN":67,"gnssid":6,"svid":3,"freqid":12,"az":17.0,"el":78.0,"prRes":-1.3,"qual":7,"ss":28.0,"used":true,"health":1},{"PRN":68,"gnssid":6,"svid":4,"freqid":13,"az":258.0,"el":41.0,"prRes":0.0,"qual":4,"ss":20.0,"used":true,"health":1},{"PRN":75,"gnssid":6,"svid":11,"freqid":7,"az":5.0,"el":13.0,"prRes":1.0,"qual":7,"ss":32.0,"used":true,"health":1},{"PRN":76,"gnssid":6,"svid":12,"freqid":6,"az":63.0,"el":28.0,"prRes":1.0,"qual":7,"ss":39.0,"used":true,"health":1},{"PRN":77,"gnssid":6,"svid":13,"freqid":5,"az":111.0,"el":14.0,"prRes":0.0,"qual":4,"ss":16.0,"used":true,"health":1},{"PRN":82,"gnssid":6,"svid":18,"freqid":4,"az":202.0,"el":38.0,"prRes":0.0,"qual":4,"ss":18.0,"used":true,"health":1},{"PRN":83,"gnssid":6,"svid":19,"freqid":10,"az":271.0,"el":60.0,"prRes":0.0,"qual":1,"ss":0.0,"used":false,"health":1},{"PRN":84,"gnssid":6,"svid":20,"freqid":9,"az":336.0,"el":16.0,"prRes":0.0,"qual":4,"ss":21.0,"used":true,"health":1}]}
{"class":"SKY","time":"2023-06-28T14:52:26.000Z","gdop":2.16,"hdop":80.59,"pdop":1.92,"tdop":91.46,"xdop":33.65,"ydop":73.23,"vdop":76.71}
$GPZDA,145226.00,28,06,2023,00,00*6F
$GPGGA,145226.00,5536.1537080,N,03735.8845000,E,1,08,80.59,194.43,M,13.629,M,,*5C
$GPRMC,145226.00,A,5536.1537080,N,3735.8845000,E,0.1263,343.817,280623,11.3,E*62
$GPGSA,A,3,66,67,68,75,76,77,82,84,,,,,1.9,80.6,76.7*38
$GPGBS,145226.00,504.750,1098.450,20.221,,,,*46
{"class":"TPV","mode":3,"time":"2023-06-28T14:52:26.000Z","ept":0.005,"lat":55.602561800,"lon":37.598075000,"altHAE":207.7950,"altMSL":194.4320,"alt":194.4320,"epx":504.750,"epy":1098.450,"epv":20.221,"track":343.8170,"magtrack":355.1162,"magvar":11.3,"speed":0.065,"climb":0.111,"eps":2210.40,"epc":40.49,"ecefx":2861474.60,"ecefy":2203478.95,"ecefz":5239742.34,"ecefvx":0.05,"ecefvy":0.03,"ecefvz":-0.04,"ecefpAcc":32.15,"ecefvAcc":0.68,"geoidSep":13.629,"eph":24.998,"sep":36.473}
$GPGSV,3,1,09,66,27,063,36,67,78,017,28,68,41,258,21,75,13,005,32*76
$GPGSV,3,2,09,76,28,063,40,77,14,111,16,82,38,202,19,83,60,271,00*78
$GPGSV,3,3,09,84,16,336,22*4D
{"class":"SKY","time":"2023-06-28T14:52:27.000Z","nSat":9,"uSat":4,"satellites":[{"PRN":66,"gnssid":6,"svid":2,"az":63.0,"el":27.0,"prRes":6.3,"qual":7,"ss":36.0,"used":true,"health":1},{"PRN":67,"gnssid":6,"svid":3,"az":17.0,"el":78.0,"prRes":1.7,"qual":7,"ss":28.0,"used":true,"health":1},{"PRN":68,"gnssid":6,"svid":4,"az":258.0,"el":41.0,"prRes":25.8,"qual":4,"ss":21.0,"used":false,"health":1},{"PRN":75,"gnssid":6,"svid":11,"az":5.0,"el":13.0,"prRes":0.5,"qual":7,"ss":32.0,"used":true,"health":1},{"PRN":76,"gnssid":6,"svid":12,"az":63.0,"el":28.0,"prRes":6.3,"qual":7,"ss":40.0,"used":true,"health":1},{"PRN":77,"gnssid":6,"svid":13,"az":111.0,"el":14.0,"prRes":11.1,"qual":4,"ss":16.0,"used":false,"health":1},{"PRN":82,"gnssid":6,"svid":18,"az":202.0,"el":38.0,"prRes":20.2,"qual":4,"ss":19.0,"used":false,"health":1},{"PRN":83,"gnssid":6,"svid":19,"az":271.0,"el":60.0,"prRes":27.1,"qual":1,"ss":0.0,"used":false,"health":1},{"PRN":84,"gnssid":6,"svid":20,"az":336.0,"el":16.0,"prRes":33.6,"qual":4,"ss":22.0,"used":false,"health":1}]}
$GPGSV,3,1,09,66,27,063,36,67,78,017,28,68,41,258,21,75,13,005,32*76
$GPGSV,3,2,09,76,28,063,40,77,14,111,16,82,38,202,19,83,60,271,00*78
$GPGSV,3,3,09,84,16,336,22*4D
{"class":"SKY","time":"2023-06-28T14:52:27.000Z","gdop":2.16,"hdop":0.95,"pdop":1.92,"tdop":0.98,"xdop":0.64,"ydop":0.69,"vdop":1.67,"nSat":9,"uSat":8,"satellites":[{"PRN":66,"gnssid":6,"svid":2,"freqid":3,"az":63.0,"el":27.0,"prRes":-3.1,"qual":7,"ss":36.0,"used":true,"health":1},{"PRN":67,"gnssid":6,"svid":3,"freqid":12,"az":17.0,"el":78.0,"prRes":-0.1,"qual":7,"ss":28.0,"used":true,"health":1},{"PRN":68,"gnssid":6,"svid":4,"freqid":13,"az":258.0,"el":41.0,"prRes":0.0,"qual":4,"ss":21.0,"used":true,"health":1},{"PRN":75,"gnssid":6,"svid":11,"freqid":7,"az":5.0,"el":13.0,"prRes":0.7,"qual":7,"ss":32.0,"used":true,"health":1},{"PRN":76,"gnssid":6,"svid":12,"freqid":6,"az":63.0,"el":28.0,"prRes":0.6,"qual":7,"ss":40.0,"used":true,"health":1},{"PRN":77,"gnssid":6,"svid":13,"freqid":5,"az":111.0,"el":14.0,"prRes":0.0,"qual":4,"ss":16.0,"used":true,"health":1},{"PRN":82,"gnssid":6,"svid":18,"freqid":4,"az":202.0,"el":38.0,"prRes":0.0,"qual":4,"ss":19.0,"used":true,"health":1},{"PRN":83,"gnssid":6,"svid":19,"freqid":10,"az":271.0,"el":60.0,"prRes":0.0,"qual":1,"ss":0.0,"used":false,"health":1},{"PRN":84,"gnssid":6,"svid":20,"freqid":9,"az":336.0,"el":16.0,"prRes":0.0,"qual":4,"ss":22.0,"used":true,"health":1}]}
{"class":"SKY","time":"2023-06-28T14:52:27.000Z","gdop":2.16,"hdop":79.62,"pdop":1.92,"tdop":90.34,"xdop":33.24,"ydop":72.35,"vdop":75.76}
$GPZDA,145227.00,28,06,2023,00,00*6E
$GPGGA,145227.00,5536.1537620,N,03735.8844940,E,1,08,79.62,194.54,M,13.629,M,,*55
$GPRMC,145227.00,A,5536.1537620,N,3735.8844940,E,0.0311,343.817,280623,11.3,E*66
$GPGSA,A,3,66,67,68,75,76,77,82,84,,,,,1.9,79.6,75.8*32
$GPGBS,145227.00,498.600,1085.250,20.163,,,,*48
{"class":"TPV","mode":3,"time":"2023-06-28T14:52:27.000Z","ept":0.005,"lat":55.602562700,"lon":37.598074900,"altHAE":207.9030,"altMSL":194.5400,"alt":194.5400,"epx":498.600,"epy":1085.250,"epv":20.163,"track":343.8170,"magtrack":355.1162,"magvar":11.3,"speed":0.016,"climb":0.108,"eps":2183.70,"epc":40.38,"ecefx":2861474.59,"ecefy":2203478.93,"ecefz":5239742.49,"ecefvx":0.01,"ecefvy":-0.01,"ecefvz":0.00,"ecefpAcc":32.00,"ecefvAcc":0.50,"geoidSep":13.629,"eph":24.853,"sep":36.473}
$GPGSV,3,1,09,66,27,063,35,67,78,017,29,68,41,258,20,75,13,005,33*74
$GPGSV,3,2,09,76,28,063,40,77,14,111,15,82,38,202,18,83,60,271,00*7A
$GPGSV,3,3,09,84,16,336,22*4D
{"class":"SKY","time":"2023-06-28T14:52:28.000Z","nSat":9,"uSat":4,"satellites":[{"PRN":66,"gnssid":6,"svid":2,"az":63.0,"el":27.0,"prRes":6.3,"qual":7,"ss":35.0,"used":true,"health":1},{"PRN":67,"gnssid":6,"svid":3,"az":17.0,"el":78.0,"prRes":1.7,"qual":7,"ss":29.0,"used":true,"health":1},{"PRN":68,"gnssid":6,"svid":4,"az":258.0,"el":41.0,"prRes":25.8,"qual":4,"ss":20.0,"used":false,"health":1},{"PRN":75,"gnssid":6,"svid":11,"az":5.0,"el":13.0,"prRes":0.5,"qual":7,"ss":33.0,"used":true,"health":1},{"PRN":76,"gnssid":6,"svid":12,"az":63.0,"el":28.0,"prRes":6.3,"qual":7,"ss":40.0,"used":true,"health":1},{"PRN":77,"gnssid":6,"svid":13,"az":111.0,"el":14.0,"prRes":11.1,"qual":3,"ss":15.0,"used":false,"health":1},{"PRN":82,"gnssid":6,"svid":18,"az":202.0,"el":38.0,"prRes":20.2,"qual":4,"ss":18.0,"used":false,"health":1},{"PRN":83,"gnssid":6,"svid":19,"az":271.0,"el":60.0,"prRes":27.1,"qual":1,"ss":0.0,"used":false,"health":1},{"PRN":84,"gnssid":6,"svid":20,"az":336.0,"el":16.0,"prRes":33.6,"qual":4,"ss":22.0,"used":false,"health":1}]}
$GPGSV,3,1,09,66,27,063,35,67,78,017,29,68,41,258,20,75,13,005,33*74
$GPGSV,3,2,09,76,28,063,40,77,14,111,15,82,38,202,18,83,60,271,00*7A
$GPGSV,3,3,09,84,16,336,22*4D
