$GNTXT,01,01,01,PMTK inv format*20
$GPGSV,6,1,22,03,02,018,00,04,40,077,43,06,04,294,22,07,66,222,47*7A
$GPGSV,6,2,22,08,19,070,42,09,72,112,50,11,06,265,31,14,14,335,37*73
$GPGSV,6,3,22,16,16,139,30,20,24,231,41,27,15,107,26,30,39,269,44*72
$GPGSV,6,4,22,194,34,357,41,195,10,359,37,196,64,027,46,66,15,045,37*49
$GPGSV,6,5,22,67,67,071,42,68,51,202,36,69,05,216,26,77,39,150,45*71
$GPGSV,6,6,22,78,74,295,53,79,21,320,42*77
{"class":"SKY","time":"2019-04-12T05:06:24.000Z","gdop":1.14,"hdop":0.60,"pdop":1.02,"tdop":0.51,"xdop":0.40,"ydop":0.45,"vdop":0.82,"nSat":22,"uSat":19,"satellites":[{"PRN":3,"gnssid":0,"svid":3,"az":18.0,"el":2.0,"prRes":0.0,"qual":1,"ss":0.0,"used":false,"health":1},{"PRN":4,"gnssid":0,"svid":4,"az":77.0,"el":40.0,"prRes":0.6,"qual":7,"ss":43.0,"used":true,"health":1},{"PRN":6,"gnssid":0,"svid":6,"az":294.0,"el":4.0,"prRes":0.0,"qual":4,"ss":22.0,"used":false,"health":1},{"PRN":7,"gnssid":0,"svid":7,"az":222.0,"el":66.0,"prRes":-1.8,"qual":7,"ss":47.0,"used":true,"health":1},{"PRN":8,"gnssid":0,"svid":8,"az":70.0,"el":19.0,"prRes":2.5,"qual":7,"ss":42.0,"used":true,"health":1},{"PRN":9,"gnssid":0,"svid":9,"az":112.0,"el":72.0,"prRes":-2.9,"qual":7,"ss":50.0,"used":true,"health":1},{"PRN":11,"gnssid":0,"svid":11,"az":265.0,"el":6.0,"prRes":5.4,"qual":6,"ss":31.0,"used":true,"health":1},{"PRN":14,"gnssid":0,"svid":14,"az":335.0,"el":14.0,"prRes":0.8,"qual":7,"ss":37.0,"used":true,"health":1},{"PRN":16,"gnssid":0,"svid":16,"az":139.0,"el":16.0,"prRes":4.5,"qual":7,"ss":30.0,"used":true,"health":1},{"PRN":20,"gnssid":0,"svid":20,"az":231.0,"el":24.0,"prRes":1.1,"qual":7,"ss":41.0,"used":true,"health":1},{"PRN":27,"gnssid":0,"svid":27,"az":107.0,"el":15.0,"prRes":-7.2,"qual":4,"ss":26.0,"used":true,"health":1},{"PRN":30,"gnssid":0,"svid":30,"az":269.0,"el":39.0,"prRes":2.5,"qual":7,"ss":44.0,"used":true,"health":1},{"PRN":194,"gnssid":5,"svid":2,"az":357.0,"el":34.0,"prRes":6.5,"qual":7,"ss":41.0,"used":true,"health":1},{"PRN":195,"gnssid":5,"svid":3,"az":359.0,"el":10.0,"prRes":5.4,"qual":7,"ss":37.0,"used":true,"health":1},{"PRN":196,"gnssid":5,"svid":4,"az":27.0,"el":64.0,"prRes":0.5,"qual":7,"ss":46.0,"used":true,"health":1},{"PRN":66,"gnssid":6,"svid":2,"az":45.0,"el":15.0,"prRes":7.5,"qual":7,"ss":37.0,"used":true,"health":1},{"PRN":67,"gnssid":6,"svid":3,"az":71.0,"el":67.0,"prRes":-11.9,"qual":7,"ss":42.0,"used":true,"health":1},{"PRN":68,"gnssid":6,"svid":4,"az":202.0,"el":51.0,"prRes":-14.7,"qual":7,"ss":36.0,"used":true,"health":1},{"PRN":69,"gnssid":6,"svid":5,"az":216.0,"el":5.0,"prRes":0.0,"qual":5,"ss":26.0,"used":false,"health":1},{"PRN":77,"gnssid":6,"svid":13,"az":150.0,"el":39.0,"prRes":3.2,"qual":7,"ss":45.0,"used":true,"health":1},{"PRN":78,"gnssid":6,"svid":14,"az":295.0,"el":74.0,"prRes":-1.8,"qual":7,"ss":53.0,"used":true,"health":1},{"PRN":79,"gnssid":6,"svid":15,"az":320.0,"el":21.0,"prRes":7.2,"qual":7,"ss":42.0,"used":true,"health":1}]}
{"class":"SKY","time":"2019-04-12T05:06:24.000Z","gdop":0.23,"hdop":0.60,"pdop":1.02,"tdop":0.23,"xdop":0.40,"ydop":0.45,"vdop":0.82}
$GPGSV,6,1,22,03,02,018,00,04,40,077,43,06,04,294,23,07,66,222,47*7B
$GPGSV,6,2,22,08,19,070,42,09,72,112,50,11,06,265,30,14,14,335,37*72
$GPGSV,6,3,22,16,16,139,30,20,24,231,41,27,15,107,26,30,39,269,44*72
$GPGSV,6,4,22,194,34,357,41,195,10,359,37,196,64,027,46,66,15,045,37*49
$GPGSV,6,5,22,67,67,071,42,68,51,202,36,69,05,216,27,77,39,150,46*73
$GPGSV,6,6,22,78,74,295,53,79,21,320,43*76
{"class":"SKY","time":"2025-04-11T05:06:25.000Z","gdop":1.14,"hdop":0.60,"pdop":1.02,"tdop":0.51,"xdop":0.40,"ydop":0.45,"vdop":0.82,"nSat":22,"uSat":19,"satellites":[{"PRN":3,"gnssid":0,"svid":3,"az":18.0,"el":2.0,"prRes":0.0,"qual":1,"ss":0.0,"used":false,"health":1},{"PRN":4,"gnssid":0,"svid":4,"az":77.0,"el":40.0,"prRes":0.7,"qual":7,"ss":43.0,"used":true,"health":1},{"PRN":6,"gnssid":0,"svid":6,"az":294.0,"el":4.0,"prRes":0.0,"qual":4,"ss":23.0,"used":false,"health":1},{"PRN":7,"gnssid":0,"svid":7,"az":222.0,"el":66.0,"prRes":-2.0,"qual":7,"ss":47.0,"used":true,"health":1},{"PRN":8,"gnssid":0,"svid":8,"az":70.0,"el":19.0,"prRes":2.6,"qual":7,"ss":42.0,"used":true,"health":1},{"PRN":9,"gnssid":0,"svid":9,"az":112.0,"el":72.0,"prRes":-3.0,"qual":7,"ss":50.0,"used":true,"health":1},{"PRN":11,"gnssid":0,"svid":11,"az":265.0,"el":6.0,"prRes":2.4,"qual":5,"ss":30.0,"used":true,"health":1},{"PRN":14,"gnssid":0,"svid":14,"az":335.0,"el":14.0,"prRes":0.7,"qual":7,"ss":37.0,"used":true,"health":1},{"PRN":16,"gnssid":0,"svid":16,"az":139.0,"el":16.0,"prRes":0.5,"qual":7,"ss":30.0,"used":true,"health":1},{"PRN":20,"gnssid":0,"svid":20,"az":231.0,"el":24.0,"prRes":1.2,"qual":7,"ss":41.0,"used":true,"health":1},{"PRN":27,"gnssid":0,"svid":27,"az":107.0,"el":15.0,"prRes":-12.9,"qual":4,"ss":26.0,"used":true,"health":1},{"PRN":30,"gnssid":0,"svid":30,"az":269.0,"el":39.0,"prRes":2.3,"qual":7,"ss":44.0,"used":true,"health":1},{"PRN":194,"gnssid":5,"svid":2,"az":357.0,"el":34.0,"prRes":6.3,"qual":7,"ss":41.0,"used":true,"health":1},{"PRN":195,"gnssid":5,"svid":3,"az":359.0,"el":10.0,"prRes":5.7,"qual":7,"ss":37.0,"used":true,"health":1},{"PRN":196,"gnssid":5,"svid":4,"az":27.0,"el":64.0,"prRes":0.3,"qual":7,"ss":46.0,"used":true,"health":1},{"PRN":66,"gnssid":6,"svid":2,"az":45.0,"el":15.0,"prRes":7.3,"qual":7,"ss":37.0,"used":true,"health":1},{"PRN":67,"gnssid":6,"svid":3,"az":71.0,"el":67.0,"prRes":-11.7,"qual":7,"ss":42.0,"used":true,"health":1},{"PRN":68,"gnssid":6,"svid":4,"az":202.0,"el":51.0,"prRes":-14.9,"qual":7,"ss":36.0,"used":true,"health":1},{"PRN":69,"gnssid":6,"svid":5,"az":216.0,"el":5.0,"prRes":0.0,"qual":6,"ss":27.0,"used":false,"health":1},{"PRN":77,"gnssid":6,"svid":13,"az":150.0,"el":39.0,"prRes":3.3,"qual":7,"ss":46.0,"used":true,"health":1},{"PRN":78,"gnssid":6,"svid":14,"az":295.0,"el":74.0,"prRes":-1.2,"qual":7,"ss":53.0,"used":true,"health":1},{"PRN":79,"gnssid":6,"svid":15,"az":320.0,"el":21.0,"prRes":6.7,"qual":7,"ss":43.0,"used":true,"health":1}]}
{"class":"SKY","time":"2025-04-11T05:06:25.000Z","gdop":0.23,"hdop":0.60,"pdop":1.02,"tdop":0.23,"xdop":0.40,"ydop":0.45,"vdop":0.82}
$GPZDA,050625.00,11,04,2025,00,00*63
$GPGGA,050625.00,3454.4931760,S,13835.7688740,E,7,19,0.60,64.00,M,-1.695,M,,*5F
$GPRMC,050625.00,A,3454.4931760,S,13835.7688740,E,0.0000,0.000,110425,7.9,E*7A
$GPGSA,A,3,4,7,8,9,11,14,16,20,27,30,,,1.0,0.6,0.8*39
$GPGBS,050625.00,6.005,6.676,0.748,,,,*4C
{"class":"TPV","status":7,"mode":3,"time":"2025-04-11T05:06:25.000Z","leapseconds":18,"ept":0.005,"lat":-34.908219600,"lon":138.596147900,"altHAE":60.5050,"altMSL":64.0050,"alt":64.0050,"epx":6.005,"epy":6.676,"epv":0.748,"track":0.0000,"magtrack":7.9180,"magvar":7.9,"speed":0.000,"climb":0.000,"eps":13.35,"epc":1.50,"ecefx":-3927581.2600,"ecefy":3463097.9900,"ecefz":-3629556.1800,"ecefvx":0.00,"ecefvy":0.00,"ecefvz":0.00,"ecefpAcc":1.3000,"ecefvAcc":0.0100,"geoidSep":-1.695,"eph":1.058,"sep":19.306}
{"class":"SKY","time":"2025-04-11T05:06:25.000Z","gdop":0.23,"hdop":0.60,"pdop":1.02,"tdop":0.23,"xdop":0.40,"ydop":0.45,"vdop":0.82}
$GPGSV,6,1,22,03,02,018,00,04,40,077,43,06,04,295,23,07,66,222,47*7A
$GPGSV,6,2,22,08,19,070,42,09,72,112,50,11,06,265,30,14,14,335,37*72
$GPGSV,6,3,22,16,16,139,30,20,24,231,41,27,15,107,26,30,39,269,44*72
$GPGSV,6,4,22,194,34,357,41,195,10,359,37,196,64,027,46,66,15,045,37*49
$GPGSV,6,5,22,67,67,071,42,68,51,202,36,69,05,216,26,77,39,150,46*72
$GPGSV,6,6,22,78,74,295,53,79,21,320,43*76
{"class":"SKY","time":"2025-04-11T05:06:26.000Z","gdop":1.14,"hdop":0.60,"pdop":1.02,"tdop":0.51,"xdop":0.40,"ydop":0.45,"vdop":0.82,"nSat":22,"uSat":19,"satellites":[{"PRN":3,"gnssid":0,"svid":3,"az":18.0,"el":2.0,"prRes":0.0,"qual":1,"ss":0.0,"used":false,"health":1},{"PRN":4,"gnssid":0,"svid":4,"az":77.0,"el":40.0,"prRes":0.9,"qual":7,"ss":43.0,"used":true,"health":1},{"PRN":6,"gnssid":0,"svid":6,"az":295.0,"el":4.0,"prRes":0.0,"qual":4,"ss":23.0,"used":false,"health":1},{"PRN":7,"gnssid":0,"svid":7,"az":222.0,"el":66.0,"prRes":-2.0,"qual":7,"ss":47.0,"used":true,"health":1},{"PRN":8,"gnssid":0,"svid":8,"az":70.0,"el":19.0,"prRes":2.3,"qual":7,"ss":42.0,"used":true,"health":1},{"PRN":9,"gnssid":0,"svid":9,"az":112.0,"el":72.0,"prRes":-3.2,"qual":7,"ss":50.0,"used":true,"health":1},{"PRN":11,"gnssid":0,"svid":11,"az":265.0,"el":6.0,"prRes":3.0,"qual":6,"ss":30.0,"used":true,"health":1},{"PRN":14,"gnssid":0,"svid":14,"az":335.0,"el":14.0,"prRes":0.7,"qual":7,"ss":37.0,"used":true,"health":1},{"PRN":16,"gnssid":0,"svid":16,"az":139.0,"el":16.0,"prRes":4.2,"qual":7,"ss":30.0,"used":true,"health":1},{"PRN":20,"gnssid":0,"svid":20,"az":231.0,"el":24.0,"prRes":1.5,"qual":7,"ss":41.0,"used":true,"health":1},{"PRN":27,"gnssid":0,"svid":27,"az":107.0,"el":15.0,"prRes":-11.7,"qual":4,"ss":26.0,"used":true,"health":1},{"PRN":30,"gnssid":0,"svid":30,"az":269.0,"el":39.0,"prRes":2.2,"qual":7,"ss":44.0,"used":true,"health":1},{"PRN":194,"gnssid":5,"svid":2,"az":357.0,"el":34.0,"prRes":6.2,"qual":7,"ss":41.0,"used":true,"health":1},{"PRN":195,"gnssid":5,"svid":3,"az":359.0,"el":10.0,"prRes":5.7,"qual":7,"ss":37.0,"used":true,"health":1},{"PRN":196,"gnssid":5,"svid":4,"az":27.0,"el":64.0,"prRes":0.1,"qual":7,"ss":46.0,"used":true,"health":1},{"PRN":66,"gnssid":6,"svid":2,"az":45.0,"el":15.0,"prRes":7.1,"qual":7,"ss":37.0,"used":true,"health":1},{"PRN":67,"gnssid":6,"svid":3,"az":71.0,"el":67.0,"prRes":-11.9,"qual":7,"ss":42.0,"used":true,"health":1},{"PRN":68,"gnssid":6,"svid":4,"az":202.0,"el":51.0,"prRes":-14.8,"qual":7,"ss":36.0,"used":true,"health":1},{"PRN":69,"gnssid":6,"svid":5,"az":216.0,"el":5.0,"prRes":0.0,"qual":6,"ss":26.0,"used":false,"health":1},{"PRN":77,"gnssid":6,"svid":13,"az":150.0,"el":39.0,"prRes":3.4,"qual":7,"ss":46.0,"used":true,"health":1},{"PRN":78,"gnssid":6,"svid":14,"az":295.0,"el":74.0,"prRes":-1.4,"qual":7,"ss":53.0,"used":true,"health":1},{"PRN":79,"gnssid":6,"svid":15,"az":320.0,"el":21.0,"prRes":6.0,"qual":7,"ss":43.0,"used":true,"health":1}]}
{"class":"SKY","time":"2025-04-11T05:06:26.000Z","gdop":0.23,"hdop":0.60,"pdop":1.02,"tdop":0.23,"xdop":0.40,"ydop":0.45,"vdop":0.82}
$GPZDA,050626.00,11,04,2025,00,00*60
$GPGGA,050626.00,3454.4931760,S,13835.7688740,E,7,19,0.60,64.00,M,-1.695,M,,*5C
$GPRMC,050626.00,A,3454.4931760,S,13835.7688740,E,0.0000,0.000,110425,7.9,E*79
$GPGSA,A,3,4,7,8,9,11,14,16,20,27,30,,,1.0,0.6,0.8*39
$GPGBS,050626.00,6.005,6.676,0.748,,,,*4F
{"class":"TPV","status":7,"mode":3,"time":"2025-04-11T05:06:26.000Z","leapseconds":18,"ept":0.005,"lat":-34.908219600,"lon":138.596147900,"altHAE":60.5050,"altMSL":64.0050,"alt":64.0050,"epx":6.005,"epy":6.676,"epv":0.748,"track":0.0000,"magtrack":7.9180,"magvar":7.9,"speed":0.000,"climb":0.000,"eps":13.35,"epc":1.50,"ecefx":-3927581.2600,"ecefy":3463097.9900,"ecefz":-3629556.1800,"ecefvx":0.00,"ecefvy":0.00,"ecefvz":0.00,"ecefpAcc":1.3000,"ecefvAcc":0.0100,"geoidSep":-1.695,"eph":1.058,"sep":19.306}
{"class":"SKY","time":"2025-04-11T05:06:26.000Z","gdop":0.23,"hdop":0.60,"pdop":1.02,"tdop":0.23,"xdop":0.40,"ydop":0.45,"vdop":0.82}
$GPGSV,6,1,22,03,02,018,00,04,40,077,43,06,04,295,23,07,67,221,47*78
$GPGSV,6,2,22,08,19,070,42,09,72,112,50,11,06,265,30,14,14,335,37*72
$GPGSV,6,3,22,16,16,139,30,20,24,231,41,27,15,107,26,30,39,269,44*72
$GPGSV,6,4,22,194,34,357,41,195,10,359,37,196,64,027,46,66,15,045,37*49
$GPGSV,6,5,22,67,67,071,42,68,51,202,36,69,05,216,26,77,39,150,46*72
$GPGSV,6,6,22,78,74,295,53,79,21,320,43*76
{"class":"SKY","time":"2025-04-11T05:06:27.000Z","gdop":1.14,"hdop":0.60,"pdop":1.02,"tdop":0.51,"xdop":0.40,"ydop":0.45,"vdop":0.82,"nSat":22,"uSat":19,"satellites":[{"PRN":3,"gnssid":0,"svid":3,"az":18.0,"el":2.0,"prRes":0.0,"qual":1,"ss":0.0,"used":false,"health":1},{"PRN":4,"gnssid":0,"svid":4,"az":77.0,"el":40.0,"prRes":0.9,"qual":7,"ss":43.0,"used":true,"health":1},{"PRN":6,"gnssid":0,"svid":6,"az":295.0,"el":4.0,"prRes":0.0,"qual":4,"ss":23.0,"used":false,"health":1},{"PRN":7,"gnssid":0,"svid":7,"az":221.0,"el":67.0,"prRes":-2.2,"qual":7,"ss":47.0,"used":true,"health":1},{"PRN":8,"gnssid":0,"svid":8,"az":70.0,"el":19.0,"prRes":2.4,"qual":7,"ss":42.0,"used":true,"health":1},{"PRN":9,"gnssid":0,"svid":9,"az":112.0,"el":72.0,"prRes":-3.2,"qual":7,"ss":50.0,"used":true,"health":1},{"PRN":11,"gnssid":0,"svid":11,"az":265.0,"el":6.0,"prRes":2.7,"qual":6,"ss":30.0,"used":true,"health":1},{"PRN":14,"gnssid":0,"svid":14,"az":335.0,"el":14.0,"prRes":0.3,"qual":7,"ss":37.0,"used":true,"health":1},{"PRN":16,"gnssid":0,"svid":16,"az":139.0,"el":16.0,"prRes":2.1,"qual":7,"ss":30.0,"used":true,"health":1},{"PRN":20,"gnssid":0,"svid":20,"az":231.0,"el":24.0,"prRes":1.3,"qual":7,"ss":41.0,"used":true,"health":1},{"PRN":27,"gnssid":0,"svid":27,"az":107.0,"el":15.0,"prRes":-9.5,"qual":4,"ss":26.0,"used":true,"health":1},{"PRN":30,"gnssid":0,"svid":30,"az":269.0,"el":39.0,"prRes":2.0,"qual":7,"ss":44.0,"used":true,"health":1},{"PRN":194,"gnssid":5,"svid":2,"az":357.0,"el":34.0,"prRes":6.0,"qual":7,"ss":41.0,"used":true,"health":1},{"PRN":195,"gnssid":5,"svid":3,"az":359.0,"el":10.0,"prRes":5.7,"qual":7,"ss":37.0,"used":true,"health":1},{"PRN":196,"gnssid":5,"svid":4,"az":27.0,"el":64.0,"prRes":0.1,"qual":7,"ss":46.0,"used":true,"health":1},{"PRN":66,"gnssid":6,"svid":2,"az":45.0,"el":15.0,"prRes":7.0,"qual":7,"ss":37.0,"used":true,"health":1},{"PRN":67,"gnssid":6,"svid":3,"az":71.0,"el":67.0,"prRes":-12.0,"qual":7,"ss":42.0,"used":true,"health":1},{"PRN":68,"gnssid":6,"svid":4,"az":202.0,"el":51.0,"prRes":-15.1,"qual":7,"ss":36.0,"used":true,"health":1},{"PRN":69,"gnssid":6,"svid":5,"az":216.0,"el":5.0,"prRes":0.0,"qual":6,"ss":26.0,"used":false,"health":1},{"PRN":77,"gnssid":6,"svid":13,"az":150.0,"el":39.0,"prRes":3.0,"qual":7,"ss":46.0,"used":true,"health":1},{"PRN":78,"gnssid":6,"svid":14,"az":295.0,"el":74.0,"prRes":-1.2,"qual":7,"ss":53.0,"used":true,"health":1},{"PRN":79,"gnssid":6,"svid":15,"az":320.0,"el":21.0,"prRes":5.2,"qual":7,"ss":43.0,"used":true,"health":1}]}
{"class":"SKY","time":"2025-04-11T05:06:27.000Z","gdop":0.23,"hdop":0.60,"pdop":1.02,"tdop":0.23,"xdop":0.40,"ydop":0.45,"vdop":0.82}
$GPZDA,050627.00,11,04,2025,00,00*61
$GPGGA,050627.00,3454.4931760,S,13835.7688740,E,7,19,0.60,64.00,M,-1.695,M,,*5D
$GPRMC,050627.00,A,3454.4931760,S,13835.7688740,E,0.0000,0.000,110425,7.9,E*78
$GPGSA,A,3,4,7,8,9,11,14,16,20,27,30,,,1.0,0.6,0.8*39
$GPGBS,050627.00,6.010,6.680,0.748,,,,*43
{"class":"TPV","status":7,"mode":3,"time":"2025-04-11T05:06:27.000Z","leapseconds":18,"ept":0.005,"lat":-34.908219600,"lon":138.596147900,"altHAE":60.5050,"altMSL":64.0050,"alt":64.0050,"epx":6.010,"epy":6.680,"epv":0.748,"track":0.0000,"magtrack":7.9180,"magvar":7.9,"speed":0.000,"climb":0.000,"eps":13.36,"epc":1.50,"ecefx":-3927581.2600,"ecefy":3463097.9900,"ecefz":-3629556.1800,"ecefvx":0.00,"ecefvy":0.00,"ecefvz":0.00,"ecefpAcc":1.3000,"ecefvAcc":0.0100,"geoidSep":-1.695,"eph":1.058,"sep":19.289}
{"class":"SKY","time":"2025-04-11T05:06:27.000Z","gdop":0.23,"hdop":0.60,"pdop":1.02,"tdop":0.23,"xdop":0.40,"ydop":0.45,"vdop":0.82}
$GPGSV,6,1,22,03,02,018,00,04,40,077,43,06,04,295,23,07,67,221,47*78
$GPGSV,6,2,22,08,19,070,42,09,72,112,50,11,06,265,30,14,14,335,37*72
$GPGSV,6,3,22,16,16,139,30,20,24,231,41,27,15,107,26,30,39,269,44*72
$GPGSV,6,4,22,194,34,357,41,195,10,359,37,196,64,027,46,66,15,045,37*49
$GPGSV,6,5,22,67,67,071,42,68,51,202,36,69,05,216,25,77,39,150,46*71
$GPGSV,6,6,22,78,74,295,53,79,21,320,43*76
{"class":"SKY","time":"2025-04-11T05:06:28.000Z","gdop":1.14,"hdop":0.60,"pdop":1.02,"tdop":0.51,"xdop":0.40,"ydop":0.45,"vdop":0.82,"nSat":22,"uSat":19,"satellites":[{"PRN":3,"gnssid":0,"svid":3,"az":18.0,"el":2.0,"prRes":0.0,"qual":1,"ss":0.0,"used":false,"health":1},{"PRN":4,"gnssid":0,"svid":4,"az":77.0,"el":40.0,"prRes":0.8,"qual":7,"ss":43.0,"used":true,"health":1},{"PRN":6,"gnssid":0,"svid":6,"az":295.0,"el":4.0,"prRes":0.0,"qual":4,"ss":23.0,"used":false,"health":1},{"PRN":7,"gnssid":0,"svid":7,"az":221.0,"el":67.0,"prRes":-2.1,"qual":7,"ss":47.0,"used":true,"health":1},{"PRN":8,"gnssid":0,"svid":8,"az":70.0,"el":19.0,"prRes":2.3,"qual":7,"ss":42.0,"used":true,"health":1},{"PRN":9,"gnssid":0,"svid":9,"az":112.0,"el":72.0,"prRes":-3.1,"qual":7,"ss":50.0,"used":true,"health":1},{"PRN":11,"gnssid":0,"svid":11,"az":265.0,"el":6.0,"prRes":8.5,"qual":6,"ss":30.0,"used":true,"health":1},{"PRN":14,"gnssid":0,"svid":14,"az":335.0,"el":14.0,"prRes":0.6,"qual":7,"ss":37.0,"used":true,"health":1},{"PRN":16,"gnssid":0,"svid":16,"az":139.0,"el":16.0,"prRes":2.4,"qual":7,"ss":30.0,"used":true,"health":1},{"PRN":20,"gnssid":0,"svid":20,"az":231.0,"el":24.0,"prRes":1.5,"qual":7,"ss":41.0,"used":true,"health":1},{"PRN":27,"gnssid":0,"svid":27,"az":107.0,"el":15.0,"prRes":-5.4,"qual":5,"ss":26.0,"used":true,"health":1},{"PRN":30,"gnssid":0,"svid":30,"az":269.0,"el":39.0,"prRes":1.8,"qual":7,"ss":44.0,"used":true,"health":1},{"PRN":194,"gnssid":5,"svid":2,"az":357.0,"el":34.0,"prRes":6.0,"qual":7,"ss":41.0,"used":true,"health":1},{"PRN":195,"gnssid":5,"svid":3,"az":359.0,"el":10.0,"prRes":5.8,"qual":7,"ss":37.0,"used":true,"health":1},{"PRN":196,"gnssid":5,"svid":4,"az":27.0,"el":64.0,"prRes":0.2,"qual":7,"ss":46.0,"used":true,"health":1},{"PRN":66,"gnssid":6,"svid":2,"az":45.0,"el":15.0,"prRes":6.7,"qual":7,"ss":37.0,"used":true,"health":1},{"PRN":67,"gnssid":6,"svid":3,"az":71.0,"el":67.0,"prRes":-12.0,"qual":7,"ss":42.0,"used":true,"health":1},{"PRN":68,"gnssid":6,"svid":4,"az":202.0,"el":51.0,"prRes":-15.3,"qual":7,"ss":36.0,"used":true,"health":1},{"PRN":69,"gnssid":6,"svid":5,"az":216.0,"el":5.0,"prRes":0.0,"qual":6,"ss":25.0,"used":false,"health":1},{"PRN":77,"gnssid":6,"svid":13,"az":150.0,"el":39.0,"prRes":2.7,"qual":7,"ss":46.0,"used":true,"health":1},{"PRN":78,"gnssid":6,"svid":14,"az":295.0,"el":74.0,"prRes":-1.0,"qual":7,"ss":53.0,"used":true,"health":1},{"PRN":79,"gnssid":6,"svid":15,"az":320.0,"el":21.0,"prRes":5.0,"qual":7,"ss":43.0,"used":true,"health":1}]}
{"class":"SKY","time":"2025-04-11T05:06:28.000Z","gdop":0.23,"hdop":0.60,"pdop":1.02,"tdop":0.23,"xdop":0.40,"ydop":0.45,"vdop":0.82}
$GPZDA,050628.00,11,04,2025,00,00*6E
$GPGGA,050628.00,3454.4931760,S,13835.7688740,E,7,19,0.60,64.00,M,-1.695,M,,*52
$GPRMC,050628.00,A,3454.4931760,S,13835.7688740,E,0.0000,0.000,110425,7.9,E*77
$GPGSA,A,3,4,7,8,9,11,14,16,20,27,30,,,1.0,0.6,0.8*39
$GPGBS,050628.00,6.010,6.680,0.748,,,,*4C
{"class":"TPV","status":7,"mode":3,"time":"2025-04-11T05:06:28.000Z","leapseconds":18,"ept":0.005,"lat":-34.908219600,"lon":138.596147900,"altHAE":60.5050,"altMSL":64.0050,"alt":64.0050,"epx":6.010,"epy":6.680,"epv":0.748,"track":0.0000,"magtrack":7.9180,"magvar":7.9,"speed":0.000,"climb":0.000,"eps":13.36,"epc":1.50,"ecefx":-3927581.2600,"ecefy":3463097.9900,"ecefz":-3629556.1800,"ecefvx":0.00,"ecefvy":0.00,"ecefvz":0.00,"ecefpAcc":1.3000,"ecefvAcc":0.0100,"geoidSep":-1.695,"eph":1.058,"sep":19.289}
{"class":"SKY","time":"2025-04-11T05:06:28.000Z","gdop":0.23,"hdop":0.60,"pdop":1.02,"tdop":0.23,"xdop":0.40,"ydop":0.45,"vdop":0.82}
$GPGSV,6,1,22,03,02,018,00,04,40,077,43,06,04,295,21,07,67,221,47*7A
$GPGSV,6,2,22,08,19,070,42,09,72,111,50,11,06,265,30,14,14,335,37*71
$GPGSV,6,3,22,16,16,139,30,20,24,231,41,27,15,107,26,30,39,269,44*72
$GPGSV,6,4,22,194,34,357,41,195,10,359,37,196,64,027,46,66,15,045,38*46
$GPGSV,6,5,22,67,67,071,42,68,51,202,36,69,05,216,24,77,39,150,46*70
$GPGSV,6,6,22,78,74,295,52,79,21,320,43*77
{"class":"SKY","time":"2025-04-11T05:06:30.000Z","gdop":1.14,"hdop":0.60,"pdop":1.02,"tdop":0.51,"xdop":0.40,"ydop":0.45,"vdop":0.82,"nSat":22,"uSat":19,"satellites":[{"PRN":3,"gnssid":0,"svid":3,"az":18.0,"el":2.0,"prRes":0.0,"qual":1,"ss":0.0,"used":false,"health":1},{"PRN":4,"gnssid":0,"svid":4,"az":77.0,"el":40.0,"prRes":0.8,"qual":7,"ss":43.0,"used":true,"health":1},{"PRN":6,"gnssid":0,"svid":6,"az":295.0,"el":4.0,"prRes":0.0,"qual":4,"ss":21.0,"used":false,"health":1},{"PRN":7,"gnssid":0,"svid":7,"az":221.0,"el":67.0,"prRes":-2.7,"qual":7,"ss":47.0,"used":true,"health":1},{"PRN":8,"gnssid":0,"svid":8,"az":70.0,"el":19.0,"prRes":2.3,"qual":7,"ss":42.0,"used":true,"health":1},{"PRN":9,"gnssid":0,"svid":9,"az":111.0,"el":72.0,"prRes":-3.2,"qual":7,"ss":50.0,"used":true,"health":1},{"PRN":11,"gnssid":0,"svid":11,"az":265.0,"el":6.0,"prRes":6.4,"qual":6,"ss":30.0,"used":true,"health":1},{"PRN":14,"gnssid":0,"svid":14,"az":335.0,"el":14.0,"prRes":0.6,"qual":7,"ss":37.0,"used":true,"health":1},{"PRN":16,"gnssid":0,"svid":16,"az":139.0,"el":16.0,"prRes":0.5,"qual":7,"ss":30.0,"used":true,"health":1},{"PRN":20,"gnssid":0,"svid":20,"az":231.0,"el":24.0,"prRes":1.4,"qual":7,"ss":41.0,"used":true,"health":1},{"PRN":27,"gnssid":0,"svid":27,"az":107.0,"el":15.0,"prRes":-1.7,"qual":6,"ss":26.0,"used":true,"health":1},{"PRN":30,"gnssid":0,"svid":30,"az":269.0,"el":39.0,"prRes":1.8,"qual":7,"ss":44.0,"used":true,"health":1},{"PRN":194,"gnssid":5,"svid":2,"az":357.0,"el":34.0,"prRes":5.9,"qual":7,"ss":41.0,"used":true,"health":1},{"PRN":195,"gnssid":5,"svid":3,"az":359.0,"el":10.0,"prRes":5.7,"qual":7,"ss":37.0,"used":true,"health":1},{"PRN":196,"gnssid":5,"svid":4,"az":27.0,"el":64.0,"prRes":0.3,"qual":7,"ss":46.0,"used":true,"health":1},{"PRN":66,"gnssid":6,"svid":2,"az":45.0,"el":15.0,"prRes":5.9,"qual":7,"ss":38.0,"used":true,"health":1},{"PRN":67,"gnssid":6,"svid":3,"az":71.0,"el":67.0,"prRes":-12.0,"qual":7,"ss":42.0,"used":true,"health":1},{"PRN":68,"gnssid":6,"svid":4,"az":202.0,"el":51.0,"prRes":-15.4,"qual":7,"ss":36.0,"used":true,"health":1},{"PRN":69,"gnssid":6,"svid":5,"az":216.0,"el":5.0,"prRes":0.0,"qual":4,"ss":24.0,"used":false,"health":1},{"PRN":77,"gnssid":6,"svid":13,"az":150.0,"el":39.0,"prRes":2.7,"qual":7,"ss":46.0,"used":true,"health":1},{"PRN":78,"gnssid":6,"svid":14,"az":295.0,"el":74.0,"prRes":-0.9,"qual":7,"ss":52.0,"used":true,"health":1},{"PRN":79,"gnssid":6,"svid":15,"az":320.0,"el":21.0,"prRes":3.7,"qual":7,"ss":43.0,"used":true,"health":1}]}
{"class":"SKY","time":"2025-04-11T05:06:30.000Z","gdop":0.23,"hdop":0.60,"pdop":1.02,"tdop":0.23,"xdop":0.40,"ydop":0.45,"vdop":0.82}
$GPZDA,050631.00,11,04,2025,00,00*66
$GPGGA,050631.00,3454.4931760,S,13835.7688740,E,7,19,,64.00,M,-1.695,M,,*42
$GPRMC,050631.00,A,3454.4931760,S,13835.7688740,E,0.0000,0.000,110425,7.9,E*7F
$GPGSA,A,3,4,7,8,9,11,14,16,20,27,30,,,,,*18
{"class":"TPV","status":7,"mode":3,"time":"2025-04-11T05:06:31.000Z","leapseconds":18,"ept":0.005,"lat":-34.908219600,"lon":138.596147900,"altHAE":60.5050,"altMSL":64.0050,"alt":64.0050,"epv":0.748,"track":0.0000,"magtrack":7.9180,"magvar":7.9,"speed":0.000,"climb":0.000,"eps":0.01,"epc":1.50,"geoidSep":-1.695,"eph":1.058}
$GPGSV,6,1,22,03,02,018,00,04,40,077,43,06,04,295,21,07,67,221,47*7A
$GPGSV,6,2,22,08,19,070,42,09,72,111,50,11,06,265,31,14,14,335,37*70
$GPGSV,6,3,22,16,16,139,30,20,24,231,41,27,15,107,26,30,39,269,45*73
$GPGSV,6,4,22,194,34,357,41,195,10,359,37,196,64,027,46,66,15,045,37*49
$GPGSV,6,5,22,67,67,071,42,68,51,202,36,69,05,216,25,77,39,150,46*71
$GPGSV,6,6,22,78,74,295,52,79,21,320,43*77
{"class":"SKY","time":"2025-04-11T05:06:31.000Z","gdop":1.14,"hdop":0.60,"pdop":1.02,"tdop":0.51,"xdop":0.40,"ydop":0.45,"vdop":0.82,"nSat":22,"uSat":19,"satellites":[{"PRN":3,"gnssid":0,"svid":3,"az":18.0,"el":2.0,"prRes":0.0,"qual":1,"ss":0.0,"used":false,"health":1},{"PRN":4,"gnssid":0,"svid":4,"az":77.0,"el":40.0,"prRes":0.8,"qual":7,"ss":43.0,"used":true,"health":1},{"PRN":6,"gnssid":0,"svid":6,"az":295.0,"el":4.0,"prRes":0.0,"qual":4,"ss":21.0,"used":false,"health":1},{"PRN":7,"gnssid":0,"svid":7,"az":221.0,"el":67.0,"prRes":-2.5,"qual":7,"ss":47.0,"used":true,"health":1},{"PRN":8,"gnssid":0,"svid":8,"az":70.0,"el":19.0,"prRes":2.1,"qual":7,"ss":42.0,"used":true,"health":1},{"PRN":9,"gnssid":0,"svid":9,"az":111.0,"el":72.0,"prRes":-3.4,"qual":7,"ss":50.0,"used":true,"health":1},{"PRN":11,"gnssid":0,"svid":11,"az":265.0,"el":6.0,"prRes":6.9,"qual":6,"ss":31.0,"used":true,"health":1},{"PRN":14,"gnssid":0,"svid":14,"az":335.0,"el":14.0,"prRes":0.6,"qual":7,"ss":37.0,"used":true,"health":1},{"PRN":16,"gnssid":0,"svid":16,"az":139.0,"el":16.0,"prRes":-2.7,"qual":7,"ss":30.0,"used":true,"health":1},{"PRN":20,"gnssid":0,"svid":20,"az":231.0,"el":24.0,"prRes":1.5,"qual":7,"ss":41.0,"used":true,"health":1},{"PRN":27,"gnssid":0,"svid":27,"az":107.0,"el":15.0,"prRes":1.0,"qual":6,"ss":26.0,"used":true,"health":1},{"PRN":30,"gnssid":0,"svid":30,"az":269.0,"el":39.0,"prRes":2.0,"qual":7,"ss":45.0,"used":true,"health":1},{"PRN":194,"gnssid":5,"svid":2,"az":357.0,"el":34.0,"prRes":5.7,"qual":7,"ss":41.0,"used":true,"health":1},{"PRN":195,"gnssid":5,"svid":3,"az":359.0,"el":10.0,"prRes":5.7,"qual":7,"ss":37.0,"used":true,"health":1},{"PRN":196,"gnssid":5,"svid":4,"az":27.0,"el":64.0,"prRes":0.4,"qual":7,"ss":46.0,"used":true,"health":1},{"PRN":66,"gnssid":6,"svid":2,"az":45.0,"el":15.0,"prRes":5.9,"qual":7,"ss":37.0,"used":true,"health":1},{"PRN":67,"gnssid":6,"svid":3,"az":71.0,"el":67.0,"prRes":-12.0,"qual":7,"ss":42.0,"used":true,"health":1},{"PRN":68,"gnssid":6,"svid":4,"az":202.0,"el":51.0,"prRes":-15.3,"qual":7,"ss":36.0,"used":true,"health":1},{"PRN":69,"gnssid":6,"svid":5,"az":216.0,"el":5.0,"prRes":0.0,"qual":4,"ss":25.0,"used":false,"health":1},{"PRN":77,"gnssid":6,"svid":13,"az":150.0,"el":39.0,"prRes":2.6,"qual":7,"ss":46.0,"used":true,"health":1},{"PRN":78,"gnssid":6,"svid":14,"az":295.0,"el":74.0,"prRes":-0.8,"qual":7,"ss":52.0,"used":true,"health":1},{"PRN":79,"gnssid":6,"svid":15,"az":320.0,"el":21.0,"prRes":3.3,"qual":7,"ss":43.0,"used":true,"health":1}]}
{"class":"SKY","time":"2025-04-11T05:06:31.000Z","gdop":0.23,"hdop":0.60,"pdop":1.02,"tdop":0.23,"xdop":0.40,"ydop":0.45,"vdop":0.82}
$GPZDA,050631.00,11,04,2025,00,00*66
$GPGGA,050631.00,3454.4931760,S,13835.7688740,E,7,19,0.60,64.00,M,-1.695,M,,*5A
$GPRMC,050631.00,A,3454.4931760,S,13835.7688740,E,0.0000,0.000,110425,7.9,E*7F
$GPGSA,A,3,4,7,8,9,11,14,16,20,27,30,,,1.0,0.6,0.8*39
$GPGBS,050631.00,6.009,6.680,0.748,,,,*4C
{"class":"TPV","status":7,"mode":3,"time":"2025-04-11T05:06:31.000Z","leapseconds":18,"ept":0.005,"lat":-34.908219600,"lon":138.596147900,"altHAE":60.5050,"altMSL":64.0050,"alt":64.0050,"epx":6.009,"epy":6.680,"epv":0.748,"track":0.0000,"magtrack":7.9180,"magvar":7.9,"speed":0.000,"climb":0.000,"eps":13.36,"epc":1.50,"ecefx":-3927581.2600,"ecefy":3463097.9900,"ecefz":-3629556.1800,"ecefvx":0.00,"ecefvy":0.00,"ecefvz":0.00,"ecefpAcc":1.3000,"ecefvAcc":0.0100,"geoidSep":-1.695,"eph":1.058,"sep":19.286}
{"class":"SKY","time":"2025-04-11T05:06:31.000Z","gdop":0.23,"hdop":0.60,"pdop":1.02,"tdop":0.23,"xdop":0.40,"ydop":0.45,"vdop":0.82}
$GPGSV,6,1,22,03,02,018,00,04,40,077,43,06,04,295,21,07,67,221,47*7A
$GPGSV,6,2,22,08,19,070,42,09,72,111,50,11,06,265,31,14,14,335,37*70
$GPGSV,6,3,22,16,16,139,30,20,24,231,41,27,15,107,26,30,39,269,44*72
$GPGSV,6,4,22,194,34,357,41,195,10,359,37,196,64,027,46,66,15,045,37*49
$GPGSV,6,5,22,67,67,071,42,68,51,202,36,69,05,216,25,77,39,150,46*71
$GPGSV,6,6,22,78,74,295,52,79,21,320,43*77
{"class":"SKY","time":"2025-04-11T05:06:32.000Z","gdop":1.14,"hdop":0.60,"pdop":1.02,"tdop":0.51,"xdop":0.40,"ydop":0.45,"vdop":0.82,"nSat":22,"uSat":19,"satellites":[{"PRN":3,"gnssid":0,"svid":3,"az":18.0,"el":2.0,"prRes":0.0,"qual":1,"ss":0.0,"used":false,"health":1},{"PRN":4,"gnssid":0,"svid":4,"az":77.0,"el":40.0,"prRes":0.7,"qual":7,"ss":43.0,"used":true,"health":1},{"PRN":6,"gnssid":0,"svid":6,"az":295.0,"el":4.0,"prRes":0.0,"qual":4,"ss":21.0,"used":false,"health":1},{"PRN":7,"gnssid":0,"svid":7,"az":221.0,"el":67.0,"prRes":-2.8,"qual":7,"ss":47.0,"used":true,"health":1},{"PRN":8,"gnssid":0,"svid":8,"az":70.0,"el":19.0,"prRes":2.3,"qual":7,"ss":42.0,"used":true,"health":1},{"PRN":9,"gnssid":0,"svid":9,"az":111.0,"el":72.0,"prRes":-3.4,"qual":7,"ss":50.0,"used":true,"health":1},{"PRN":11,"gnssid":0,"svid":11,"az":265.0,"el":6.0,"prRes":-2.1,"qual":6,"ss":31.0,"used":true,"health":1},{"PRN":14,"gnssid":0,"svid":14,"az":335.0,"el":14.0,"prRes":0.3,"qual":7,"ss":37.0,"used":true,"health":1},{"PRN":16,"gnssid":0,"svid":16,"az":139.0,"el":16.0,"prRes":-3.8,"qual":7,"ss":30.0,"used":true,"health":1},{"PRN":20,"gnssid":0,"svid":20,"az":231.0,"el":24.0,"prRes":1.6,"qual":7,"ss":41.0,"used":true,"health":1},{"PRN":27,"gnssid":0,"svid":27,"az":107.0,"el":15.0,"prRes":4.0,"qual":6,"ss":26.0,"used":true,"health":1},{"PRN":30,"gnssid":0,"svid":30,"az":269.0,"el":39.0,"prRes":2.3,"qual":7,"ss":44.0,"used":true,"health":1},{"PRN":194,"gnssid":5,"svid":2,"az":357.0,"el":34.0,"prRes":5.5,"qual":7,"ss":41.0,"used":true,"health":1},{"PRN":195,"gnssid":5,"svid":3,"az":359.0,"el":10.0,"prRes":5.8,"qual":7,"ss":37.0,"used":true,"health":1},{"PRN":196,"gnssid":5,"svid":4,"az":27.0,"el":64.0,"prRes":0.2,"qual":7,"ss":46.0,"used":true,"health":1},{"PRN":66,"gnssid":6,"svid":2,"az":45.0,"el":15.0,"prRes":5.9,"qual":7,"ss":37.0,"used":true,"health":1},{"PRN":67,"gnssid":6,"svid":3,"az":71.0,"el":67.0,"prRes":-12.2,"qual":7,"ss":42.0,"used":true,"health":1},{"PRN":68,"gnssid":6,"svid":4,"az":202.0,"el":51.0,"prRes":-15.1,"qual":7,"ss":36.0,"used":true,"health":1},{"PRN":69,"gnssid":6,"svid":5,"az":216.0,"el":5.0,"prRes":0.0,"qual":4,"ss":25.0,"used":false,"health":1},{"PRN":77,"gnssid":6,"svid":13,"az":150.0,"el":39.0,"prRes":2.4,"qual":7,"ss":46.0,"used":true,"health":1},{"PRN":78,"gnssid":6,"svid":14,"az":295.0,"el":74.0,"prRes":-0.6,"qual":7,"ss":52.0,"used":true,"health":1},{"PRN":79,"gnssid":6,"svid":15,"az":320.0,"el":21.0,"prRes":3.0,"qual":7,"ss":43.0,"used":true,"health":1}]}
{"class":"SKY","time":"2025-04-11T05:06:32.000Z","gdop":0.23,"hdop":0.60,"pdop":1.02,"tdop":0.23,"xdop":0.40,"ydop":0.45,"vdop":0.82}
$GPZDA,050632.00,11,04,2025,00,00*65
$GPGGA,050632.00,3454.4931760,S,13835.7688740,E,7,19,0.60,64.00,M,-1.695,M,,*59
$GPRMC,050632.00,A,3454.4931760,S,13835.7688740,E,0.0000,0.000,110425,7.9,E*7C
$GPGSA,A,3,4,7,8,9,11,14,16,20,27,30,,,1.0,0.6,0.8*39
$GPGBS,050632.00,6.009,6.680,0.748,,,,*4F
{"class":"TPV","status":7,"mode":3,"time":"2025-04-11T05:06:32.000Z","leapseconds":18,"ept":0.005,"lat":-34.908219600,"lon":138.596147900,"altHAE":60.5050,"altMSL":64.0050,"alt":64.0050,"epx":6.009,"epy":6.680,"epv":0.748,"track":0.0000,"magtrack":7.9180,"magvar":7.9,"speed":0.000,"climb":0.000,"eps":13.36,"epc":1.50,"ecefx":-3927581.2600,"ecefy":3463097.9900,"ecefz":-3629556.1800,"ecefvx":0.00,"ecefvy":0.00,"ecefvz":0.00,"ecefpAcc":1.3000,"ecefvAcc":0.0100,"geoidSep":-1.695,"eph":1.058,"sep":19.286}
{"class":"SKY","time":"2025-04-11T05:06:32.000Z","gdop":0.23,"hdop":0.60,"pdop":1.02,"tdop":0.23,"xdop":0.40,"ydop":0.45,"vdop":0.82}
$GPGSV,6,1,22,03,02,018,00,04,40,077,43,06,04,295,22,07,67,221,48*76
$GPGSV,6,2,22,08,19,070,42,09,72,111,50,11,06,265,31,14,14,335,37*70
$GPGSV,6,3,22,16,16,139,30,20,24,231,41,27,15,107,26,30,39,269,44*72
$GPGSV,6,4,22,194,34,357,41,195,10,359,37,196,64,027,46,66,15,045,37*49
$GPGSV,6,5,22,67,67,071,42,68,51,202,36,69,05,216,25,77,39,150,46*71
$GPGSV,6,6,22,78,74,295,52,79,21,320,43*77
{"class":"SKY","time":"2025-04-11T05:06:33.000Z","gdop":1.14,"hdop":0.60,"pdop":1.02,"tdop":0.51,"xdop":0.40,"ydop":0.45,"vdop":0.82,"nSat":22,"uSat":19,"satellites":[{"PRN":3,"gnssid":0,"svid":3,"az":18.0,"el":2.0,"prRes":0.0,"qual":1,"ss":0.0,"used":false,"health":1},{"PRN":4,"gnssid":0,"svid":4,"az":77.0,"el":40.0,"prRes":0.9,"qual":7,"ss":43.0,"used":true,"health":1},{"PRN":6,"gnssid":0,"svid":6,"az":295.0,"el":4.0,"prRes":0.0,"qual":4,"ss":22.0,"used":false,"health":1},{"PRN":7,"gnssid":0,"svid":7,"az":221.0,"el":67.0,"prRes":-2.8,"qual":7,"ss":48.0,"used":true,"health":1},{"PRN":8,"gnssid":0,"svid":8,"az":70.0,"el":19.0,"prRes":2.3,"qual":7,"ss":42.0,"used":true,"health":1},{"PRN":9,"gnssid":0,"svid":9,"az":111.0,"el":72.0,"prRes":-3.3,"qual":7,"ss":50.0,"used":true,"health":1},{"PRN":11,"gnssid":0,"svid":11,"az":265.0,"el":6.0,"prRes":-0.9,"qual":6,"ss":31.0,"used":true,"health":1},{"PRN":14,"gnssid":0,"svid":14,"az":335.0,"el":14.0,"prRes":0.1,"qual":7,"ss":37.0,"used":true,"health":1},{"PRN":16,"gnssid":0,"svid":16,"az":139.0,"el":16.0,"prRes":-4.1,"qual":7,"ss":30.0,"used":true,"health":1},{"PRN":20,"gnssid":0,"svid":20,"az":231.0,"el":24.0,"prRes":1.4,"qual":7,"ss":41.0,"used":true,"health":1},{"PRN":27,"gnssid":0,"svid":27,"az":107.0,"el":15.0,"prRes":5.1,"qual":6,"ss":26.0,"used":true,"health":1},{"PRN":30,"gnssid":0,"svid":30,"az":269.0,"el":39.0,"prRes":2.5,"qual":7,"ss":44.0,"used":true,"health":1},{"PRN":194,"gnssid":5,"svid":2,"az":357.0,"el":34.0,"prRes":5.6,"qual":7,"ss":41.0,"used":true,"health":1},{"PRN":195,"gnssid":5,"svid":3,"az":359.0,"el":10.0,"prRes":5.9,"qual":7,"ss":37.0,"used":true,"health":1},{"PRN":196,"gnssid":5,"svid":4,"az":27.0,"el":64.0,"prRes":0.2,"qual":7,"ss":46.0,"used":true,"health":1},{"PRN":66,"gnssid":6,"svid":2,"az":45.0,"el":15.0,"prRes":5.9,"qual":7,"ss":37.0,"used":true,"health":1},{"PRN":67,"gnssid":6,"svid":3,"az":71.0,"el":67.0,"prRes":-12.3,"qual":7,"ss":42.0,"used":true,"health":1},{"PRN":68,"gnssid":6,"svid":4,"az":202.0,"el":51.0,"prRes":-15.2,"qual":7,"ss":36.0,"used":true,"health":1},{"PRN":69,"gnssid":6,"svid":5,"az":216.0,"el":5.0,"prRes":0.0,"qual":4,"ss":25.0,"used":false,"health":1},{"PRN":77,"gnssid":6,"svid":13,"az":150.0,"el":39.0,"prRes":2.2,"qual":7,"ss":46.0,"used":true,"health":1},{"PRN":78,"gnssid":6,"svid":14,"az":295.0,"el":74.0,"prRes":-0.2,"qual":7,"ss":52.0,"used":true,"health":1},{"PRN":79,"gnssid":6,"svid":15,"az":320.0,"el":21.0,"prRes":2.7,"qual":7,"ss":43.0,"used":true,"health":1}]}
{"class":"SKY","time":"2025-04-11T05:06:33.000Z","gdop":0.23,"hdop":0.60,"pdop":1.02,"tdop":0.23,"xdop":0.40,"ydop":0.45,"vdop":0.82}
$GPZDA,050633.00,11,04,2025,00,00*64
$GPGGA,050633.00,3454.4931760,S,13835.7688740,E,7,19,0.60,64.00,M,-1.695,M,,*58
$GPRMC,050633.00,A,3454.4931760,S,13835.7688740,E,0.0000,0.000,110425,7.9,E*7D
$GPGSA,A,3,4,7,8,9,11,14,16,20,27,30,,,1.0,0.6,0.8*39
$GPGBS,050633.00,6.009,6.680,0.748,,,,*4E
{"class":"TPV","status":7,"mode":3,"time":"2025-04-11T05:06:33.000Z","leapseconds":18,"ept":0.005,"lat":-34.908219600,"lon":138.596147900,"altHAE":60.5050,"altMSL":64.0050,"alt":64.0050,"epx":6.009,"epy":6.680,"epv":0.748,"track":0.0000,"magtrack":7.9180,"magvar":7.9,"speed":0.000,"climb":0.000,"eps":13.36,"epc":1.50,"ecefx":-3927581.2600,"ecefy":3463097.9900,"ecefz":-3629556.1800,"ecefvx":0.00,"ecefvy":0.00,"ecefvz":0.00,"ecefpAcc":1.3000,"ecefvAcc":0.0100,"geoidSep":-1.695,"eph":1.058,"sep":19.286}
{"class":"SKY","time":"2025-04-11T05:06:33.000Z","gdop":0.23,"hdop":0.60,"pdop":1.02,"tdop":0.23,"xdop":0.40,"ydop":0.45,"vdop":0.82}
$GPGSV,6,1,22,03,02,018,00,04,40,077,43,06,04,295,24,07,67,221,48*70
$GPGSV,6,2,22,08,19,070,42,09,72,111,50,11,06,265,31,14,14,335,37*70
$GPGSV,6,3,22,16,16,139,30,20,24,231,42,27,15,107,27,30,39,269,44*70
$GPGSV,6,4,22,194,34,357,41,195,10,359,37,196,64,027,46,66,15,045,37*49
$GPGSV,6,5,22,67,67,071,42,68,51,202,36,69,05,216,26,77,39,150,46*72
$GPGSV,6,6,22,78,74,295,52,79,21,320,43*77
{"class":"SKY","time":"2025-04-11T05:06:35.000Z","gdop":1.14,"hdop":0.60,"pdop":1.02,"tdop":0.51,"xdop":0.40,"ydop":0.45,"vdop":0.82,"nSat":22,"uSat":19,"satellites":[{"PRN":3,"gnssid":0,"svid":3,"az":18.0,"el":2.0,"prRes":0.0,"qual":1,"ss":0.0,"used":false,"health":1},{"PRN":4,"gnssid":0,"svid":4,"az":77.0,"el":40.0,"prRes":1.3,"qual":7,"ss":43.0,"used":true,"health":1},{"PRN":6,"gnssid":0,"svid":6,"az":295.0,"el":4.0,"prRes":0.0,"qual":4,"ss":24.0,"used":false,"health":1},{"PRN":7,"gnssid":0,"svid":7,"az":221.0,"el":67.0,"prRes":-2.6,"qual":7,"ss":48.0,"used":true,"health":1},{"PRN":8,"gnssid":0,"svid":8,"az":70.0,"el":19.0,"prRes":2.1,"qual":7,"ss":42.0,"used":true,"health":1},{"PRN":9,"gnssid":0,"svid":9,"az":111.0,"el":72.0,"prRes":-3.4,"qual":7,"ss":50.0,"used":true,"health":1},{"PRN":11,"gnssid":0,"svid":11,"az":265.0,"el":6.0,"prRes":-2.6,"qual":6,"ss":31.0,"used":true,"health":1},{"PRN":14,"gnssid":0,"svid":14,"az":335.0,"el":14.0,"prRes":0.4,"qual":7,"ss":37.0,"used":true,"health":1},{"PRN":16,"gnssid":0,"svid":16,"az":139.0,"el":16.0,"prRes":-0.1,"qual":7,"ss":30.0,"used":true,"health":1},{"PRN":20,"gnssid":0,"svid":20,"az":231.0,"el":24.0,"prRes":1.6,"qual":7,"ss":42.0,"used":true,"health":1},{"PRN":27,"gnssid":0,"svid":27,"az":107.0,"el":15.0,"prRes":1.2,"qual":6,"ss":27.0,"used":true,"health":1},{"PRN":30,"gnssid":0,"svid":30,"az":269.0,"el":39.0,"prRes":2.6,"qual":7,"ss":44.0,"used":true,"health":1},{"PRN":194,"gnssid":5,"svid":2,"az":357.0,"el":34.0,"prRes":5.7,"qual":7,"ss":41.0,"used":true,"health":1},{"PRN":195,"gnssid":5,"svid":3,"az":359.0,"el":10.0,"prRes":5.8,"qual":7,"ss":37.0,"used":true,"health":1},{"PRN":196,"gnssid":5,"svid":4,"az":27.0,"el":64.0,"prRes":0.2,"qual":7,"ss":46.0,"used":true,"health":1},{"PRN":66,"gnssid":6,"svid":2,"az":45.0,"el":15.0,"prRes":5.8,"qual":7,"ss":37.0,"used":true,"health":1},{"PRN":67,"gnssid":6,"svid":3,"az":71.0,"el":67.0,"prRes":-12.4,"qual":7,"ss":42.0,"used":true,"health":1},{"PRN":68,"gnssid":6,"svid":4,"az":202.0,"el":51.0,"prRes":-15.0,"qual":7,"ss":36.0,"used":true,"health":1},{"PRN":69,"gnssid":6,"svid":5,"az":216.0,"el":5.0,"prRes":0.0,"qual":4,"ss":26.0,"used":false,"health":1},{"PRN":77,"gnssid":6,"svid":13,"az":150.0,"el":39.0,"prRes":2.2,"qual":7,"ss":46.0,"used":true,"health":1},{"PRN":78,"gnssid":6,"svid":14,"az":295.0,"el":74.0,"prRes":0.5,"qual":7,"ss":52.0,"used":true,"health":1},{"PRN":79,"gnssid":6,"svid":15,"az":320.0,"el":21.0,"prRes":2.5,"qual":7,"ss":43.0,"used":true,"health":1}]}
{"class":"SKY","time":"2025-04-11T05:06:35.000Z","gdop":0.23,"hdop":0.60,"pdop":1.02,"tdop":0.23,"xdop":0.40,"ydop":0.45,"vdop":0.82}
$GPZDA,050636.00,11,04,2025,00,00*61
$GPGGA,050636.00,3454.4931760,S,13835.7688740,E,7,19,,64.00,M,-1.695,M,,*45
$GPRMC,050636.00,A,3454.4931760,S,13835.7688740,E,0.0000,0.000,110425,7.9,E*78
$GPGSA,A,3,4,7,8,9,11,14,16,20,27,30,,,,,*18
{"class":"TPV","status":7,"mode":3,"time":"2025-04-11T05:06:36.000Z","leapseconds":18,"ept":0.005,"lat":-34.908219600,"lon":138.596147900,"altHAE":60.5050,"altMSL":64.0050,"alt":64.0050,"epv":0.748,"track":0.0000,"magtrack":7.9180,"magvar":7.9,"speed":0.000,"climb":0.000,"eps":0.01,"epc":1.50,"geoidSep":-1.695,"eph":1.058}
$GPGSV,6,1,22,03,02,018,00,04,40,077,43,06,04,295,25,07,67,221,48*71
$GPGSV,6,2,22,08,19,070,42,09,72,111,50,11,06,265,31,14,14,335,37*70
$GPGSV,6,3,22,16,16,139,30,20,24,231,42,27,15,107,28,30,39,269,44*7F
$GPGSV,6,4,22,194,34,357,41,195,10,359,37,196,64,027,46,66,15,045,37*49
$GPGSV,6,5,22,67,67,071,42,68,51,202,36,69,05,216,25,77,39,150,46*71
$GPGSV,6,6,22,78,74,295,52,79,21,320,43*77
{"class":"SKY","time":"2025-04-11T05:06:36.000Z","gdop":1.14,"hdop":0.60,"pdop":1.02,"tdop":0.51,"xdop":0.40,"ydop":0.45,"vdop":0.82,"nSat":22,"uSat":19,"satellites":[{"PRN":3,"gnssid":0,"svid":3,"az":18.0,"el":2.0,"prRes":0.0,"qual":1,"ss":0.0,"used":false,"health":1},{"PRN":4,"gnssid":0,"svid":4,"az":77.0,"el":40.0,"prRes":1.4,"qual":7,"ss":43.0,"used":true,"health":1},{"PRN":6,"gnssid":0,"svid":6,"az":295.0,"el":4.0,"prRes":0.0,"qual":4,"ss":25.0,"used":false,"health":1},{"PRN":7,"gnssid":0,"svid":7,"az":221.0,"el":67.0,"prRes":-2.3,"qual":7,"ss":48.0,"used":true,"health":1},{"PRN":8,"gnssid":0,"svid":8,"az":70.0,"el":19.0,"prRes":2.3,"qual":7,"ss":42.0,"used":true,"health":1},{"PRN":9,"gnssid":0,"svid":9,"az":111.0,"el":72.0,"prRes":-3.4,"qual":7,"ss":50.0,"used":true,"health":1},{"PRN":11,"gnssid":0,"svid":11,"az":265.0,"el":6.0,"prRes":-2.7,"qual":6,"ss":31.0,"used":true,"health":1},{"PRN":14,"gnssid":0,"svid":14,"az":335.0,"el":14.0,"prRes":0.4,"qual":7,"ss":37.0,"used":true,"health":1},{"PRN":16,"gnssid":0,"svid":16,"az":139.0,"el":16.0,"prRes":0.1,"qual":7,"ss":30.0,"used":true,"health":1},{"PRN":20,"gnssid":0,"svid":20,"az":231.0,"el":24.0,"prRes":1.6,"qual":7,"ss":42.0,"used":true,"health":1},{"PRN":27,"gnssid":0,"svid":27,"az":107.0,"el":15.0,"prRes":-0.6,"qual":6,"ss":28.0,"used":true,"health":1},{"PRN":30,"gnssid":0,"svid":30,"az":269.0,"el":39.0,"prRes":2.5,"qual":7,"ss":44.0,"used":true,"health":1},{"PRN":194,"gnssid":5,"svid":2,"az":357.0,"el":34.0,"prRes":5.7,"qual":7,"ss":41.0,"used":true,"health":1},{"PRN":195,"gnssid":5,"svid":3,"az":359.0,"el":10.0,"prRes":5.9,"qual":7,"ss":37.0,"used":true,"health":1},{"PRN":196,"gnssid":5,"svid":4,"az":27.0,"el":64.0,"prRes":0.2,"qual":7,"ss":46.0,"used":true,"health":1},{"PRN":66,"gnssid":6,"svid":2,"az":45.0,"el":15.0,"prRes":6.0,"qual":7,"ss":37.0,"used":true,"health":1},{"PRN":67,"gnssid":6,"svid":3,"az":71.0,"el":67.0,"prRes":-12.5,"qual":7,"ss":42.0,"used":true,"health":1},{"PRN":68,"gnssid":6,"svid":4,"az":202.0,"el":51.0,"prRes":-15.1,"qual":7,"ss":36.0,"used":true,"health":1},{"PRN":69,"gnssid":6,"svid":5,"az":216.0,"el":5.0,"prRes":0.0,"qual":4,"ss":25.0,"used":false,"health":1},{"PRN":77,"gnssid":6,"svid":13,"az":150.0,"el":39.0,"prRes":2.2,"qual":7,"ss":46.0,"used":true,"health":1},{"PRN":78,"gnssid":6,"svid":14,"az":295.0,"el":74.0,"prRes":1.0,"qual":7,"ss":52.0,"used":true,"health":1},{"PRN":79,"gnssid":6,"svid":15,"az":320.0,"el":21.0,"prRes":2.5,"qual":7,"ss":43.0,"used":true,"health":1}]}
{"class":"SKY","time":"2025-04-11T05:06:36.000Z","gdop":0.23,"hdop":0.60,"pdop":1.02,"tdop":0.23,"xdop":0.40,"ydop":0.45,"vdop":0.82}
$GPZDA,050636.00,11,04,2025,00,00*61
$GPGGA,050636.00,3454.4931760,S,13835.7688740,E,7,19,0.60,64.00,M,-1.695,M,,*5D
$GPRMC,050636.00,A,3454.4931760,S,13835.7688740,E,0.0000,0.000,110425,7.9,E*78
$GPGSA,A,3,4,7,8,9,11,14,16,20,27,30,,,1.0,0.6,0.8*39
$GPGBS,050636.00,6.009,6.680,0.748,,,,*4B
{"class":"TPV","status":7,"mode":3,"time":"2025-04-11T05:06:36.000Z","leapseconds":18,"ept":0.005,"lat":-34.908219600,"lon":138.596147900,"altHAE":60.5050,"altMSL":64.0050,"alt":64.0050,"epx":6.009,"epy":6.680,"epv":0.748,"track":0.0000,"magtrack":7.9180,"magvar":7.9,"speed":0.000,"climb":0.000,"eps":13.36,"epc":1.50,"ecefx":-3927581.2600,"ecefy":3463097.9900,"ecefz":-3629556.1800,"ecefvx":0.00,"ecefvy":0.00,"ecefvz":0.00,"ecefpAcc":1.3000,"ecefvAcc":0.0100,"geoidSep":-1.695,"eph":1.058,"sep":19.286}
{"class":"SKY","time":"2025-04-11T05:06:36.000Z","gdop":0.23,"hdop":0.60,"pdop":1.02,"tdop":0.23,"xdop":0.40,"ydop":0.45,"vdop":0.82}
$GPGSV,6,1,22,03,02,018,00,04,40,077,43,06,04,295,26,07,67,221,48*72
$GPGSV,6,2,22,08,19,070,42,09,72,111,50,11,06,265,32,14,14,335,37*73
$GPGSV,6,3,22,16,16,139,30,20,24,231,41,27,15,107,28,30,39,269,44*7C
$GPGSV,6,4,22,194,34,357,41,195,10,359,37,196,64,027,46,66,15,045,38*46
$GPGSV,6,5,22,67,67,071,42,68,51,202,36,69,05,216,25,77,39,150,46*71
$GPGSV,6,6,22,78,74,295,52,79,21,320,43*77
{"class":"SKY","time":"2025-04-11T05:06:37.000Z","gdop":1.14,"hdop":0.60,"pdop":1.02,"tdop":0.51,"xdop":0.40,"ydop":0.45,"vdop":0.82,"nSat":22,"uSat":19,"satellites":[{"PRN":3,"gnssid":0,"svid":3,"az":18.0,"el":2.0,"prRes":0.0,"qual":1,"ss":0.0,"used":false,"health":1},{"PRN":4,"gnssid":0,"svid":4,"az":77.0,"el":40.0,"prRes":1.4,"qual":7,"ss":43.0,"used":true,"health":1},{"PRN":6,"gnssid":0,"svid":6,"az":295.0,"el":4.0,"prRes":0.0,"qual":4,"ss":26.0,"used":false,"health":1},{"PRN":7,"gnssid":0,"svid":7,"az":221.0,"el":67.0,"prRes":-2.2,"qual":7,"ss":48.0,"used":true,"health":1},{"PRN":8,"gnssid":0,"svid":8,"az":70.0,"el":19.0,"prRes":2.5,"qual":7,"ss":42.0,"used":true,"health":1},{"PRN":9,"gnssid":0,"svid":9,"az":111.0,"el":72.0,"prRes":-3.7,"qual":7,"ss":50.0,"used":true,"health":1},{"PRN":11,"gnssid":0,"svid":11,"az":265.0,"el":6.0,"prRes":-6.0,"qual":7,"ss":32.0,"used":true,"health":1},{"PRN":14,"gnssid":0,"svid":14,"az":335.0,"el":14.0,"prRes":0.3,"qual":7,"ss":37.0,"used":true,"health":1},{"PRN":16,"gnssid":0,"svid":16,"az":139.0,"el":16.0,"prRes":1.3,"qual":7,"ss":30.0,"used":true,"health":1},{"PRN":20,"gnssid":0,"svid":20,"az":231.0,"el":24.0,"prRes":1.9,"qual":7,"ss":41.0,"used":true,"health":1},{"PRN":27,"gnssid":0,"svid":27,"az":107.0,"el":15.0,"prRes":-2.4,"qual":7,"ss":28.0,"used":true,"health":1},{"PRN":30,"gnssid":0,"svid":30,"az":269.0,"el":39.0,"prRes":2.8,"qual":7,"ss":44.0,"used":true,"health":1},{"PRN":194,"gnssid":5,"svid":2,"az":357.0,"el":34.0,"prRes":5.5,"qual":7,"ss":41.0,"used":true,"health":1},{"PRN":195,"gnssid":5,"svid":3,"az":359.0,"el":10.0,"prRes":6.2,"qual":7,"ss":37.0,"used":true,"health":1},{"PRN":196,"gnssid":5,"svid":4,"az":27.0,"el":64.0,"prRes":0.2,"qual":7,"ss":46.0,"used":true,"health":1},{"PRN":66,"gnssid":6,"svid":2,"az":45.0,"el":15.0,"prRes":5.9,"qual":7,"ss":38.0,"used":true,"health":1},{"PRN":67,"gnssid":6,"svid":3,"az":71.0,"el":67.0,"prRes":-12.3,"qual":7,"ss":42.0,"used":true,"health":1},{"PRN":68,"gnssid":6,"svid":4,"az":202.0,"el":51.0,"prRes":-15.1,"qual":7,"ss":36.0,"used":true,"health":1},{"PRN":69,"gnssid":6,"svid":5,"az":216.0,"el":5.0,"prRes":0.0,"qual":4,"ss":25.0,"used":false,"health":1},{"PRN":77,"gnssid":6,"svid":13,"az":150.0,"el":39.0,"prRes":1.9,"qual":7,"ss":46.0,"used":true,"health":1},{"PRN":78,"gnssid":6,"svid":14,"az":295.0,"el":74.0,"prRes":1.1,"qual":7,"ss":52.0,"used":true,"health":1},{"PRN":79,"gnssid":6,"svid":15,"az":320.0,"el":21.0,"prRes":2.3,"qual":7,"ss":43.0,"used":true,"health":1}]}
{"class":"SKY","time":"2025-04-11T05:06:37.000Z","gdop":0.23,"hdop":0.60,"pdop":1.02,"tdop":0.23,"xdop":0.40,"ydop":0.45,"vdop":0.82}
$GPZDA,050637.00,11,04,2025,00,00*60
$GPGGA,050637.00,3454.4931760,S,13835.7688740,E,7,19,0.60,64.00,M,-1.695,M,,*5C
$GPRMC,050637.00,A,3454.4931760,S,13835.7688740,E,0.0000,0.000,110425,7.9,E*79
$GPGSA,A,3,4,7,8,9,11,14,16,20,27,30,,,1.0,0.6,0.8*39
$GPGBS,050637.00,6.009,6.680,0.748,,,,*4A
{"class":"TPV","status":7,"mode":3,"time":"2025-04-11T05:06:37.000Z","leapseconds":18,"ept":0.005,"lat":-34.908219600,"lon":138.596147900,"altHAE":60.5050,"altMSL":64.0050,"alt":64.0050,"epx":6.009,"epy":6.680,"epv":0.748,"track":0.0000,"magtrack":7.9180,"magvar":7.9,"speed":0.000,"climb":0.000,"eps":13.36,"epc":1.50,"ecefx":-3927581.2600,"ecefy":3463097.9900,"ecefz":-3629556.1800,"ecefvx":0.00,"ecefvy":0.00,"ecefvz":0.00,"ecefpAcc":1.3000,"ecefvAcc":0.0100,"geoidSep":-1.695,"eph":1.058,"sep":19.286}
{"class":"SKY","time":"2025-04-11T05:06:37.000Z","gdop":0.23,"hdop":0.60,"pdop":1.02,"tdop":0.23,"xdop":0.40,"ydop":0.45,"vdop":0.82}
$GPGSV,6,1,22,03,02,018,00,04,40,077,43,06,04,295,27,07,67,221,47*7C
$GPGSV,6,2,22,08,19,070,42,09,72,111,50,11,06,265,32,14,14,335,37*73
$GPGSV,6,3,22,16,16,139,30,20,24,231,41,27,15,107,28,30,39,269,44*7C
$GPGSV,6,4,22,194,34,357,41,195,10,359,37,196,64,027,46,66,15,045,38*46
$GPGSV,6,5,22,67,67,071,42,68,51,202,36,69,05,216,25,77,39,150,46*71
$GPGSV,6,6,22,78,74,295,52,79,21,320,43*77
{"class":"SKY","time":"2025-04-11T05:06:38.000Z","gdop":1.14,"hdop":0.60,"pdop":1.02,"tdop":0.51,"xdop":0.40,"ydop":0.45,"vdop":0.82,"nSat":22,"uSat":19,"satellites":[{"PRN":3,"gnssid":0,"svid":3,"az":18.0,"el":2.0,"prRes":0.0,"qual":1,"ss":0.0,"used":false,"health":1},{"PRN":4,"gnssid":0,"svid":4,"az":77.0,"el":40.0,"prRes":1.7,"qual":7,"ss":43.0,"used":true,"health":1},{"PRN":6,"gnssid":0,"svid":6,"az":295.0,"el":4.0,"prRes":0.0,"qual":4,"ss":27.0,"used":false,"health":1},{"PRN":7,"gnssid":0,"svid":7,"az":221.0,"el":67.0,"prRes":-2.4,"qual":7,"ss":47.0,"used":true,"health":1},{"PRN":8,"gnssid":0,"svid":8,"az":70.0,"el":19.0,"prRes":2.4,"qual":7,"ss":42.0,"used":true,"health":1},{"PRN":9,"gnssid":0,"svid":9,"az":111.0,"el":72.0,"prRes":-3.8,"qual":7,"ss":50.0,"used":true,"health":1},{"PRN":11,"gnssid":0,"svid":11,"az":265.0,"el":6.0,"prRes":-4.7,"qual":7,"ss":32.0,"used":true,"health":1},{"PRN":14,"gnssid":0,"svid":14,"az":335.0,"el":14.0,"prRes":0.7,"qual":7,"ss":37.0,"used":true,"health":1},{"PRN":16,"gnssid":0,"svid":16,"az":139.0,"el":16.0,"prRes":1.2,"qual":7,"ss":30.0,"used":true,"health":1},{"PRN":20,"gnssid":0,"svid":20,"az":231.0,"el":24.0,"prRes":2.2,"qual":7,"ss":41.0,"used":true,"health":1},{"PRN":27,"gnssid":0,"svid":27,"az":107.0,"el":15.0,"prRes":-2.3,"qual":7,"ss":28.0,"used":true,"health":1},{"PRN":30,"gnssid":0,"svid":30,"az":269.0,"el":39.0,"prRes":3.0,"qual":7,"ss":44.0,"used":true,"health":1},{"PRN":194,"gnssid":5,"svid":2,"az":357.0,"el":34.0,"prRes":5.4,"qual":7,"ss":41.0,"used":true,"health":1},{"PRN":195,"gnssid":5,"svid":3,"az":359.0,"el":10.0,"prRes":6.1,"qual":7,"ss":37.0,"used":true,"health":1},{"PRN":196,"gnssid":5,"svid":4,"az":27.0,"el":64.0,"prRes":0.1,"qual":7,"ss":46.0,"used":true,"health":1},{"PRN":66,"gnssid":6,"svid":2,"az":45.0,"el":15.0,"prRes":5.7,"qual":7,"ss":38.0,"used":true,"health":1},{"PRN":67,"gnssid":6,"svid":3,"az":71.0,"el":67.0,"prRes":-12.2,"qual":7,"ss":42.0,"used":true,"health":1},{"PRN":68,"gnssid":6,"svid":4,"az":202.0,"el":51.0,"prRes":-15.3,"qual":7,"ss":36.0,"used":true,"health":1},{"PRN":69,"gnssid":6,"svid":5,"az":216.0,"el":5.0,"prRes":0.0,"qual":4,"ss":25.0,"used":false,"health":1},{"PRN":77,"gnssid":6,"svid":13,"az":150.0,"el":39.0,"prRes":1.7,"qual":7,"ss":46.0,"used":true,"health":1},{"PRN":78,"gnssid":6,"svid":14,"az":295.0,"el":74.0,"prRes":1.3,"qual":7,"ss":52.0,"used":true,"health":1},{"PRN":79,"gnssid":6,"svid":15,"az":320.0,"el":21.0,"prRes":2.5,"qual":7,"ss":43.0,"used":true,"health":1}]}
{"class":"SKY","time":"2025-04-11T05:06:38.000Z","gdop":0.23,"hdop":0.60,"pdop":1.02,"tdop":0.23,"xdop":0.40,"ydop":0.45,"vdop":0.82}
$GPZDA,050638.00,11,04,2025,00,00*6F
$GPGGA,050638.00,3454.4931760,S,13835.7688740,E,7,19,0.60,64.00,M,-1.695,M,,*53
$GPRMC,050638.00,A,3454.4931760,S,13835.7688740,E,0.0000,0.000,110425,7.9,E*76
$GPGSA,A,3,4,7,8,9,11,14,16,20,27,30,,,1.0,0.6,0.8*39
$GPGBS,050638.00,6.009,6.680,0.748,,,,*45
{"class":"TPV","status":7,"mode":3,"time":"2025-04-11T05:06:38.000Z","leapseconds":18,"ept":0.005,"lat":-34.908219600,"lon":138.596147900,"altHAE":60.5050,"altMSL":64.0050,"alt":64.0050,"epx":6.009,"epy":6.680,"epv":0.748,"track":0.0000,"magtrack":7.9180,"magvar":7.9,"speed":0.000,"climb":0.000,"eps":13.36,"epc":1.50,"ecefx":-3927581.2600,"ecefy":3463097.9900,"ecefz":-3629556.1800,"ecefvx":0.00,"ecefvy":0.00,"ecefvz":0.00,"ecefpAcc":1.3000,"ecefvAcc":0.0100,"geoidSep":-1.695,"eph":1.058,"sep":19.286}
{"class":"SKY","time":"2025-04-11T05:06:38.000Z","gdop":0.23,"hdop":0.60,"pdop":1.02,"tdop":0.23,"xdop":0.40,"ydop":0.45,"vdop":0.82}
$GPGSV,6,1,22,03,02,018,00,04,40,077,43,06,04,295,27,07,67,221,47*7C
$GPGSV,6,2,22,08,19,070,42,09,72,111,50,11,06,265,32,14,14,335,37*73
$GPGSV,6,3,22,16,16,139,31,20,24,232,41,27,15,107,28,30,39,269,44*7E
$GPGSV,6,4,22,194,34,357,41,195,10,359,37,196,64,027,46,66,15,045,38*46
$GPGSV,6,5,22,67,67,071,42,68,51,202,36,69,05,216,23,77,39,150,46*77
$GPGSV,6,6,22,78,74,295,52,79,21,320,43*77
{"class":"SKY","time":"2025-04-11T05:06:40.000Z","gdop":1.14,"hdop":0.60,"pdop":1.02,"tdop":0.51,"xdop":0.40,"ydop":0.45,"vdop":0.82,"nSat":22,"uSat":19,"satellites":[{"PRN":3,"gnssid":0,"svid":3,"az":18.0,"el":2.0,"prRes":0.0,"qual":1,"ss":0.0,"used":false,"health":1},{"PRN":4,"gnssid":0,"svid":4,"az":77.0,"el":40.0,"prRes":2.2,"qual":7,"ss":43.0,"used":true,"health":1},{"PRN":6,"gnssid":0,"svid":6,"az":295.0,"el":4.0,"prRes":0.0,"qual":4,"ss":27.0,"used":false,"health":1},{"PRN":7,"gnssid":0,"svid":7,"az":221.0,"el":67.0,"prRes":-2.2,"qual":7,"ss":47.0,"used":true,"health":1},{"PRN":8,"gnssid":0,"svid":8,"az":70.0,"el":19.0,"prRes":2.5,"qual":7,"ss":42.0,"used":true,"health":1},{"PRN":9,"gnssid":0,"svid":9,"az":111.0,"el":72.0,"prRes":-3.6,"qual":7,"ss":50.0,"used":true,"health":1},{"PRN":11,"gnssid":0,"svid":11,"az":265.0,"el":6.0,"prRes":-4.2,"qual":7,"ss":32.0,"used":true,"health":1},{"PRN":14,"gnssid":0,"svid":14,"az":335.0,"el":14.0,"prRes":0.6,"qual":7,"ss":37.0,"used":true,"health":1},{"PRN":16,"gnssid":0,"svid":16,"az":139.0,"el":16.0,"prRes":0.9,"qual":7,"ss":31.0,"used":true,"health":1},{"PRN":20,"gnssid":0,"svid":20,"az":232.0,"el":24.0,"prRes":2.5,"qual":7,"ss":41.0,"used":true,"health":1},{"PRN":27,"gnssid":0,"svid":27,"az":107.0,"el":15.0,"prRes":-3.5,"qual":7,"ss":28.0,"used":true,"health":1},{"PRN":30,"gnssid":0,"svid":30,"az":269.0,"el":39.0,"prRes":2.8,"qual":7,"ss":44.0,"used":true,"health":1},{"PRN":194,"gnssid":5,"svid":2,"az":357.0,"el":34.0,"prRes":5.6,"qual":7,"ss":41.0,"used":true,"health":1},{"PRN":195,"gnssid":5,"svid":3,"az":359.0,"el":10.0,"prRes":6.2,"qual":7,"ss":37.0,"used":true,"health":1},{"PRN":196,"gnssid":5,"svid":4,"az":27.0,"el":64.0,"prRes":0.2,"qual":7,"ss":46.0,"used":true,"health":1},{"PRN":66,"gnssid":6,"svid":2,"az":45.0,"el":15.0,"prRes":4.8,"qual":7,"ss":38.0,"used":true,"health":1},{"PRN":67,"gnssid":6,"svid":3,"az":71.0,"el":67.0,"prRes":-12.4,"qual":7,"ss":42.0,"used":true,"health":1},{"PRN":68,"gnssid":6,"svid":4,"az":202.0,"el":51.0,"prRes":-15.2,"qual":7,"ss":36.0,"used":true,"health":1},{"PRN":69,"gnssid":6,"svid":5,"az":216.0,"el":5.0,"prRes":0.0,"qual":4,"ss":23.0,"used":false,"health":1},{"PRN":77,"gnssid":6,"svid":13,"az":150.0,"el":39.0,"prRes":1.7,"qual":7,"ss":46.0,"used":true,"health":1},{"PRN":78,"gnssid":6,"svid":14,"az":295.0,"el":74.0,"prRes":0.7,"qual":7,"ss":52.0,"used":true,"health":1},{"PRN":79,"gnssid":6,"svid":15,"az":320.0,"el":21.0,"prRes":2.9,"qual":7,"ss":43.0,"used":true,"health":1}]}
{"class":"SKY","time":"2025-04-11T05:06:40.000Z","gdop":0.23,"hdop":0.60,"pdop":1.02,"tdop":0.23,"xdop":0.40,"ydop":0.45,"vdop":0.82}
$GPZDA,050641.00,11,04,2025,00,00*61
$GPGGA,050641.00,3454.4931760,S,13835.7688740,E,7,19,,64.00,M,-1.695,M,,*45
$GPRMC,050641.00,A,3454.4931760,S,13835.7688740,E,0.0000,0.000,110425,7.9,E*78
$GPGSA,A,3,4,7,8,9,11,14,16,20,27,30,,,,,*18
{"class":"TPV","status":7,"mode":3,"time":"2025-04-11T05:06:41.000Z","leapseconds":18,"ept":0.005,"lat":-34.908219600,"lon":138.596147900,"altHAE":60.5050,"altMSL":64.0050,"alt":64.0050,"epv":0.748,"track":0.0000,"magtrack":7.9180,"magvar":7.9,"speed":0.000,"climb":0.000,"eps":0.01,"epc":1.50,"geoidSep":-1.695,"eph":1.058}
$GPGSV,6,1,22,03,02,018,00,04,40,077,43,06,04,295,27,07,67,221,47*7C
$GPGSV,6,2,22,08,19,070,42,09,72,111,50,11,06,265,32,14,14,335,37*73
$GPGSV,6,3,22,16,16,139,31,20,24,232,41,27,15,107,28,30,39,269,44*7E
$GPGSV,6,4,22,194,34,357,41,195,10,359,37,196,64,027,46,66,15,045,38*46
$GPGSV,6,5,22,67,67,071,42,68,51,202,36,69,05,216,24,77,39,150,46*70
$GPGSV,6,6,22,78,74,295,52,79,21,320,43*77
{"class":"SKY","time":"2025-04-11T05:06:41.000Z","gdop":1.14,"hdop":0.60,"pdop":1.02,"tdop":0.51,"xdop":0.40,"ydop":0.45,"vdop":0.82,"nSat":22,"uSat":19,"satellites":[{"PRN":3,"gnssid":0,"svid":3,"az":18.0,"el":2.0,"prRes":0.0,"qual":1,"ss":0.0,"used":false,"health":1},{"PRN":4,"gnssid":0,"svid":4,"az":77.0,"el":40.0,"prRes":2.3,"qual":7,"ss":43.0,"used":true,"health":1},{"PRN":6,"gnssid":0,"svid":6,"az":295.0,"el":4.0,"prRes":0.0,"qual":4,"ss":27.0,"used":false,"health":1},{"PRN":7,"gnssid":0,"svid":7,"az":221.0,"el":67.0,"prRes":-2.3,"qual":7,"ss":47.0,"used":true,"health":1},{"PRN":8,"gnssid":0,"svid":8,"az":70.0,"el":19.0,"prRes":2.3,"qual":7,"ss":42.0,"used":true,"health":1},{"PRN":9,"gnssid":0,"svid":9,"az":111.0,"el":72.0,"prRes":-3.8,"qual":7,"ss":50.0,"used":true,"health":1},{"PRN":11,"gnssid":0,"svid":11,"az":265.0,"el":6.0,"prRes":-4.1,"qual":7,"ss":32.0,"used":true,"health":1},{"PRN":14,"gnssid":0,"svid":14,"az":335.0,"el":14.0,"prRes":0.5,"qual":7,"ss":37.0,"used":true,"health":1},{"PRN":16,"gnssid":0,"svid":16,"az":139.0,"el":16.0,"prRes":0.7,"qual":7,"ss":31.0,"used":true,"health":1},{"PRN":20,"gnssid":0,"svid":20,"az":232.0,"el":24.0,"prRes":2.5,"qual":7,"ss":41.0,"used":true,"health":1},{"PRN":27,"gnssid":0,"svid":27,"az":107.0,"el":15.0,"prRes":-1.6,"qual":7,"ss":28.0,"used":true,"health":1},{"PRN":30,"gnssid":0,"svid":30,"az":269.0,"el":39.0,"prRes":2.6,"qual":7,"ss":44.0,"used":true,"health":1},{"PRN":194,"gnssid":5,"svid":2,"az":357.0,"el":34.0,"prRes":5.5,"qual":7,"ss":41.0,"used":true,"health":1},{"PRN":195,"gnssid":5,"svid":3,"az":359.0,"el":10.0,"prRes":6.2,"qual":7,"ss":37.0,"used":true,"health":1},{"PRN":196,"gnssid":5,"svid":4,"az":27.0,"el":64.0,"prRes":0.1,"qual":7,"ss":46.0,"used":true,"health":1},{"PRN":66,"gnssid":6,"svid":2,"az":45.0,"el":15.0,"prRes":4.6,"qual":7,"ss":38.0,"used":true,"health":1},{"PRN":67,"gnssid":6,"svid":3,"az":71.0,"el":67.0,"prRes":-12.3,"qual":7,"ss":42.0,"used":true,"health":1},{"PRN":68,"gnssid":6,"svid":4,"az":202.0,"el":51.0,"prRes":-15.2,"qual":7,"ss":36.0,"used":true,"health":1},{"PRN":69,"gnssid":6,"svid":5,"az":216.0,"el":5.0,"prRes":0.0,"qual":4,"ss":24.0,"used":false,"health":1},{"PRN":77,"gnssid":6,"svid":13,"az":150.0,"el":39.0,"prRes":1.5,"qual":7,"ss":46.0,"used":true,"health":1},{"PRN":78,"gnssid":6,"svid":14,"az":295.0,"el":74.0,"prRes":0.4,"qual":7,"ss":52.0,"used":true,"health":1},{"PRN":79,"gnssid":6,"svid":15,"az":320.0,"el":21.0,"prRes":3.0,"qual":7,"ss":43.0,"used":true,"health":1}]}
{"class":"SKY","time":"2025-04-11T05:06:41.000Z","gdop":0.23,"hdop":0.60,"pdop":1.02,"tdop":0.23,"xdop":0.40,"ydop":0.45,"vdop":0.82}
$GPZDA,050641.00,11,04,2025,00,00*61
$GPGGA,050641.00,3454.4931760,S,13835.7688740,E,7,19,0.60,64.00,M,-1.695,M,,*5D
$GPRMC,050641.00,A,3454.4931760,S,13835.7688740,E,0.0000,0.000,110425,7.9,E*78
$GPGSA,A,3,4,7,8,9,11,14,16,20,27,30,,,1.0,0.6,0.8*39
$GPGBS,050641.00,6.002,6.692,0.748,,,,*43
{"class":"TPV","status":7,"mode":3,"time":"2025-04-11T05:06:41.000Z","leapseconds":18,"ept":0.005,"lat":-34.908219600,"lon":138.596147900,"altHAE":60.5050,"altMSL":64.0050,"alt":64.0050,"epx":6.002,"epy":6.692,"epv":0.748,"track":0.0000,"magtrack":7.9180,"magvar":7.9,"speed":0.000,"climb":0.000,"eps":13.38,"epc":1.50,"ecefx":-3927581.2600,"ecefy":3463097.9900,"ecefz":-3629556.1800,"ecefvx":0.00,"ecefvy":0.00,"ecefvz":0.00,"ecefpAcc":1.3000,"ecefvAcc":0.0100,"geoidSep":-1.695,"eph":1.058,"sep":19.293}
{"class":"SKY","time":"2025-04-11T05:06:41.000Z","gdop":0.23,"hdop":0.60,"pdop":1.02,"tdop":0.23,"xdop":0.40,"ydop":0.45,"vdop":0.82}
$GPGSV,6,1,22,03,02,018,00,04,40,077,43,06,04,295,27,07,67,221,47*7C
$GPGSV,6,2,22,08,19,070,42,09,72,111,50,11,06,265,32,14,14,335,37*73
$GPGSV,6,3,22,16,16,139,31,20,24,232,41,27,15,107,28,30,39,269,44*7E
$GPGSV,6,4,22,194,34,357,41,195,10,359,37,196,64,027,46,66,15,045,38*46
$GPGSV,6,5,22,67,67,071,42,68,51,202,36,69,05,216,23,77,39,150,46*77
$GPGSV,6,6,22,78,74,295,52,79,21,320,43*77
