$GPZDA,234605.00,16,06,2021,00,00*60
$GPGGA,234605.00,4404.1315,N,12118.8453,W,1,00,,1133.15,M,-22.154,M,,*7C
$GPRMC,234605.00,A,4404.1315,N,12118.8453,W,0.0641,235.057,160621,14.4,E*49
$GPGSA,A,3,,,,,,,,,,,,,,,*1C
{"class":"TPV","mode":3,"time":"2021-06-16T23:46:05.000Z","ept":0.005,"lat":44.068857800,"lon":-121.314087600,"altHAE":1111.8000,"altMSL":1133.1490,"alt":1133.1490,"epv":6.053,"track":235.0571,"magtrack":249.4755,"magvar":14.4,"speed":0.033,"climb":0.000,"epd":33.3419,"eps":0.29,"epc":121.06,"geoidSep":-22.154,"eph":3.024}
$GPZDA,234605.10,16,06,2021,00,00*61
$GPGGA,234605.10,4404.1315,N,12118.8453,W,1,00,,1133.15,M,-22.154,M,,*7D
$GPRMC,234605.10,A,4404.1315,N,12118.8453,W,0.0641,235.057,160621,14.4,E*48
$GPGSA,A,3,,,,,,,,,,,,,,,*1C
{"class":"TPV","mode":3,"time":"2021-06-16T23:46:05.100Z","ept":0.005,"lat":44.068857800,"lon":-121.314087600,"altHAE":1111.7990,"altMSL":1133.1490,"alt":1133.1490,"epv":6.053,"track":235.0571,"magtrack":249.4755,"magvar":14.4,"speed":0.033,"climb":0.000,"epd":33.3419,"eps":0.29,"epc":121.06,"geoidSep":-22.154,"eph":3.024}
$GPZDA,234605.20,16,06,2021,00,00*62
$GPGGA,234605.20,4404.1315,N,12118.8453,W,1,00,,1133.15,M,-22.154,M,,*7E
$GPRMC,234605.20,A,4404.1315,N,12118.8453,W,0.0641,235.057,160621,14.4,E*4B
$GPGSA,A,3,,,,,,,,,,,,,,,*1C
{"class":"TPV","mode":3,"time":"2021-06-16T23:46:05.200Z","ept":0.005,"lat":44.068857700,"lon":-121.314087500,"altHAE":1111.7990,"altMSL":1133.1490,"alt":1133.1490,"epv":6.053,"track":235.0571,"magtrack":249.4755,"magvar":14.4,"speed":0.033,"climb":0.000,"epd":33.3419,"eps":0.29,"epc":121.06,"geoidSep":-22.154,"eph":3.024}
$GPZDA,234605.30,16,06,2021,00,00*63
$GPGGA,234605.30,4404.1315,N,12118.8453,W,1,00,,1133.15,M,-22.154,M,,*7F
$GPRMC,234605.30,A,4404.1315,N,12118.8453,W,0.0641,235.057,160621,14.4,E*4A
$GPGSA,A,3,,,,,,,,,,,,,,,*1C
{"class":"TPV","mode":3,"time":"2021-06-16T23:46:05.300Z","ept":0.005,"lat":44.068857700,"lon":-121.314087500,"altHAE":1111.7980,"altMSL":1133.1480,"alt":1133.1480,"epv":6.053,"track":235.0571,"magtrack":249.4755,"magvar":14.4,"speed":0.033,"climb":0.000,"epd":33.3419,"eps":0.29,"epc":121.06,"geoidSep":-22.154,"eph":3.024}
$GPZDA,234605.00,16,06,2021,00,00*60
$GPGGA,234605.00,4404.1315,N,12118.8453,W,2,00,,1133.23,M,-22.154,M,,*7A
$GPRMC,234605.00,A,4404.1315,N,12118.8453,W,0.0369,235.057,160621,14.4,E*46
$GPGSA,A,3,,,,,,,,,,,,,,,*1C
{"class":"TPV","status":2,"mode":3,"time":"2021-06-16T23:46:05.000Z","ept":0.005,"lat":44.068858000,"lon":-121.314088700,"altHAE":1111.8800,"altMSL":1133.2300,"alt":1133.2300,"epv":6.079,"track":235.0571,"magtrack":249.4755,"magvar":14.4,"speed":0.019,"climb":0.000,"epd":33.3419,"eps":0.41,"epc":121.06,"geoidSep":-22.154,"eph":3.024}
$GPGSV,7,1,25,05,14,052,20,10,34,228,36,13,25,057,26,15,43,089,34*70
$GPGSV,7,2,25,16,30,286,34,18,75,019,29,20,12,056,14,23,69,227,31*70
$GPGSV,7,3,25,26,25,254,00,27,18,315,21,29,37,147,25,46,39,191,39*73
$GPGSV,7,4,25,48,39,185,38,51,37,160,29,65,64,163,26,66,08,197,28*7C
$GPGSV,7,5,25,71,09,028,00,72,54,050,32,78,06,262,00,79,13,310,00*78
$GPGSV,7,6,25,80,02,001,00,81,12,310,00,86,03,118,12,87,61,083,32*78
$GPGSV,7,7,25,88,60,338,30*43
{"class":"SKY","time":"2019-04-10T23:46:05.000Z","xdop":0.51,"ydop":0.54,"vdop":1.21,"tdop":0.83,"hdop":0.74,"gdop":1.64,"pdop":1.41,"nSat":25,"uSat":15,"satellites":[{"PRN":5,"el":14.0,"az":52.0,"ss":20.0,"used":true,"gnssid":0,"svid":5,"health":1},{"PRN":10,"el":34.0,"az":228.0,"ss":36.0,"used":true,"gnssid":0,"svid":10,"health":1},{"PRN":13,"el":25.0,"az":57.0,"ss":26.0,"used":true,"gnssid":0,"svid":13,"health":1},{"PRN":15,"el":43.0,"az":89.0,"ss":34.0,"used":true,"gnssid":0,"svid":15,"health":1},{"PRN":16,"el":30.0,"az":286.0,"ss":34.0,"used":true,"gnssid":0,"svid":16,"health":1},{"PRN":18,"el":75.0,"az":19.0,"ss":29.0,"used":true,"gnssid":0,"svid":18,"health":1},{"PRN":20,"el":12.0,"az":56.0,"ss":14.0,"used":false,"gnssid":0,"svid":20,"health":1},{"PRN":23,"el":69.0,"az":227.0,"ss":31.0,"used":true,"gnssid":0,"svid":23,"health":1},{"PRN":26,"el":25.0,"az":254.0,"ss":0.0,"used":false,"gnssid":0,"svid":26,"health":1},{"PRN":27,"el":18.0,"az":315.0,"ss":21.0,"used":true,"gnssid":0,"svid":27,"health":1},{"PRN":29,"el":37.0,"az":147.0,"ss":25.0,"used":true,"gnssid":0,"svid":29,"health":1},{"PRN":46,"el":39.0,"az":191.0,"ss":39.0,"used":true,"gnssid":1,"svid":133,"health":1},{"PRN":48,"el":39.0,"az":185.0,"ss":38.0,"used":false,"gnssid":1,"svid":135},{"PRN":51,"el":37.0,"az":160.0,"ss":29.0,"used":true,"gnssid":1,"svid":138,"health":1},{"PRN":65,"el":64.0,"az":163.0,"ss":26.0,"used":true,"gnssid":6,"svid":1,"health":1},{"PRN":66,"el":8.0,"az":197.0,"ss":28.0,"used":false,"gnssid":6,"svid":2,"health":1},{"PRN":71,"el":9.0,"az":28.0,"ss":0.0,"used":false,"gnssid":6,"svid":7,"health":1},{"PRN":72,"el":54.0,"az":50.0,"ss":32.0,"used":true,"gnssid":6,"svid":8,"health":1},{"PRN":78,"el":6.0,"az":262.0,"ss":0.0,"used":false,"gnssid":6,"svid":14,"health":1},{"PRN":79,"el":13.0,"az":310.0,"ss":0.0,"used":false,"gnssid":6,"svid":15,"health":1},{"PRN":80,"el":2.0,"az":1.0,"ss":0.0,"used":false,"gnssid":6,"svid":16,"health":1},{"PRN":81,"el":12.0,"az":310.0,"ss":0.0,"used":false,"gnssid":6,"svid":17,"health":1},{"PRN":86,"el":3.0,"az":118.0,"ss":12.0,"used":false,"gnssid":6,"svid":22,"health":1},{"PRN":87,"el":61.0,"az":83.0,"ss":32.0,"used":true,"gnssid":6,"svid":23,"health":1},{"PRN":88,"el":60.0,"az":338.0,"ss":30.0,"used":true,"gnssid":6,"svid":24,"health":1}]}
{"class":"ATT","time":"2021-06-16T23:46:05.000Z","pitch":0.00,"yaw":0.00,"roll":0.00}
$GPZDA,234605.60,16,06,2021,00,00*66
$GPGGA,234605.60,4404.1315,N,12118.8453,W,2,15,0.74,1133.25,M,-22.154,M,,*63
$GPRMC,234605.60,A,4404.1315,N,12118.8453,W,0.0369,235.057,160621,14.4,E*40
$GPGSA,A,3,5,10,13,15,16,18,23,27,29,46,,,1.4,0.7,1.2*02
$GPGBS,234605.60,1.897,2.030,6.079,,,,*4F
{"class":"TPV","status":2,"mode":3,"time":"2021-06-16T23:46:05.600Z","leapseconds":18,"ept":0.005,"lat":44.068857900,"lon":-121.314088800,"altHAE":1111.9030,"altMSL":1133.2530,"alt":1133.2530,"epx":1.897,"epy":2.030,"epv":6.079,"track":235.0571,"magtrack":249.4755,"magvar":14.4,"speed":0.019,"climb":0.000,"epd":33.3973,"eps":0.41,"epc":121.58,"ecefx":-2386054.47,"ecefy":-3922197.24,"ecefz":4414365.43,"ecefvx":-0.03,"ecefvy":-0.02,"ecefvz":0.02,"ecefpAcc":6.79,"ecefvAcc":0.41,"geoidSep":-22.154,"eph":3.024,"sep":6.720}
$GPZDA,234605.70,16,06,2021,00,00*67
$GPGGA,234605.70,4404.1315,N,12118.8453,W,2,15,0.74,1133.26,M,-22.154,M,,*61
$GPRMC,234605.70,A,4404.1315,N,12118.8453,W,0.0369,235.057,160621,14.4,E*41
$GPGSA,A,3,5,10,13,15,16,18,23,27,29,46,,,1.4,0.7,1.2*02
$GPGBS,234605.70,1.897,2.030,6.079,,,,*4E
{"class":"TPV","status":2,"mode":3,"time":"2021-06-16T23:46:05.700Z","leapseconds":18,"ept":0.005,"lat":44.068857900,"lon":-121.314088800,"altHAE":1111.9070,"altMSL":1133.2570,"alt":1133.2570,"epx":1.897,"epy":2.030,"epv":6.079,"track":235.0571,"magtrack":249.4755,"magvar":14.4,"speed":0.019,"climb":0.000,"epd":33.3973,"eps":0.41,"epc":121.58,"ecefx":-2386054.47,"ecefy":-3922197.24,"ecefz":4414365.43,"ecefvx":-0.03,"ecefvy":-0.02,"ecefvz":0.02,"ecefpAcc":6.79,"ecefvAcc":0.41,"geoidSep":-22.154,"eph":3.024,"sep":6.720}
$GPZDA,234605.80,16,06,2021,00,00*68
$GPGGA,234605.80,4404.1315,N,12118.8453,W,2,15,0.74,1133.26,M,-22.154,M,,*6E
$GPRMC,234605.80,A,4404.1315,N,12118.8453,W,0.0369,235.057,160621,14.4,E*4E
$GPGSA,A,3,5,10,13,15,16,18,23,27,29,46,,,1.4,0.7,1.2*02
$GPGBS,234605.80,1.897,2.030,6.079,,,,*41
{"class":"TPV","status":2,"mode":3,"time":"2021-06-16T23:46:05.800Z","leapseconds":18,"ept":0.005,"lat":44.068857900,"lon":-121.314088800,"altHAE":1111.9110,"altMSL":1133.2610,"alt":1133.2610,"epx":1.897,"epy":2.030,"epv":6.079,"track":235.0571,"magtrack":249.4755,"magvar":14.4,"speed":0.019,"climb":0.000,"epd":33.3973,"eps":0.41,"epc":121.58,"ecefx":-2386054.47,"ecefy":-3922197.24,"ecefz":4414365.43,"ecefvx":-0.03,"ecefvy":-0.02,"ecefvz":0.02,"ecefpAcc":6.79,"ecefvAcc":0.41,"geoidSep":-22.154,"eph":3.024,"sep":6.720}
$GPZDA,234605.90,16,06,2021,00,00*69
$GPGGA,234605.90,4404.1315,N,12118.8453,W,2,15,0.74,1133.27,M,-22.154,M,,*6E
$GPRMC,234605.90,A,4404.1315,N,12118.8453,W,0.0369,235.057,160621,14.4,E*4F
$GPGSA,A,3,5,10,13,15,16,18,23,27,29,46,,,1.4,0.7,1.2*02
$GPGBS,234605.90,1.897,2.030,6.079,,,,*40
{"class":"TPV","status":2,"mode":3,"time":"2021-06-16T23:46:05.900Z","leapseconds":18,"ept":0.005,"lat":44.068857900,"lon":-121.314088900,"altHAE":1111.9150,"altMSL":1133.2650,"alt":1133.2650,"epx":1.897,"epy":2.030,"epv":6.079,"track":235.0571,"magtrack":249.4755,"magvar":14.4,"speed":0.019,"climb":0.000,"epd":33.3973,"eps":0.41,"epc":121.58,"ecefx":-2386054.47,"ecefy":-3922197.24,"ecefz":4414365.43,"ecefvx":-0.03,"ecefvy":-0.02,"ecefvz":0.02,"ecefpAcc":6.79,"ecefvAcc":0.41,"geoidSep":-22.154,"eph":3.024,"sep":6.720}
