{"class":"ERROR","message":"No such device as /dev/ttyACM0"}
$GNRMC,204221.00,A,4624.27601,N,11701.24518,W,0.045,,240324,,,A*73
{"class":"TPV","mode":2,"time":"2024-03-24T20:42:21.000Z","ept":0.005,"lat":46.404600167,"lon":-117.020753000,"magvar":13.9,"speed":0.023}
$GNVTG,,T,,M,0.045,N,0.083,K,A*37
$GNGGA,204221.00,4624.27601,N,11701.24518,W,1,06,1.36,286.2,M,-18.2,M,,*77
{"class":"TPV","mode":3,"time":"2024-03-24T20:42:21.000Z","ept":0.005,"lat":46.404600167,"lon":-117.020753000,"altHAE":268.0000,"altMSL":286.2000,"alt":286.2000,"magvar":13.9,"speed":0.023,"geoidSep":-18.200,"eph":25.840}
{"class":"SKY","hdop":1.36,"uSat":6}
$GNGSA,A,3,25,06,20,22,24,,,,,,,,2.23,1.36,1.76*1E
{"class":"TPV","mode":3,"time":"2024-03-24T20:42:21.000Z","ept":0.005,"lat":46.404600167,"lon":-117.020753000,"altHAE":268.0000,"altMSL":286.2000,"alt":286.2000,"epv":40.480,"magvar":13.9,"speed":0.023,"geoidSep":-18.200,"eph":25.840,"sep":42.370}
$GNGSA,A,3,80,,,,,,,,,,,,2.23,1.36,1.76*13
{"class":"TPV","mode":3,"time":"2024-03-24T20:42:21.000Z","ept":0.005,"lat":46.404600167,"lon":-117.020753000,"altHAE":268.0000,"altMSL":286.2000,"alt":286.2000,"epv":40.480,"magvar":13.9,"speed":0.023,"geoidSep":-18.200,"eph":25.840,"sep":42.370}
{"class":"SKY","hdop":1.36,"pdop":2.23,"vdop":1.76,"uSat":6}
$GPGSV,2,1,08,06,65,086,24,12,,,28,20,08,158,31,22,17,120,31*45
$GPGSV,2,2,08,24,37,225,27,25,23,304,39,32,03,311,,46,33,155,39*70
{"class":"SKY","gdop":2.57,"hdop":1.36,"pdop":2.23,"tdop":1.12,"xdop":0.83,"ydop":1.11,"vdop":1.76,"nSat":8,"uSat":5,"satellites":[{"PRN":6,"gnssid":0,"svid":6,"az":86.0,"el":65.0,"ss":24.0,"used":true},{"PRN":12,"gnssid":0,"svid":12,"az":0.0,"el":0.0,"ss":28.0,"used":false},{"PRN":20,"gnssid":0,"svid":20,"az":158.0,"el":8.0,"ss":31.0,"used":true},{"PRN":22,"gnssid":0,"svid":22,"az":120.0,"el":17.0,"ss":31.0,"used":true},{"PRN":24,"gnssid":0,"svid":24,"az":225.0,"el":37.0,"ss":27.0,"used":true},{"PRN":25,"gnssid":0,"svid":25,"az":304.0,"el":23.0,"ss":39.0,"used":true},{"PRN":32,"gnssid":0,"svid":32,"az":311.0,"el":3.0,"ss":0.0,"used":false},{"PRN":46,"gnssid":1,"svid":133,"az":155.0,"el":33.0,"ss":39.0,"used":false}]}
$GNTXT,01,01,01,PGRM inv format*2A
$GLGSV,1,1,02,80,08,148,31,85,04,223,23*63
{"class":"SKY","gdop":2.57,"hdop":1.36,"pdop":2.23,"tdop":1.12,"xdop":0.83,"ydop":1.11,"vdop":1.76,"nSat":2,"uSat":1,"satellites":[{"PRN":80,"gnssid":6,"svid":16,"az":148.0,"el":8.0,"ss":31.0,"used":true},{"PRN":85,"gnssid":6,"svid":21,"az":223.0,"el":4.0,"ss":23.0,"used":false}]}
$GNGLL,4624.27601,N,11701.24518,W,204221.00,A,A*68
{"class":"TPV","mode":3,"time":"2024-03-24T20:42:21.000Z","ept":0.005,"lat":46.404600167,"lon":-117.020753000,"altHAE":268.0000,"altMSL":286.2000,"alt":286.2000,"epx":12.393,"epy":16.621,"epv":40.480,"magvar":13.9,"speed":0.023,"geoidSep":-18.200,"eph":25.840,"sep":42.370}
$GNTXT,01,01,01,PSRF inv format*35
$GNTXT,01,01,01,PFEC inv format*32
$GNTXT,01,01,01,PTNL inv format*24
$GNTXT,01,01,01,PFEC inv format*32
$GNTXT,01,01,01,PASH inv format*28
$GNTXT,01,01,01,PMTK inv format*20
$GPZDA,204222.00,24,03,2024,00,00*63
$GPGGA,204222.00,4624.2760975,N,11701.2447959,W,1,06,1.36,284.87,M,-15.351,M,,*5D
$GPRMC,204222.00,A,4624.2760975,N,11701.2447959,W,0.0283,159.612,240324,13.9,E*4D
$GPGSA,A,3,80,,,,,,,,,,,,2.2,1.4,1.8*36
$GPGBS,204222.00,12.393,16.621,40.480,,,,*75
{"class":"TPV","mode":3,"time":"2024-03-24T20:42:22.000Z","ept":0.005,"lat":46.404601625,"lon":-117.020746599,"altHAE":269.5238,"altMSL":284.8746,"alt":284.8746,"epx":12.393,"epy":16.621,"epv":40.480,"track":159.6116,"magtrack":173.4632,"magvar":13.9,"speed":0.015,"climb":0.096,"eps":0.73,"epc":80.94,"ecefx":-2001723.79,"ecefy":-3925089.94,"ecefz":4596569.54,"ecefvx":-0.03,"ecefvy":-0.07,"ecefvz":0.06,"ecefpAcc":28.98,"ecefvAcc":0.73,"velN":-0.014,"velE":0.005,"velD":-0.096,"geoidSep":-15.351,"eph":25.840,"sep":42.370}
{"class":"SKY","gdop":2.57,"hdop":1.36,"pdop":2.23,"tdop":1.12,"xdop":0.83,"ydop":1.11,"vdop":1.76,"uSat":6}
$GPGSV,3,1,11,06,65,086,24,20,08,158,32,22,17,120,32,24,37,225,28*78
$GPGSV,3,2,11,25,23,304,40,32,03,311,00,46,33,155,40,48,34,202,00*70
$GPGSV,3,3,11,51,36,167,00,80,08,148,31,85,04,223,25*4A
{"class":"SKY","time":"2024-03-24T20:42:22.000Z","gdop":2.57,"hdop":1.36,"pdop":2.23,"tdop":1.12,"xdop":0.83,"ydop":1.11,"vdop":1.76,"nSat":14,"uSat":6,"satellites":[{"PRN":4,"gnssid":0,"svid":4,"az":0.0,"prRes":0.0,"qual":1,"ss":0.0,"used":false,"health":2},{"PRN":6,"gnssid":0,"svid":6,"az":86.0,"el":65.0,"prRes":-179.2,"qual":4,"ss":24.0,"used":true,"health":1},{"PRN":8,"gnssid":0,"svid":8,"az":0.0,"prRes":0.0,"qual":1,"ss":0.0,"used":false,"health":2},{"PRN":12,"gnssid":0,"svid":12,"az":0.0,"prRes":0.0,"qual":6,"ss":30.0,"used":false,"health":2},{"PRN":20,"gnssid":0,"svid":20,"az":158.0,"el":8.0,"prRes":-217.6,"qual":7,"ss":32.0,"used":true,"health":1},{"PRN":22,"gnssid":0,"svid":22,"az":120.0,"el":17.0,"prRes":286.7,"qual":7,"ss":32.0,"used":true,"health":1},{"PRN":24,"gnssid":0,"svid":24,"az":225.0,"el":37.0,"prRes":-199.7,"qual":7,"ss":28.0,"used":true,"health":1},{"PRN":25,"gnssid":0,"svid":25,"az":304.0,"el":23.0,"prRes":-138.2,"qual":7,"ss":40.0,"used":true,"health":1},{"PRN":32,"gnssid":0,"svid":32,"az":311.0,"el":3.0,"prRes":0.0,"qual":1,"ss":0.0,"used":false,"health":1},{"PRN":46,"gnssid":1,"svid":133,"az":155.0,"el":33.0,"prRes":0.0,"qual":7,"ss":40.0,"used":false,"health":2},{"PRN":48,"gnssid":1,"svid":135,"az":202.0,"el":34.0,"prRes":0.0,"qual":1,"ss":0.0,"used":false,"health":2},{"PRN":51,"gnssid":1,"svid":138,"az":167.0,"el":36.0,"prRes":0.0,"qual":1,"ss":0.0,"used":false,"health":2},{"PRN":80,"gnssid":6,"svid":16,"az":148.0,"el":8.0,"prRes":-28.2,"qual":7,"ss":31.0,"used":true,"health":1},{"PRN":85,"gnssid":6,"svid":21,"az":223.0,"el":4.0,"prRes":0.0,"qual":5,"ss":25.0,"used":false,"health":1}]}
$GPGSV,3,1,11,06,65,086,24,20,08,158,32,22,17,120,32,24,37,225,28*78
$GPGSV,3,2,11,25,23,304,40,32,03,311,00,46,33,155,40,48,34,202,00*70
$GPGSV,3,3,11,51,36,167,00,80,08,148,31,85,04,223,25*4A
{"class":"SKY","time":"2024-03-24T20:42:22.000Z","gdop":2.57,"hdop":1.36,"pdop":2.23,"tdop":1.12,"xdop":0.83,"ydop":1.11,"vdop":1.76,"nSat":14,"uSat":6,"satellites":[{"PRN":4,"gnssid":0,"svid":4,"az":0.0,"prRes":0.0,"qual":1,"ss":0.0,"used":false},{"PRN":6,"gnssid":0,"svid":6,"az":86.0,"el":65.0,"prRes":8.6,"qual":4,"ss":24.0,"used":true,"health":1},{"PRN":8,"gnssid":0,"svid":8,"az":0.0,"prRes":0.0,"qual":1,"ss":0.0,"used":false},{"PRN":12,"gnssid":0,"svid":12,"az":0.0,"prRes":0.0,"qual":6,"ss":30.0,"used":false},{"PRN":20,"gnssid":0,"svid":20,"az":158.0,"el":8.0,"prRes":15.8,"qual":7,"ss":32.0,"used":true,"health":1},{"PRN":22,"gnssid":0,"svid":22,"az":120.0,"el":17.0,"prRes":12.0,"qual":7,"ss":32.0,"used":true,"health":1},{"PRN":24,"gnssid":0,"svid":24,"az":225.0,"el":37.0,"prRes":22.5,"qual":7,"ss":28.0,"used":true,"health":1},{"PRN":25,"gnssid":0,"svid":25,"az":304.0,"el":23.0,"prRes":30.4,"qual":7,"ss":40.0,"used":true,"health":1},{"PRN":32,"gnssid":0,"svid":32,"az":311.0,"el":3.0,"prRes":31.1,"qual":1,"ss":0.0,"used":false,"health":1},{"PRN":46,"gnssid":1,"svid":133,"az":155.0,"el":33.0,"prRes":15.5,"qual":7,"ss":40.0,"used":false},{"PRN":48,"gnssid":1,"svid":135,"az":202.0,"el":34.0,"prRes":20.2,"qual":1,"ss":0.0,"used":false},{"PRN":51,"gnssid":1,"svid":138,"az":167.0,"el":36.0,"prRes":16.7,"qual":1,"ss":0.0,"used":false},{"PRN":80,"gnssid":6,"svid":16,"az":148.0,"el":8.0,"prRes":14.8,"qual":7,"ss":31.0,"used":true,"health":1},{"PRN":85,"gnssid":6,"svid":21,"az":223.0,"el":4.0,"prRes":22.3,"qual":5,"ss":25.0,"used":false,"health":1}]}
{"class":"SKY","time":"2024-03-24T20:42:22.000Z","gdop":2.46,"hdop":1.36,"pdop":2.23,"tdop":1.05,"xdop":0.83,"ydop":1.11,"vdop":1.76,"uSat":6}
$GNRMC,204222.00,A,4624.27610,N,11701.24480,W,0.023,,240324,,,A*70
$GNVTG,,T,,M,0.023,N,0.043,K,A*3B
$GNGGA,204222.00,4624.27610,N,11701.24480,W,1,06,1.36,287.7,M,-18.2,M,,*70
{"class":"SKY","time":"2024-03-24T20:42:22.000Z","hdop":1.36,"uSat":6}
$GNGSA,A,3,25,06,20,22,24,,,,,,,,2.23,1.36,1.76*1E
$GNGSA,A,3,80,,,,,,,,,,,,2.23,1.36,1.76*13
{"class":"SKY","time":"2024-03-24T20:42:22.000Z","hdop":1.36,"pdop":2.23,"vdop":1.76,"uSat":6}
$GPGSV,2,1,08,06,65,086,24,12,,,30,20,08,158,32,22,17,120,32*4C
$GPGSV,2,2,08,24,37,225,28,25,23,304,40,32,03,311,,46,33,155,40*7F
$GLGSV,1,1,02,80,08,148,31,85,04,223,25*65
{"class":"SKY","gdop":2.47,"hdop":1.36,"pdop":2.23,"tdop":1.06,"xdop":0.82,"ydop":1.10,"vdop":1.76,"nSat":10,"uSat":6,"satellites":[{"PRN":6,"gnssid":0,"svid":6,"az":86.0,"el":65.0,"ss":24.0,"used":true},{"PRN":12,"gnssid":0,"svid":12,"az":0.0,"el":0.0,"ss":30.0,"used":false},{"PRN":20,"gnssid":0,"svid":20,"az":158.0,"el":8.0,"ss":32.0,"used":true},{"PRN":22,"gnssid":0,"svid":22,"az":120.0,"el":17.0,"ss":32.0,"used":true},{"PRN":24,"gnssid":0,"svid":24,"az":225.0,"el":37.0,"ss":28.0,"used":true},{"PRN":25,"gnssid":0,"svid":25,"az":304.0,"el":23.0,"ss":40.0,"used":true},{"PRN":32,"gnssid":0,"svid":32,"az":311.0,"el":3.0,"ss":0.0,"used":false},{"PRN":46,"gnssid":1,"svid":133,"az":155.0,"el":33.0,"ss":40.0,"used":false},{"PRN":80,"gnssid":6,"svid":16,"az":148.0,"el":8.0,"ss":31.0,"used":true},{"PRN":85,"gnssid":6,"svid":21,"az":223.0,"el":4.0,"ss":25.0,"used":false}]}
$GNGLL,4624.27610,N,11701.24480,W,204222.00,A,A*6B
{"class":"TPV","mode":3,"time":"2024-03-24T20:42:22.000Z","leapseconds":18,"ept":0.005,"lat":46.404601667,"lon":-117.020746667,"altHAE":269.5000,"altMSL":287.7000,"alt":287.7000,"epx":12.296,"epy":16.439,"epv":40.480,"magvar":13.9,"speed":0.012,"climb":1.500,"eps":33.06,"epc":80.96,"geoidSep":-18.200,"eph":25.840,"sep":42.370}
$GPZDA,204223.00,24,03,2024,00,00*62
$GPGGA,204223.00,4624.2763416,N,11701.2443713,W,1,06,1.36,285.91,M,-15.351,M,,*55
$GPRMC,204223.00,A,4624.2763416,N,11701.2443713,W,0.0168,207.656,240324,13.9,E*4D
$GPGSA,A,3,6,20,22,24,25,80,,,,,,,2.2,1.4,1.8*03
$GPGBS,204223.00,12.296,16.439,40.480,,,,*7B
{"class":"TPV","mode":3,"time":"2024-03-24T20:42:23.000Z","leapseconds":18,"ept":0.005,"lat":46.404605694,"lon":-117.020739522,"altHAE":270.5568,"altMSL":285.9076,"alt":285.9076,"epx":12.296,"epy":16.439,"epv":40.480,"track":207.6564,"magtrack":221.5081,"magvar":13.9,"speed":0.009,"climb":0.076,"eps":0.68,"epc":80.94,"ecefx":-2001723.48,"ecefy":-3925090.53,"ecefz":4596570.60,"ecefvx":-0.03,"ecefvy":-0.05,"ecefvz":0.05,"ecefpAcc":26.46,"ecefvAcc":0.68,"velN":-0.008,"velE":-0.004,"velD":-0.076,"geoidSep":-15.351,"eph":25.840,"sep":42.370}
{"class":"SKY","gdop":2.47,"hdop":1.36,"pdop":2.23,"tdop":1.06,"xdop":0.82,"ydop":1.10,"vdop":1.76,"uSat":6}
$GPGSV,3,1,11,06,65,086,25,20,08,158,33,22,17,120,32,24,37,225,28*78
$GPGSV,3,2,11,25,23,304,40,32,03,311,00,46,33,155,41,48,34,202,00*71
$GPGSV,3,3,11,51,36,167,00,80,08,148,31,85,04,223,28*47
{"class":"SKY","time":"2024-03-24T20:42:23.000Z","gdop":2.47,"hdop":1.36,"pdop":2.23,"tdop":1.06,"xdop":0.82,"ydop":1.10,"vdop":1.76,"nSat":14,"uSat":6,"satellites":[{"PRN":4,"gnssid":0,"svid":4,"az":0.0,"prRes":0.0,"qual":1,"ss":0.0,"used":false,"health":2},{"PRN":6,"gnssid":0,"svid":6,"az":86.0,"el":65.0,"prRes":317.4,"qual":4,"ss":25.0,"used":true,"health":1},{"PRN":8,"gnssid":0,"svid":8,"az":0.0,"prRes":0.0,"qual":1,"ss":0.0,"used":false,"health":2},{"PRN":12,"gnssid":0,"svid":12,"az":0.0,"prRes":0.0,"qual":6,"ss":30.0,"used":false,"health":2},{"PRN":20,"gnssid":0,"svid":20,"az":158.0,"el":8.0,"prRes":-87.0,"qual":7,"ss":33.0,"used":true,"health":1},{"PRN":22,"gnssid":0,"svid":22,"az":120.0,"el":17.0,"prRes":222.7,"qual":7,"ss":32.0,"used":true,"health":1},{"PRN":24,"gnssid":0,"svid":24,"az":225.0,"el":37.0,"prRes":53.8,"qual":7,"ss":28.0,"used":true,"health":1},{"PRN":25,"gnssid":0,"svid":25,"az":304.0,"el":23.0,"prRes":-115.2,"qual":7,"ss":40.0,"used":true,"health":1},{"PRN":32,"gnssid":0,"svid":32,"az":311.0,"el":3.0,"prRes":0.0,"qual":0,"ss":0.0,"used":false,"health":1},{"PRN":46,"gnssid":1,"svid":133,"az":155.0,"el":33.0,"prRes":0.0,"qual":7,"ss":41.0,"used":false,"health":2},{"PRN":48,"gnssid":1,"svid":135,"az":202.0,"el":34.0,"prRes":0.0,"qual":1,"ss":0.0,"used":false,"health":2},{"PRN":51,"gnssid":1,"svid":138,"az":167.0,"el":36.0,"prRes":0.0,"qual":1,"ss":0.0,"used":false,"health":2},{"PRN":80,"gnssid":6,"svid":16,"az":148.0,"el":8.0,"prRes":-43.5,"qual":7,"ss":31.0,"used":true,"health":1},{"PRN":85,"gnssid":6,"svid":21,"az":223.0,"el":4.0,"prRes":0.0,"qual":6,"ss":28.0,"used":false,"health":1}]}
$GPGSV,3,1,11,06,65,086,25,20,08,158,33,22,17,120,32,24,37,225,28*78
$GPGSV,3,2,11,25,23,304,40,32,03,311,00,46,33,155,41,48,34,202,00*71
$GPGSV,3,3,11,51,36,167,00,80,08,148,31,85,04,223,28*47
{"class":"SKY","time":"2024-03-24T20:42:23.000Z","gdop":2.47,"hdop":1.36,"pdop":2.23,"tdop":1.06,"xdop":0.82,"ydop":1.10,"vdop":1.76,"nSat":14,"uSat":6,"satellites":[{"PRN":4,"gnssid":0,"svid":4,"az":0.0,"prRes":0.0,"qual":1,"ss":0.0,"used":false},{"PRN":6,"gnssid":0,"svid":6,"az":86.0,"el":65.0,"prRes":8.6,"qual":4,"ss":25.0,"used":true,"health":1},{"PRN":8,"gnssid":0,"svid":8,"az":0.0,"prRes":0.0,"qual":1,"ss":0.0,"used":false},{"PRN":12,"gnssid":0,"svid":12,"az":0.0,"prRes":0.0,"qual":6,"ss":30.0,"used":false},{"PRN":20,"gnssid":0,"svid":20,"az":158.0,"el":8.0,"prRes":15.8,"qual":7,"ss":33.0,"used":true,"health":1},{"PRN":22,"gnssid":0,"svid":22,"az":120.0,"el":17.0,"prRes":12.0,"qual":7,"ss":32.0,"used":true,"health":1},{"PRN":24,"gnssid":0,"svid":24,"az":225.0,"el":37.0,"prRes":22.5,"qual":7,"ss":28.0,"used":true,"health":1},{"PRN":25,"gnssid":0,"svid":25,"az":304.0,"el":23.0,"prRes":30.4,"qual":7,"ss":40.0,"used":true,"health":1},{"PRN":32,"gnssid":0,"svid":32,"az":311.0,"el":3.0,"prRes":31.1,"qual":0,"ss":0.0,"used":false,"health":1},{"PRN":46,"gnssid":1,"svid":133,"az":155.0,"el":33.0,"prRes":15.5,"qual":7,"ss":41.0,"used":false},{"PRN":48,"gnssid":1,"svid":135,"az":202.0,"el":34.0,"prRes":20.2,"qual":1,"ss":0.0,"used":false},{"PRN":51,"gnssid":1,"svid":138,"az":167.0,"el":36.0,"prRes":16.7,"qual":1,"ss":0.0,"used":false},{"PRN":80,"gnssid":6,"svid":16,"az":148.0,"el":8.0,"prRes":14.8,"qual":7,"ss":31.0,"used":true,"health":1},{"PRN":85,"gnssid":6,"svid":21,"az":223.0,"el":4.0,"prRes":22.3,"qual":6,"ss":28.0,"used":false,"health":1}]}
{"class":"SKY","time":"2024-03-24T20:42:23.000Z","gdop":2.46,"hdop":1.36,"pdop":2.23,"tdop":1.05,"xdop":0.82,"ydop":1.10,"vdop":1.76,"uSat":6}
$GPZDA,204223.00,24,03,2024,00,00*62
$GPGGA,204223.00,4624.2763420,N,11701.2443700,W,1,06,1.36,288.73,M,-15.351,M,,*53
$GPRMC,204223.00,A,4624.2763420,N,11701.2443700,W,0.0253,30.771,240324,13.9,E*73
$GPGSA,A,3,6,20,22,24,25,,,,,,,,2.2,1.4,1.8*0B
$GPGBS,204223.00,12.296,16.439,21.135,,,,*77
{"class":"TPV","mode":3,"time":"2024-03-24T20:42:23.000Z","leapseconds":18,"ept":0.005,"lat":46.404605700,"lon":-117.020739500,"altHAE":270.5570,"altMSL":288.7290,"alt":288.7290,"epx":12.296,"epy":16.439,"epv":21.135,"track":30.7706,"magtrack":221.5081,"magvar":13.9,"speed":0.013,"climb":0.076,"eps":32.87,"epc":61.60,"ecefx":-2001723.48,"ecefy":-3925090.53,"ecefz":4596570.60,"ecefvx":-0.03,"ecefvy":-0.05,"ecefvz":0.05,"ecefpAcc":26.46,"ecefvAcc":0.68,"velN":-0.008,"velE":-0.004,"velD":-0.076,"geoidSep":-15.351,"eph":15.920,"sep":42.370}
$GNRMC,204223.00,A,4624.27634,N,11701.24437,W,0.026,,240324,,,A*7E
$GNVTG,,T,,M,0.026,N,0.048,K,A*35
$GNGGA,204223.00,4624.27634,N,11701.24437,W,1,06,1.36,288.7,M,-18.2,M,,*74
{"class":"SKY","time":"2024-03-24T20:42:23.000Z","hdop":1.36,"uSat":6}
$GNGSA,A,3,25,06,20,22,24,,,,,,,,2.23,1.36,1.76*1E
$GNGSA,A,3,80,,,,,,,,,,,,2.23,1.36,1.76*13
{"class":"SKY","time":"2024-03-24T20:42:23.000Z","hdop":1.36,"pdop":2.23,"vdop":1.76,"uSat":6}
$GPGSV,2,1,08,06,65,086,25,12,,,30,20,08,158,33,22,17,120,32*4C
$GPGSV,2,2,08,24,37,225,28,25,23,304,40,32,03,311,,46,33,155,41*7E
$GLGSV,1,1,02,80,08,148,31,85,04,223,28*68
{"class":"SKY","gdop":2.47,"hdop":1.36,"pdop":2.23,"tdop":1.06,"xdop":0.82,"ydop":1.10,"vdop":1.76,"nSat":10,"uSat":6,"satellites":[{"PRN":6,"gnssid":0,"svid":6,"az":86.0,"el":65.0,"ss":25.0,"used":true},{"PRN":12,"gnssid":0,"svid":12,"az":0.0,"el":0.0,"ss":30.0,"used":false},{"PRN":20,"gnssid":0,"svid":20,"az":158.0,"el":8.0,"ss":33.0,"used":true},{"PRN":22,"gnssid":0,"svid":22,"az":120.0,"el":17.0,"ss":32.0,"used":true},{"PRN":24,"gnssid":0,"svid":24,"az":225.0,"el":37.0,"ss":28.0,"used":true},{"PRN":25,"gnssid":0,"svid":25,"az":304.0,"el":23.0,"ss":40.0,"used":true},{"PRN":32,"gnssid":0,"svid":32,"az":311.0,"el":3.0,"ss":0.0,"used":false},{"PRN":46,"gnssid":1,"svid":133,"az":155.0,"el":33.0,"ss":41.0,"used":false},{"PRN":80,"gnssid":6,"svid":16,"az":148.0,"el":8.0,"ss":31.0,"used":true},{"PRN":85,"gnssid":6,"svid":21,"az":223.0,"el":4.0,"ss":28.0,"used":false}]}
$GNGLL,4624.27634,N,11701.24437,W,204223.00,A,A*60
{"class":"TPV","mode":3,"time":"2024-03-24T20:42:23.000Z","leapseconds":18,"ept":0.005,"lat":46.404605667,"lon":-117.020739500,"altHAE":270.5000,"altMSL":288.7000,"alt":288.7000,"epx":12.296,"epy":16.439,"epv":40.480,"magvar":13.9,"speed":0.013,"climb":1.000,"eps":32.88,"epc":80.96,"geoidSep":-18.200,"eph":25.840,"sep":42.370}
$GPZDA,204224.00,24,03,2024,00,00*65
$GPGGA,204224.00,4624.2768819,N,11701.2437125,W,1,06,1.36,285.98,M,-15.351,M,,*53
$GPRMC,204224.00,A,4624.2768819,N,11701.2437125,W,0.0444,84.420,240324,13.9,E*73
$GPGSA,A,3,6,20,22,24,25,80,,,,,,,2.2,1.4,1.8*03
$GPGBS,204224.00,12.296,16.439,40.480,,,,*7C
{"class":"TPV","mode":3,"time":"2024-03-24T20:42:24.000Z","leapseconds":18,"ept":0.005,"lat":46.404614698,"lon":-117.020728542,"altHAE":270.6255,"altMSL":285.9763,"alt":285.9763,"epx":12.296,"epy":16.439,"epv":40.480,"track":84.4196,"magtrack":98.2712,"magvar":13.9,"speed":0.023,"climb":0.067,"eps":0.68,"epc":80.94,"ecefx":-2001722.42,"ecefy":-3925090.31,"ecefz":4596571.34,"ecefvx":0.00,"ecefvy":-0.05,"ecefvz":0.05,"ecefpAcc":24.38,"ecefvAcc":0.68,"velN":0.002,"velE":0.023,"velD":-0.067,"geoidSep":-15.351,"eph":25.840,"sep":42.370}
{"class":"SKY","gdop":2.47,"hdop":1.36,"pdop":2.23,"tdop":1.06,"xdop":0.82,"ydop":1.10,"vdop":1.76,"uSat":6}
$GPGSV,3,1,11,06,65,086,25,20,08,158,34,22,17,120,32,24,37,225,29*7E
$GPGSV,3,2,11,25,23,304,40,32,03,311,00,46,33,155,40,48,34,202,00*70
$GPGSV,3,3,11,51,36,167,00,80,08,148,31,85,04,223,29*46
{"class":"SKY","time":"2024-03-24T20:42:24.000Z","gdop":2.47,"hdop":1.36,"pdop":2.23,"tdop":1.06,"xdop":0.82,"ydop":1.10,"vdop":1.76,"nSat":14,"uSat":6,"satellites":[{"PRN":4,"gnssid":0,"svid":4,"az":0.0,"prRes":0.0,"qual":1,"ss":0.0,"used":false,"health":2},{"PRN":6,"gnssid":0,"svid":6,"az":86.0,"el":65.0,"prRes":-151.0,"qual":4,"ss":25.0,"used":true,"health":1},{"PRN":8,"gnssid":0,"svid":8,"az":0.0,"prRes":0.0,"qual":1,"ss":0.0,"used":false,"health":2},{"PRN":12,"gnssid":0,"svid":12,"az":0.0,"prRes":0.0,"qual":6,"ss":31.0,"used":false,"health":2},{"PRN":20,"gnssid":0,"svid":20,"az":158.0,"el":8.0,"prRes":-28.2,"qual":7,"ss":34.0,"used":true,"health":1},{"PRN":22,"gnssid":0,"svid":22,"az":120.0,"el":17.0,"prRes":66.6,"qual":7,"ss":32.0,"used":true,"health":1},{"PRN":24,"gnssid":0,"svid":24,"az":225.0,"el":37.0,"prRes":204.8,"qual":7,"ss":29.0,"used":true,"health":1},{"PRN":25,"gnssid":0,"svid":25,"az":304.0,"el":23.0,"prRes":-56.3,"qual":7,"ss":40.0,"used":true,"health":1},{"PRN":32,"gnssid":0,"svid":32,"az":311.0,"el":3.0,"prRes":0.0,"qual":1,"ss":0.0,"used":false,"health":1},{"PRN":46,"gnssid":1,"svid":133,"az":155.0,"el":33.0,"prRes":0.0,"qual":7,"ss":40.0,"used":false,"health":2},{"PRN":48,"gnssid":1,"svid":135,"az":202.0,"el":34.0,"prRes":0.0,"qual":1,"ss":0.0,"used":false,"health":2},{"PRN":51,"gnssid":1,"svid":138,"az":167.0,"el":36.0,"prRes":0.0,"qual":1,"ss":0.0,"used":false,"health":2},{"PRN":80,"gnssid":6,"svid":16,"az":148.0,"el":8.0,"prRes":-194.6,"qual":7,"ss":31.0,"used":true,"health":1},{"PRN":85,"gnssid":6,"svid":21,"az":223.0,"el":4.0,"prRes":0.0,"qual":6,"ss":29.0,"used":false,"health":1}]}
$GPGSV,3,1,11,06,65,086,25,20,08,158,34,22,17,120,32,24,37,225,29*7E
$GPGSV,3,2,11,25,23,304,40,32,03,311,00,46,33,155,40,48,34,202,00*70
$GPGSV,3,3,11,51,36,167,00,80,08,148,31,85,04,223,29*46
{"class":"SKY","time":"2024-03-24T20:42:24.000Z","gdop":2.47,"hdop":1.36,"pdop":2.23,"tdop":1.06,"xdop":0.82,"ydop":1.10,"vdop":1.76,"nSat":14,"uSat":6,"satellites":[{"PRN":4,"gnssid":0,"svid":4,"az":0.0,"prRes":0.0,"qual":1,"ss":0.0,"used":false},{"PRN":6,"gnssid":0,"svid":6,"az":86.0,"el":65.0,"prRes":8.6,"qual":4,"ss":25.0,"used":true,"health":1},{"PRN":8,"gnssid":0,"svid":8,"az":0.0,"prRes":0.0,"qual":1,"ss":0.0,"used":false},{"PRN":12,"gnssid":0,"svid":12,"az":0.0,"prRes":0.0,"qual":6,"ss":31.0,"used":false},{"PRN":20,"gnssid":0,"svid":20,"az":158.0,"el":8.0,"prRes":15.8,"qual":7,"ss":34.0,"used":true,"health":1},{"PRN":22,"gnssid":0,"svid":22,"az":120.0,"el":17.0,"prRes":12.0,"qual":7,"ss":32.0,"used":true,"health":1},{"PRN":24,"gnssid":0,"svid":24,"az":225.0,"el":37.0,"prRes":22.5,"qual":7,"ss":29.0,"used":true,"health":1},{"PRN":25,"gnssid":0,"svid":25,"az":304.0,"el":23.0,"prRes":30.4,"qual":7,"ss":40.0,"used":true,"health":1},{"PRN":32,"gnssid":0,"svid":32,"az":311.0,"el":3.0,"prRes":31.1,"qual":1,"ss":0.0,"used":false,"health":1},{"PRN":46,"gnssid":1,"svid":133,"az":155.0,"el":33.0,"prRes":15.5,"qual":7,"ss":40.0,"used":false},{"PRN":48,"gnssid":1,"svid":135,"az":202.0,"el":34.0,"prRes":20.2,"qual":1,"ss":0.0,"used":false},{"PRN":51,"gnssid":1,"svid":138,"az":167.0,"el":36.0,"prRes":16.7,"qual":1,"ss":0.0,"used":false},{"PRN":80,"gnssid":6,"svid":16,"az":148.0,"el":8.0,"prRes":14.8,"qual":7,"ss":31.0,"used":true,"health":1},{"PRN":85,"gnssid":6,"svid":21,"az":223.0,"el":4.0,"prRes":22.3,"qual":6,"ss":29.0,"used":false,"health":1}]}
{"class":"SKY","time":"2024-03-24T20:42:24.000Z","gdop":2.46,"hdop":1.36,"pdop":2.23,"tdop":1.05,"xdop":0.82,"ydop":1.10,"vdop":1.76,"uSat":6}
$GPZDA,204224.00,24,03,2024,00,00*65
$GPGGA,204224.00,4624.2768760,N,11701.2437100,W,1,06,1.36,288.80,M,-15.351,M,,*51
$GPRMC,204224.00,A,4624.2768760,N,11701.2437100,W,0.0525,30.771,240324,13.9,E*7B
$GPGSA,A,3,6,20,22,24,25,,,,,,,,2.2,1.4,1.8*0B
$GPGBS,204224.00,12.296,16.439,19.705,,,,*7E
{"class":"TPV","mode":3,"time":"2024-03-24T20:42:24.000Z","leapseconds":18,"ept":0.005,"lat":46.404614600,"lon":-117.020728500,"altHAE":270.6250,"altMSL":288.7970,"alt":288.7970,"epx":12.296,"epy":16.439,"epv":19.705,"track":30.7706,"magtrack":98.2712,"magvar":13.9,"speed":0.027,"climb":0.067,"eps":32.87,"epc":60.17,"ecefx":-2001722.42,"ecefy":-3925090.31,"ecefz":4596571.34,"ecefvx":0.00,"ecefvy":-0.05,"ecefvz":0.05,"ecefpAcc":24.38,"ecefvAcc":0.68,"velN":0.002,"velE":0.023,"velD":-0.067,"geoidSep":-15.351,"eph":14.360,"sep":42.370}
$GNRMC,204224.00,A,4624.27688,N,11701.24371,W,0.052,,240324,,,A*78
$GNVTG,,T,,M,0.052,N,0.097,K,A*34
$GNGGA,204224.00,4624.27688,N,11701.24371,W,1,06,1.36,288.8,M,-18.2,M,,*7E
{"class":"SKY","time":"2024-03-24T20:42:24.000Z","hdop":1.36,"uSat":6}
$GNGSA,A,3,25,06,20,22,24,,,,,,,,2.23,1.36,1.76*1E
$GNGSA,A,3,80,,,,,,,,,,,,2.23,1.36,1.76*13
{"class":"SKY","time":"2024-03-24T20:42:24.000Z","hdop":1.36,"pdop":2.23,"vdop":1.76,"uSat":6}
$GPGSV,2,1,08,06,65,086,25,12,,,31,20,08,158,34,22,17,120,32*4A
$GPGSV,2,2,08,24,37,225,29,25,23,304,40,32,03,311,,46,33,155,40*7E
$GLGSV,1,1,02,80,08,148,31,85,04,223,29*69
{"class":"SKY","gdop":2.47,"hdop":1.36,"pdop":2.23,"tdop":1.06,"xdop":0.82,"ydop":1.10,"vdop":1.76,"nSat":10,"uSat":6,"satellites":[{"PRN":6,"gnssid":0,"svid":6,"az":86.0,"el":65.0,"ss":25.0,"used":true},{"PRN":12,"gnssid":0,"svid":12,"az":0.0,"el":0.0,"ss":31.0,"used":false},{"PRN":20,"gnssid":0,"svid":20,"az":158.0,"el":8.0,"ss":34.0,"used":true},{"PRN":22,"gnssid":0,"svid":22,"az":120.0,"el":17.0,"ss":32.0,"used":true},{"PRN":24,"gnssid":0,"svid":24,"az":225.0,"el":37.0,"ss":29.0,"used":true},{"PRN":25,"gnssid":0,"svid":25,"az":304.0,"el":23.0,"ss":40.0,"used":true},{"PRN":32,"gnssid":0,"svid":32,"az":311.0,"el":3.0,"ss":0.0,"used":false},{"PRN":46,"gnssid":1,"svid":133,"az":155.0,"el":33.0,"ss":40.0,"used":false},{"PRN":80,"gnssid":6,"svid":16,"az":148.0,"el":8.0,"ss":31.0,"used":true},{"PRN":85,"gnssid":6,"svid":21,"az":223.0,"el":4.0,"ss":29.0,"used":false}]}
$GNGLL,4624.27688,N,11701.24371,W,204224.00,A,A*65
{"class":"TPV","mode":3,"time":"2024-03-24T20:42:24.000Z","leapseconds":18,"ept":0.005,"lat":46.404614667,"lon":-117.020728500,"altHAE":270.6000,"altMSL":288.8000,"alt":288.8000,"epx":12.296,"epy":16.439,"epv":40.480,"magvar":13.9,"speed":0.027,"climb":0.100,"eps":32.88,"epc":80.96,"geoidSep":-18.200,"eph":25.840,"sep":42.370}
$GPZDA,204225.00,24,03,2024,00,00*64
$GPGGA,204225.00,4624.2766554,N,11701.2438685,W,1,06,1.36,287.43,M,-15.351,M,,*5E
$GPRMC,204225.00,A,4624.2766554,N,11701.2438685,W,0.0269,94.435,240324,13.9,E*76
$GPGSA,A,3,6,20,22,24,25,80,,,,,,,2.2,1.4,1.8*03
$GPGBS,204225.00,12.296,16.439,40.480,,,,*7D
{"class":"TPV","mode":3,"time":"2024-03-24T20:42:25.000Z","leapseconds":18,"ept":0.005,"lat":46.404610923,"lon":-117.020731141,"altHAE":272.0744,"altMSL":287.4252,"alt":287.4252,"epx":12.296,"epy":16.439,"epv":40.480,"track":94.4347,"magtrack":108.2863,"magvar":13.9,"speed":0.014,"climb":0.070,"eps":0.67,"epc":80.94,"ecefx":-2001723.19,"ecefy":-3925091.38,"ecefz":4596572.10,"ecefvx":-0.01,"ecefvy":-0.05,"ecefvz":0.05,"ecefpAcc":22.81,"ecefvAcc":0.67,"velN":-0.001,"velE":0.014,"velD":-0.070,"geoidSep":-15.351,"eph":25.840,"sep":42.370}
{"class":"SKY","gdop":2.47,"hdop":1.36,"pdop":2.23,"tdop":1.06,"xdop":0.82,"ydop":1.10,"vdop":1.76,"uSat":6}
$GPGSV,3,1,11,06,65,086,25,20,08,158,33,22,17,120,32,24,37,225,29*79
$GPGSV,3,2,11,25,23,304,39,32,03,311,00,46,33,155,40,48,34,202,00*7E
$GPGSV,3,3,11,51,36,167,00,80,08,148,30,85,04,223,29*47
{"class":"SKY","time":"2024-03-24T20:42:25.000Z","gdop":2.47,"hdop":1.36,"pdop":2.23,"tdop":1.06,"xdop":0.82,"ydop":1.10,"vdop":1.76,"nSat":14,"uSat":6,"satellites":[{"PRN":4,"gnssid":0,"svid":4,"az":0.0,"prRes":0.0,"qual":1,"ss":0.0,"used":false,"health":2},{"PRN":6,"gnssid":0,"svid":6,"az":86.0,"el":65.0,"prRes":12.8,"qual":4,"ss":25.0,"used":true,"health":1},{"PRN":8,"gnssid":0,"svid":8,"az":0.0,"prRes":0.0,"qual":1,"ss":0.0,"used":false,"health":2},{"PRN":12,"gnssid":0,"svid":12,"az":0.0,"prRes":0.0,"qual":7,"ss":30.0,"used":false,"health":2},{"PRN":20,"gnssid":0,"svid":20,"az":158.0,"el":8.0,"prRes":-51.2,"qual":7,"ss":33.0,"used":true,"health":1},{"PRN":22,"gnssid":0,"svid":22,"az":120.0,"el":17.0,"prRes":33.3,"qual":7,"ss":32.0,"used":true,"health":1},{"PRN":24,"gnssid":0,"svid":24,"az":225.0,"el":37.0,"prRes":-125.4,"qual":7,"ss":29.0,"used":true,"health":1},{"PRN":25,"gnssid":0,"svid":25,"az":304.0,"el":23.0,"prRes":-10.2,"qual":7,"ss":39.0,"used":true,"health":1},{"PRN":32,"gnssid":0,"svid":32,"az":311.0,"el":3.0,"prRes":0.0,"qual":0,"ss":0.0,"used":false,"health":1},{"PRN":46,"gnssid":1,"svid":133,"az":155.0,"el":33.0,"prRes":0.0,"qual":7,"ss":40.0,"used":false,"health":2},{"PRN":48,"gnssid":1,"svid":135,"az":202.0,"el":34.0,"prRes":0.0,"qual":1,"ss":0.0,"used":false,"health":2},{"PRN":51,"gnssid":1,"svid":138,"az":167.0,"el":36.0,"prRes":0.0,"qual":1,"ss":0.0,"used":false,"health":2},{"PRN":80,"gnssid":6,"svid":16,"az":148.0,"el":8.0,"prRes":-266.2,"qual":7,"ss":30.0,"used":true,"health":1},{"PRN":85,"gnssid":6,"svid":21,"az":223.0,"el":4.0,"prRes":0.0,"qual":6,"ss":29.0,"used":false,"health":1}]}
$GPGSV,3,1,11,06,65,086,25,20,08,158,33,22,17,120,32,24,37,225,29*79
$GPGSV,3,2,11,25,23,304,39,32,03,311,00,46,33,155,40,48,34,202,00*7E
$GPGSV,3,3,11,51,36,167,00,80,08,148,30,85,04,223,29*47
{"class":"SKY","time":"2024-03-24T20:42:25.000Z","gdop":2.47,"hdop":1.36,"pdop":2.23,"tdop":1.06,"xdop":0.82,"ydop":1.10,"vdop":1.76,"nSat":14,"uSat":6,"satellites":[{"PRN":4,"gnssid":0,"svid":4,"az":0.0,"prRes":0.0,"qual":1,"ss":0.0,"used":false},{"PRN":6,"gnssid":0,"svid":6,"az":86.0,"el":65.0,"prRes":8.6,"qual":4,"ss":25.0,"used":true,"health":1},{"PRN":8,"gnssid":0,"svid":8,"az":0.0,"prRes":0.0,"qual":1,"ss":0.0,"used":false},{"PRN":12,"gnssid":0,"svid":12,"az":0.0,"prRes":0.0,"qual":7,"ss":30.0,"used":false},{"PRN":20,"gnssid":0,"svid":20,"az":158.0,"el":8.0,"prRes":15.8,"qual":7,"ss":33.0,"used":true,"health":1},{"PRN":22,"gnssid":0,"svid":22,"az":120.0,"el":17.0,"prRes":12.0,"qual":7,"ss":32.0,"used":true,"health":1},{"PRN":24,"gnssid":0,"svid":24,"az":225.0,"el":37.0,"prRes":22.5,"qual":7,"ss":29.0,"used":true,"health":1},{"PRN":25,"gnssid":0,"svid":25,"az":304.0,"el":23.0,"prRes":30.4,"qual":7,"ss":39.0,"used":true,"health":1},{"PRN":32,"gnssid":0,"svid":32,"az":311.0,"el":3.0,"prRes":31.1,"qual":0,"ss":0.0,"used":false,"health":1},{"PRN":46,"gnssid":1,"svid":133,"az":155.0,"el":33.0,"prRes":15.5,"qual":7,"ss":40.0,"used":false},{"PRN":48,"gnssid":1,"svid":135,"az":202.0,"el":34.0,"prRes":20.2,"qual":1,"ss":0.0,"used":false},{"PRN":51,"gnssid":1,"svid":138,"az":167.0,"el":36.0,"prRes":16.7,"qual":1,"ss":0.0,"used":false},{"PRN":80,"gnssid":6,"svid":16,"az":148.0,"el":8.0,"prRes":14.8,"qual":7,"ss":30.0,"used":true,"health":1},{"PRN":85,"gnssid":6,"svid":21,"az":223.0,"el":4.0,"prRes":22.3,"qual":6,"ss":29.0,"used":false,"health":1}]}
{"class":"SKY","time":"2024-03-24T20:42:25.000Z","gdop":2.46,"hdop":1.36,"pdop":2.23,"tdop":1.05,"xdop":0.82,"ydop":1.10,"vdop":1.76,"uSat":6}
$GPZDA,204225.00,24,03,2024,00,00*64
$GPGGA,204225.00,4624.2766540,N,11701.2438720,W,1,06,1.36,290.25,M,-15.351,M,,*53
$GPRMC,204225.00,A,4624.2766540,N,11701.2438720,W,0.0292,30.771,240324,13.9,E*74
$GPGSA,A,3,6,20,22,24,25,,,,,,,,2.2,1.4,1.8*0B
$GPGBS,204225.00,12.296,16.439,18.590,,,,*70
{"class":"TPV","mode":3,"time":"2024-03-24T20:42:25.000Z","leapseconds":18,"ept":0.005,"lat":46.404610900,"lon":-117.020731200,"altHAE":272.0810,"altMSL":290.2530,"alt":290.2530,"epx":12.296,"epy":16.439,"epv":18.590,"track":30.7706,"magtrack":108.2863,"magvar":13.9,"speed":0.015,"climb":0.070,"eps":32.87,"epc":59.05,"ecefx":-2001723.19,"ecefy":-3925091.38,"ecefz":4596572.10,"ecefvx":-0.01,"ecefvy":-0.05,"ecefvz":0.05,"ecefpAcc":22.81,"ecefvAcc":0.67,"velN":-0.001,"velE":0.014,"velD":-0.070,"geoidSep":-15.351,"eph":13.223,"sep":42.370}
$GNRMC,204225.00,A,4624.27666,N,11701.24387,W,0.029,,240324,,,A*7C
$GNVTG,,T,,M,0.029,N,0.054,K,A*37
$GNGSA,A,3,25,06,20,22,24,,,,,,,,2.23,1.36,1.76*1E
$GNGSA,A,3,80,,,,,,,,,,,,2.23,1.36,1.76*13
{"class":"SKY","time":"2024-03-24T20:42:25.000Z","hdop":1.36,"pdop":2.23,"vdop":1.76,"uSat":6}
$GPGSV,2,1,08,06,65,086,25,12,,,30,20,08,158,33,22,17,120,32*4C
$GPGSV,2,2,08,24,37,225,29,25,23,304,39,32,03,311,,46,33,155,40*70
$GLGSV,1,1,02,80,08,148,30,85,04,223,29*68
{"class":"SKY","gdop":2.47,"hdop":1.36,"pdop":2.23,"tdop":1.06,"xdop":0.82,"ydop":1.10,"vdop":1.76,"nSat":10,"uSat":6,"satellites":[{"PRN":6,"gnssid":0,"svid":6,"az":86.0,"el":65.0,"ss":25.0,"used":true},{"PRN":12,"gnssid":0,"svid":12,"az":0.0,"el":0.0,"ss":30.0,"used":false},{"PRN":20,"gnssid":0,"svid":20,"az":158.0,"el":8.0,"ss":33.0,"used":true},{"PRN":22,"gnssid":0,"svid":22,"az":120.0,"el":17.0,"ss":32.0,"used":true},{"PRN":24,"gnssid":0,"svid":24,"az":225.0,"el":37.0,"ss":29.0,"used":true},{"PRN":25,"gnssid":0,"svid":25,"az":304.0,"el":23.0,"ss":39.0,"used":true},{"PRN":32,"gnssid":0,"svid":32,"az":311.0,"el":3.0,"ss":0.0,"used":false},{"PRN":46,"gnssid":1,"svid":133,"az":155.0,"el":33.0,"ss":40.0,"used":false},{"PRN":80,"gnssid":6,"svid":16,"az":148.0,"el":8.0,"ss":30.0,"used":true},{"PRN":85,"gnssid":6,"svid":21,"az":223.0,"el":4.0,"ss":29.0,"used":false}]}
$GPZDA,204226.00,24,03,2024,00,00*67
$GPGGA,204226.00,4624.2764429,N,11701.2441310,W,1,06,1.36,288.45,M,-15.351,M,,*5A
$GPRMC,204226.00,A,4624.2764429,N,11701.2441310,W,0.0290,17.700,240324,13.9,E*73
$GPGSA,A,3,6,20,22,24,25,80,,,,,,,2.2,1.4,1.8*03
$GPGBS,204226.00,12.296,16.439,40.480,,,,*7E
{"class":"TPV","mode":3,"time":"2024-03-24T20:42:26.000Z","leapseconds":18,"ept":0.005,"lat":46.404607382,"lon":-117.020735517,"altHAE":273.0982,"altMSL":288.4490,"alt":288.4490,"epx":12.296,"epy":16.439,"epv":40.480,"track":17.7005,"magtrack":31.5521,"magvar":13.9,"speed":0.015,"climb":0.028,"eps":0.63,"epc":80.94,"ecefx":-2001723.94,"ecefy":-3925092.11,"ecefz":4596572.57,"ecefvx":0.00,"ecefvy":-0.01,"ecefvz":0.03,"ecefpAcc":21.68,"ecefvAcc":0.63,"velN":0.014,"velE":0.005,"velD":-0.028,"geoidSep":-15.351,"eph":25.840,"sep":42.370}
{"class":"SKY","gdop":2.47,"hdop":1.36,"pdop":2.23,"tdop":1.06,"xdop":0.82,"ydop":1.10,"vdop":1.76,"uSat":6}
$GPGSV,3,1,11,06,65,085,25,20,08,158,34,22,17,120,31,24,37,225,28*7F
$GPGSV,3,2,11,25,23,304,40,32,03,311,00,46,33,155,40,48,34,202,00*70
$GPGSV,3,3,11,51,36,167,00,80,08,148,30,85,04,223,29*47
{"class":"SKY","time":"2024-03-24T20:42:26.000Z","gdop":2.47,"hdop":1.36,"pdop":2.23,"tdop":1.06,"xdop":0.82,"ydop":1.10,"vdop":1.76,"nSat":13,"uSat":6,"satellites":[{"PRN":6,"gnssid":0,"svid":6,"az":85.0,"el":65.0,"prRes":-281.6,"qual":4,"ss":25.0,"used":true,"health":1},{"PRN":8,"gnssid":0,"svid":8,"az":0.0,"prRes":0.0,"qual":1,"ss":0.0,"used":false,"health":2},{"PRN":12,"gnssid":0,"svid":12,"az":0.0,"prRes":0.0,"qual":7,"ss":30.0,"used":false,"health":2},{"PRN":20,"gnssid":0,"svid":20,"az":158.0,"el":8.0,"prRes":-79.4,"qual":7,"ss":34.0,"used":true,"health":1},{"PRN":22,"gnssid":0,"svid":22,"az":120.0,"el":17.0,"prRes":102.4,"qual":7,"ss":31.0,"used":true,"health":1},{"PRN":24,"gnssid":0,"svid":24,"az":225.0,"el":37.0,"prRes":-76.8,"qual":7,"ss":28.0,"used":true,"health":1},{"PRN":25,"gnssid":0,"svid":25,"az":304.0,"el":23.0,"prRes":66.6,"qual":7,"ss":40.0,"used":true,"health":1},{"PRN":32,"gnssid":0,"svid":32,"az":311.0,"el":3.0,"prRes":0.0,"qual":1,"ss":0.0,"used":false,"health":1},{"PRN":46,"gnssid":1,"svid":133,"az":155.0,"el":33.0,"prRes":0.0,"qual":7,"ss":40.0,"used":false,"health":2},{"PRN":48,"gnssid":1,"svid":135,"az":202.0,"el":34.0,"prRes":0.0,"qual":1,"ss":0.0,"used":false,"health":2},{"PRN":51,"gnssid":1,"svid":138,"az":167.0,"el":36.0,"prRes":0.0,"qual":1,"ss":0.0,"used":false,"health":2},{"PRN":80,"gnssid":6,"svid":16,"az":148.0,"el":8.0,"prRes":17.9,"qual":7,"ss":30.0,"used":true,"health":1},{"PRN":85,"gnssid":6,"svid":21,"az":223.0,"el":4.0,"prRes":0.0,"qual":6,"ss":29.0,"used":false,"health":1}]}
$GPGSV,3,1,11,06,65,085,25,20,08,158,34,22,17,120,31,24,37,225,28*7F
$GPGSV,3,2,11,25,23,304,40,32,03,311,00,46,33,155,40,48,34,202,00*70
$GPGSV,3,3,11,51,36,167,00,80,08,148,30,85,04,223,29*47
{"class":"SKY","time":"2024-03-24T20:42:26.000Z","gdop":2.47,"hdop":1.36,"pdop":2.23,"tdop":1.06,"xdop":0.82,"ydop":1.10,"vdop":1.76,"nSat":13,"uSat":6,"satellites":[{"PRN":6,"gnssid":0,"svid":6,"az":85.0,"el":65.0,"prRes":8.5,"qual":4,"ss":25.0,"used":true,"health":1},{"PRN":8,"gnssid":0,"svid":8,"az":0.0,"prRes":0.0,"qual":1,"ss":0.0,"used":false},{"PRN":12,"gnssid":0,"svid":12,"az":0.0,"prRes":0.0,"qual":7,"ss":30.0,"used":false},{"PRN":20,"gnssid":0,"svid":20,"az":158.0,"el":8.0,"prRes":15.8,"qual":7,"ss":34.0,"used":true,"health":1},{"PRN":22,"gnssid":0,"svid":22,"az":120.0,"el":17.0,"prRes":12.0,"qual":7,"ss":31.0,"used":true,"health":1},{"PRN":24,"gnssid":0,"svid":24,"az":225.0,"el":37.0,"prRes":22.5,"qual":7,"ss":28.0,"used":true,"health":1},{"PRN":25,"gnssid":0,"svid":25,"az":304.0,"el":23.0,"prRes":30.4,"qual":7,"ss":40.0,"used":true,"health":1},{"PRN":32,"gnssid":0,"svid":32,"az":311.0,"el":3.0,"prRes":31.1,"qual":1,"ss":0.0,"used":false,"health":1},{"PRN":46,"gnssid":1,"svid":133,"az":155.0,"el":33.0,"prRes":15.5,"qual":7,"ss":40.0,"used":false},{"PRN":48,"gnssid":1,"svid":135,"az":202.0,"el":34.0,"prRes":20.2,"qual":1,"ss":0.0,"used":false},{"PRN":51,"gnssid":1,"svid":138,"az":167.0,"el":36.0,"prRes":16.7,"qual":1,"ss":0.0,"used":false},{"PRN":80,"gnssid":6,"svid":16,"az":148.0,"el":8.0,"prRes":14.8,"qual":7,"ss":30.0,"used":true,"health":1},{"PRN":85,"gnssid":6,"svid":21,"az":223.0,"el":4.0,"prRes":22.3,"qual":6,"ss":29.0,"used":false,"health":1}]}
{"class":"SKY","time":"2024-03-24T20:42:26.000Z","gdop":2.46,"hdop":1.36,"pdop":2.23,"tdop":1.05,"xdop":0.82,"ydop":1.10,"vdop":1.76,"uSat":6}
$GPZDA,204226.00,24,03,2024,00,00*67
$GPGGA,204226.00,4624.2764440,N,11701.2441360,W,1,06,1.36,291.27,M,-15.351,M,,*5E
$GPRMC,204226.00,A,4624.2764440,N,11701.2441360,W,0.0350,30.771,240324,13.9,E*75
$GPGSA,A,3,6,20,22,24,25,80,,,,,,,2.2,1.4,1.8*03
$GPGBS,204226.00,12.296,16.439,17.756,,,,*74
{"class":"TPV","mode":3,"time":"2024-03-24T20:42:26.000Z","leapseconds":18,"ept":0.005,"lat":46.404607400,"lon":-117.020735600,"altHAE":273.1010,"altMSL":291.2730,"alt":291.2730,"epx":12.296,"epy":16.439,"epv":17.756,"track":30.7706,"magtrack":31.5521,"magvar":13.9,"speed":0.018,"climb":0.028,"eps":32.87,"epc":58.22,"ecefx":-2001723.94,"ecefy":-3925092.11,"ecefz":4596572.57,"ecefvx":0.00,"ecefvy":-0.01,"ecefvz":0.03,"ecefpAcc":21.68,"ecefvAcc":0.63,"velN":0.014,"velE":0.005,"velD":-0.028,"geoidSep":-15.351,"eph":12.440,"sep":42.370}
$GNRMC,204226.00,A,4624.27644,N,11701.24413,W,0.035,,240324,,,A*78
{"class":"TPV","mode":3,"time":"2024-03-24T20:42:26.000Z","leapseconds":18,"ept":0.005,"lat":46.404607333,"lon":-117.020735500,"magvar":13.9,"speed":0.018,"geoidSep":-15.351}
$GNVTG,,T,,M,0.035,N,0.065,K,A*38
$GPZDA,204227.00,24,03,2024,00,00*66
$GPGGA,204227.00,4624.2763325,N,11701.2442918,W,1,06,,288.99,M,-15.351,M,,*4D
$GPRMC,204227.00,A,4624.2763325,N,11701.2442918,W,0.0233,49.416,240324,13.9,E*79
$GPGSA,A,3,6,20,22,24,25,80,,,,,,,2.2,,*0F
{"class":"TPV","mode":3,"time":"2024-03-24T20:42:27.000Z","leapseconds":18,"ept":0.005,"lat":46.404605542,"lon":-117.020738196,"altHAE":273.6381,"altMSL":288.9889,"alt":288.9889,"track":49.4163,"magtrack":63.2679,"magvar":13.9,"speed":0.012,"climb":0.034,"eps":0.52,"ecefx":-2001724.36,"ecefy":-3925092.48,"ecefz":4596572.82,"ecefvx":0.00,"ecefvy":-0.02,"ecefvz":0.03,"ecefpAcc":20.70,"ecefvAcc":0.52,"velN":0.008,"velE":0.009,"velD":-0.034,"geoidSep":-15.351,"sep":42.370}
{"class":"SKY","time":"2024-03-24T20:42:26.000Z","pdop":2.23,"uSat":6}
$GPGSV,3,1,11,06,65,085,25,20,08,158,33,22,17,120,31,24,37,225,28*78
$GPGSV,3,2,11,25,23,304,39,32,03,311,00,46,33,155,40,48,34,202,00*7E
$GPGSV,3,3,11,51,36,167,00,80,08,148,29,85,04,223,29*4F
{"class":"SKY","time":"2024-03-24T20:42:27.000Z","gdop":2.48,"hdop":1.37,"pdop":2.23,"tdop":1.06,"xdop":0.82,"ydop":1.09,"vdop":1.77,"nSat":13,"uSat":6,"satellites":[{"PRN":6,"gnssid":0,"svid":6,"az":85.0,"el":65.0,"prRes":-33.3,"qual":5,"ss":25.0,"used":true,"health":1},{"PRN":8,"gnssid":0,"svid":8,"az":0.0,"prRes":0.0,"qual":1,"ss":0.0,"used":false,"health":2},{"PRN":12,"gnssid":0,"svid":12,"az":0.0,"prRes":0.0,"qual":7,"ss":31.0,"used":false,"health":2},{"PRN":20,"gnssid":0,"svid":20,"az":158.0,"el":8.0,"prRes":-66.6,"qual":7,"ss":33.0,"used":true,"health":1},{"PRN":22,"gnssid":0,"svid":22,"az":120.0,"el":17.0,"prRes":130.6,"qual":7,"ss":31.0,"used":true,"health":1},{"PRN":24,"gnssid":0,"svid":24,"az":225.0,"el":37.0,"prRes":-41.0,"qual":7,"ss":28.0,"used":true,"health":1},{"PRN":25,"gnssid":0,"svid":25,"az":304.0,"el":23.0,"prRes":105.0,"qual":7,"ss":39.0,"used":true,"health":1},{"PRN":32,"gnssid":0,"svid":32,"az":311.0,"el":3.0,"prRes":0.0,"qual":1,"ss":0.0,"used":false,"health":1},{"PRN":46,"gnssid":1,"svid":133,"az":155.0,"el":33.0,"prRes":0.0,"qual":7,"ss":40.0,"used":false,"health":2},{"PRN":48,"gnssid":1,"svid":135,"az":202.0,"el":34.0,"prRes":0.0,"qual":1,"ss":0.0,"used":false,"health":2},{"PRN":51,"gnssid":1,"svid":138,"az":167.0,"el":36.0,"prRes":0.0,"qual":1,"ss":0.0,"used":false,"health":2},{"PRN":80,"gnssid":6,"svid":16,"az":148.0,"el":8.0,"prRes":138.2,"qual":7,"ss":29.0,"used":true,"health":1},{"PRN":85,"gnssid":6,"svid":21,"az":223.0,"el":4.0,"prRes":0.0,"qual":6,"ss":29.0,"used":false,"health":1}]}
$GPGSV,3,1,11,06,65,085,25,20,08,158,33,22,17,120,31,24,37,225,28*78
$GPGSV,3,2,11,25,23,304,39,32,03,311,00,46,33,155,40,48,34,202,00*7E
$GPGSV,3,3,11,51,36,167,00,80,08,148,29,85,04,223,29*4F
{"class":"SKY","time":"2024-03-24T20:42:27.000Z","gdop":2.48,"hdop":1.37,"pdop":2.23,"tdop":1.06,"xdop":0.82,"ydop":1.09,"vdop":1.77,"nSat":13,"uSat":6,"satellites":[{"PRN":6,"gnssid":0,"svid":6,"az":85.0,"el":65.0,"prRes":8.5,"qual":5,"ss":25.0,"used":true,"health":1},{"PRN":8,"gnssid":0,"svid":8,"az":0.0,"prRes":0.0,"qual":1,"ss":0.0,"used":false},{"PRN":12,"gnssid":0,"svid":12,"az":0.0,"prRes":0.0,"qual":7,"ss":31.0,"used":false},{"PRN":20,"gnssid":0,"svid":20,"az":158.0,"el":8.0,"prRes":15.8,"qual":7,"ss":33.0,"used":true,"health":1},{"PRN":22,"gnssid":0,"svid":22,"az":120.0,"el":17.0,"prRes":12.0,"qual":7,"ss":31.0,"used":true,"health":1},{"PRN":24,"gnssid":0,"svid":24,"az":225.0,"el":37.0,"prRes":22.5,"qual":7,"ss":28.0,"used":true,"health":1},{"PRN":25,"gnssid":0,"svid":25,"az":304.0,"el":23.0,"prRes":30.4,"qual":7,"ss":39.0,"used":true,"health":1},{"PRN":32,"gnssid":0,"svid":32,"az":311.0,"el":3.0,"prRes":31.1,"qual":1,"ss":0.0,"used":false,"health":1},{"PRN":46,"gnssid":1,"svid":133,"az":155.0,"el":33.0,"prRes":15.5,"qual":7,"ss":40.0,"used":false},{"PRN":48,"gnssid":1,"svid":135,"az":202.0,"el":34.0,"prRes":20.2,"qual":1,"ss":0.0,"used":false},{"PRN":51,"gnssid":1,"svid":138,"az":167.0,"el":36.0,"prRes":16.7,"qual":1,"ss":0.0,"used":false},{"PRN":80,"gnssid":6,"svid":16,"az":148.0,"el":8.0,"prRes":14.8,"qual":7,"ss":29.0,"used":true,"health":1},{"PRN":85,"gnssid":6,"svid":21,"az":223.0,"el":4.0,"prRes":22.3,"qual":6,"ss":29.0,"used":false,"health":1}]}
{"class":"SKY","time":"2024-03-24T20:42:27.000Z","gdop":2.46,"hdop":1.36,"pdop":2.23,"tdop":1.05,"xdop":0.82,"ydop":1.09,"vdop":1.76,"uSat":6}
$GPZDA,204227.00,24,03,2024,00,00*66
$GPGGA,204227.00,4624.2763300,N,11701.2442920,W,1,06,1.36,291.81,M,-15.351,M,,*5A
$GPRMC,204227.00,A,4624.2763300,N,11701.2442920,W,0.0253,30.771,240324,13.9,E*7F
$GPGSA,A,3,6,20,22,24,25,80,,,,,,,2.2,1.4,1.8*03
$GPGBS,204227.00,12.279,16.422,17.007,,,,*7D
{"class":"TPV","mode":3,"time":"2024-03-24T20:42:27.000Z","leapseconds":18,"ept":0.005,"lat":46.404605500,"lon":-117.020738200,"altHAE":273.6360,"altMSL":291.8080,"alt":291.8080,"epx":12.279,"epy":16.422,"epv":17.007,"track":30.7706,"magtrack":63.2679,"magvar":13.9,"speed":0.013,"climb":0.034,"eps":0.52,"ecefx":-2001724.36,"ecefy":-3925092.48,"ecefz":4596572.82,"ecefvx":0.00,"ecefvy":-0.02,"ecefvz":0.03,"ecefpAcc":20.70,"ecefvAcc":0.52,"velN":0.008,"velE":0.009,"velD":-0.034,"geoidSep":-15.351,"eph":11.800,"sep":42.370}
$GPZDA,204228.00,24,03,2024,00,00*69
$GPGGA,204228.00,4624.2760804,N,11701.2446425,W,1,06,1.36,289.71,M,-15.351,M,,*53
$GPRMC,204228.00,A,4624.2760804,N,11701.2446425,W,0.1255,228.982,240324,13.9,E*4E
$GPGSA,A,3,6,20,22,24,25,80,,,,,,,2.2,1.4,1.8*03
$GPGBS,204228.00,12.279,16.422,40.480,,,,*7B
{"class":"TPV","mode":3,"time":"2024-03-24T20:42:28.000Z","leapseconds":18,"ept":0.005,"lat":46.404601340,"lon":-117.020744042,"altHAE":274.3590,"altMSL":289.7098,"alt":289.7098,"epx":12.279,"epy":16.422,"epv":40.480,"track":228.9819,"magtrack":242.8335,"magvar":13.9,"speed":0.065,"climb":0.040,"eps":0.75,"epc":57.49,"ecefx":-2001725.14,"ecefy":-3925093.02,"ecefz":4596573.02,"ecefvx":-0.07,"ecefvy":-0.03,"ecefvz":0.00,"ecefpAcc":20.04,"ecefvAcc":0.75,"velN":-0.042,"velE":-0.049,"velD":-0.040,"geoidSep":-15.351,"eph":25.840,"sep":42.370}
{"class":"SKY","time":"2024-03-24T20:42:27.000Z","gdop":2.46,"hdop":1.36,"pdop":2.23,"tdop":1.05,"xdop":0.82,"ydop":1.09,"vdop":1.76,"uSat":6}
$GPGSV,3,1,11,06,65,085,26,20,08,158,33,22,17,120,31,24,37,225,25*76
$GPGSV,3,2,11,25,23,304,38,32,03,311,00,46,33,155,40,48,34,202,00*7F
$GPGSV,3,3,11,51,36,167,00,80,08,148,29,85,04,223,28*4E
{"class":"SKY","time":"2024-03-24T20:42:28.000Z","gdop":2.46,"hdop":1.36,"pdop":2.23,"tdop":1.05,"xdop":0.82,"ydop":1.09,"vdop":1.76,"nSat":12,"uSat":6,"satellites":[{"PRN":6,"gnssid":0,"svid":6,"az":85.0,"el":65.0,"prRes":245.8,"qual":5,"ss":26.0,"used":true,"health":1},{"PRN":12,"gnssid":0,"svid":12,"az":0.0,"prRes":0.0,"qual":7,"ss":30.0,"used":false,"health":2},{"PRN":20,"gnssid":0,"svid":20,"az":158.0,"el":8.0,"prRes":-87.0,"qual":7,"ss":33.0,"used":true,"health":1},{"PRN":22,"gnssid":0,"svid":22,"az":120.0,"el":17.0,"prRes":225.3,"qual":7,"ss":31.0,"used":true,"health":1},{"PRN":24,"gnssid":0,"svid":24,"az":225.0,"el":37.0,"prRes":-215.0,"qual":4,"ss":25.0,"used":true,"health":1},{"PRN":25,"gnssid":0,"svid":25,"az":304.0,"el":23.0,"prRes":117.8,"qual":7,"ss":38.0,"used":true,"health":1},{"PRN":32,"gnssid":0,"svid":32,"az":311.0,"el":3.0,"prRes":0.0,"qual":1,"ss":0.0,"used":false,"health":1},{"PRN":46,"gnssid":1,"svid":133,"az":155.0,"el":33.0,"prRes":0.0,"qual":7,"ss":40.0,"used":false,"health":2},{"PRN":48,"gnssid":1,"svid":135,"az":202.0,"el":34.0,"prRes":0.0,"qual":1,"ss":0.0,"used":false,"health":2},{"PRN":51,"gnssid":1,"svid":138,"az":167.0,"el":36.0,"prRes":0.0,"qual":1,"ss":0.0,"used":false,"health":2},{"PRN":80,"gnssid":6,"svid":16,"az":148.0,"el":8.0,"prRes":151.0,"qual":7,"ss":29.0,"used":true,"health":1},{"PRN":85,"gnssid":6,"svid":21,"az":223.0,"el":4.0,"prRes":0.0,"qual":6,"ss":28.0,"used":false,"health":1}]}
$GPGSV,3,1,11,06,65,085,26,20,08,158,33,22,17,120,31,24,37,225,25*76
$GPGSV,3,2,11,25,23,304,38,32,03,311,00,46,33,155,40,48,34,202,00*7F
$GPGSV,3,3,11,51,36,167,00,80,08,148,29,85,04,223,28*4E
{"class":"SKY","time":"2024-03-24T20:42:28.000Z","gdop":2.46,"hdop":1.36,"pdop":2.23,"tdop":1.05,"xdop":0.82,"ydop":1.09,"vdop":1.76,"nSat":12,"uSat":6,"satellites":[{"PRN":6,"gnssid":0,"svid":6,"az":85.0,"el":65.0,"prRes":8.5,"qual":5,"ss":26.0,"used":true,"health":1},{"PRN":12,"gnssid":0,"svid":12,"az":0.0,"prRes":0.0,"qual":7,"ss":30.0,"used":false},{"PRN":20,"gnssid":0,"svid":20,"az":158.0,"el":8.0,"prRes":15.8,"qual":7,"ss":33.0,"used":true,"health":1},{"PRN":22,"gnssid":0,"svid":22,"az":120.0,"el":17.0,"prRes":12.0,"qual":7,"ss":31.0,"used":true,"health":1},{"PRN":24,"gnssid":0,"svid":24,"az":225.0,"el":37.0,"prRes":22.5,"qual":4,"ss":25.0,"used":true,"health":1},{"PRN":25,"gnssid":0,"svid":25,"az":304.0,"el":23.0,"prRes":30.4,"qual":7,"ss":38.0,"used":true,"health":1},{"PRN":32,"gnssid":0,"svid":32,"az":311.0,"el":3.0,"prRes":31.1,"qual":1,"ss":0.0,"used":false,"health":1},{"PRN":46,"gnssid":1,"svid":133,"az":155.0,"el":33.0,"prRes":15.5,"qual":7,"ss":40.0,"used":false},{"PRN":48,"gnssid":1,"svid":135,"az":202.0,"el":34.0,"prRes":20.2,"qual":1,"ss":0.0,"used":false},{"PRN":51,"gnssid":1,"svid":138,"az":167.0,"el":36.0,"prRes":16.7,"qual":1,"ss":0.0,"used":false},{"PRN":80,"gnssid":6,"svid":16,"az":148.0,"el":8.0,"prRes":14.8,"qual":7,"ss":29.0,"used":true,"health":1},{"PRN":85,"gnssid":6,"svid":21,"az":223.0,"el":4.0,"prRes":22.3,"qual":6,"ss":28.0,"used":false,"health":1}]}
{"class":"SKY","time":"2024-03-24T20:42:28.000Z","gdop":2.46,"hdop":1.36,"pdop":2.23,"tdop":1.05,"xdop":0.82,"ydop":1.09,"vdop":1.76,"uSat":6}
$GPZDA,204228.00,24,03,2024,00,00*69
$GPGGA,204228.00,4624.2760780,N,11701.2446460,W,1,06,1.36,292.53,M,-15.351,M,,*5B
$GPRMC,204228.00,A,4624.2760780,N,11701.2446460,W,0.1225,30.771,240324,13.9,E*72
$GPGSA,A,3,6,20,22,24,25,80,,,,,,,2.2,1.4,1.8*03
$GPGBS,204228.00,12.279,16.422,16.485,,,,*7D
{"class":"TPV","mode":3,"time":"2024-03-24T20:42:28.000Z","leapseconds":18,"ept":0.005,"lat":46.404601300,"lon":-117.020744100,"altHAE":274.3590,"altMSL":292.5310,"alt":292.5310,"epx":12.279,"epy":16.422,"epv":16.485,"track":30.7706,"magtrack":242.8335,"magvar":13.9,"speed":0.063,"climb":0.040,"eps":32.84,"epc":33.49,"ecefx":-2001725.14,"ecefy":-3925093.02,"ecefz":4596573.02,"ecefvx":-0.07,"ecefvy":-0.03,"ecefvz":0.00,"ecefpAcc":20.04,"ecefvAcc":0.75,"velN":-0.042,"velE":-0.049,"velD":-0.040,"geoidSep":-15.351,"eph":11.402,"sep":42.370}
