# Name: u-blox NEO-M9N NMEA
# Chipset: u-blox NEO-M9N
# Submitter: Fred Wright <fw@fwright.net>
# Date: 2020-07-11
# Location: Novato, CA, USA
#
# This provides a sample of xxGSV sentences with four simultaneous GNSSes.
#
# This file is Copyright (c) 2020 by the GPSD project
# BSD terms apply: see the file COPYING in the distribution root for details.
#
$GNRMC,223745.00,A,3806.62964,N,12237.61382,W,0.040,,110720,,,D,V*0E
$GNVTG,,T,,M,0.040,N,0.075,K,D*3E
$GNGGA,223745.00,3806.62964,N,12237.61382,W,2,12,0.54,83.1,M,-29.5,M,,0000*44
$GNGSA,A,3,29,20,18,16,51,13,44,26,,,,,0.99,0.54,0.83,1*0E
$GNGSA,A,3,82,73,74,67,81,83,68,,,,,,0.99,0.54,0.83,2*08
$GNGSA,A,3,03,05,30,27,15,,,,,,,,0.99,0.54,0.83,3*0D
$GNGSA,A,3,32,28,30,33,27,,,,,,,,0.99,0.54,0.83,4*03
$GPGSV,4,1,16,05,01,047,,10,29,224,,13,22,062,23,15,40,094,,1*65
$GPGSV,4,2,16,16,25,306,30,18,68,358,39,20,63,235,37,21,35,292,,1*6B
$GPGSV,4,3,16,23,58,225,,25,00,179,,26,33,265,35,27,07,316,,1*60
$GPGSV,4,4,16,29,46,133,43,44,45,171,45,46,45,191,43,51,43,156,43,1*60
$GLGSV,3,1,10,66,09,027,,67,56,054,40,68,55,168,44,69,08,194,21,1*79
$GLGSV,3,2,10,73,13,282,27,74,10,318,13,81,09,110,16,82,51,077,39,1*7A
$GLGSV,3,3,10,83,52,346,29,84,05,307,,1*72
$GAGSV,3,1,10,03,44,149,40,05,42,071,39,08,08,190,,09,06,034,,7*74
$GAGSV,3,2,10,13,11,292,,15,56,322,39,21,10,318,,27,24,268,26,7*75
$GAGSV,3,3,10,30,14,215,16,36,08,098,,7*79
$GBGSV,2,1,07,04,01,262,,07,03,328,,27,78,059,44,28,29,115,34,1*79
$GBGSV,2,2,07,30,37,312,36,32,45,196,44,33,20,043,27,1*4D
$GNGLL,3806.62964,N,12237.61382,W,223745.00,A,D*6C
$GNGST,223745.00,228650,2.5,2.4,126,0.98,1.0,3.1*41
$GNZDA,223745.00,11,07,2020,00,00*7A
$GNGBS,223745.00,1.0,1.0,3.1,,,,,,*58
$GNRMC,223746.00,A,3806.62966,N,12237.61384,W,0.061,,110720,,,D,V*0A
$GNVTG,,T,,M,0.061,N,0.114,K,D*3B
$GNGGA,223746.00,3806.62966,N,12237.61384,W,2,12,0.56,83.0,M,-29.5,M,,0000*40
$GNGSA,A,3,29,20,18,16,51,13,44,26,,,,,1.04,0.56,0.88,1*02
$GNGSA,A,3,82,73,74,67,81,83,68,,,,,,1.04,0.56,0.88,2*04
$GNGSA,A,3,03,05,30,27,15,,,,,,,,1.04,0.56,0.88,3*01
$GNGSA,A,3,32,28,30,33,27,,,,,,,,1.04,0.56,0.88,4*0F
$GPGSV,4,1,16,05,01,047,,10,29,224,,13,22,062,24,15,40,094,,1*62
$GPGSV,4,2,16,16,25,306,29,18,68,358,39,20,63,235,37,21,35,292,,1*63
$GPGSV,4,3,16,23,58,225,,25,00,179,,26,33,265,36,27,07,316,,1*63
$GPGSV,4,4,16,29,46,133,43,44,45,171,45,46,45,191,43,51,43,156,43,1*60
$GLGSV,3,1,10,66,09,027,,67,56,054,40,68,55,168,44,69,08,194,20,1*78
$GLGSV,3,2,10,73,13,282,30,74,10,318,15,81,09,110,11,82,51,077,39,1*7D
$GLGSV,3,3,10,83,52,346,29,84,05,307,,1*72
$GAGSV,3,1,10,03,44,149,40,05,42,071,40,08,08,190,,09,06,034,,7*7A
$GAGSV,3,2,10,13,11,292,,15,56,322,38,21,10,318,,27,24,268,27,7*75
$GAGSV,3,3,10,30,14,215,20,36,08,098,,7*7C
$GBGSV,2,1,07,04,01,262,,07,03,328,,27,78,059,44,28,29,115,34,1*79
$GBGSV,2,2,07,30,37,312,36,32,45,196,44,33,20,043,29,1*43
$GNGLL,3806.62966,N,12237.61384,W,223746.00,A,D*6B
$GNGST,223746.00,837,2.5,2.4,127,0.98,1.0,3.0*75
$GNZDA,223746.00,11,07,2020,00,00*79
$GNGBS,223746.00,1.0,1.0,3.0,,,,,,*5A
$GNRMC,223747.00,A,3806.62968,N,12237.61386,W,0.084,,110720,,,D,V*0C
$GNVTG,,T,,M,0.084,N,0.155,K,D*35
$GNGGA,223747.00,3806.62968,N,12237.61386,W,2,12,0.56,83.0,M,-29.5,M,,0000*4D
$GNGSA,A,3,29,20,18,16,51,13,44,26,,,,,1.04,0.56,0.88,1*02
$GNGSA,A,3,82,73,74,67,81,83,68,,,,,,1.04,0.56,0.88,2*04
$GNGSA,A,3,03,05,30,27,15,,,,,,,,1.04,0.56,0.88,3*01
$GNGSA,A,3,32,28,30,33,27,,,,,,,,1.04,0.56,0.88,4*0F
$GPGSV,4,1,16,05,01,047,,10,29,224,,13,22,062,23,15,40,094,,1*65
$GPGSV,4,2,16,16,25,306,28,18,68,358,39,20,63,235,37,21,35,292,,1*62
$GPGSV,4,3,16,23,58,225,,25,00,179,,26,33,265,36,27,07,316,,1*63
$GPGSV,4,4,16,29,46,133,42,44,45,171,45,46,45,191,43,51,43,156,43,1*61
$GLGSV,3,1,10,66,09,027,,67,56,054,40,68,55,168,44,69,08,194,18,1*73
$GLGSV,3,2,10,73,13,282,30,74,10,318,11,81,09,110,13,82,51,077,40,1*75
$GLGSV,3,3,10,83,52,346,29,84,05,307,,1*72
$GAGSV,3,1,10,03,44,149,41,05,42,071,39,08,08,190,,09,06,034,,7*75
$GAGSV,3,2,10,13,11,292,,15,56,322,39,21,10,318,,27,24,268,27,7*74
$GAGSV,3,3,10,30,14,215,21,36,08,098,,7*7D
$GBGSV,2,1,07,04,01,262,,07,03,328,,27,78,059,43,28,29,115,34,1*7E
$GBGSV,2,2,07,30,37,312,36,32,45,196,43,33,20,043,29,1*44
$GNGLL,3806.62968,N,12237.61386,W,223747.00,A,D*66
$GNGST,223747.00,865,2.5,2.4,125,0.98,1.0,3.0*71
$GNZDA,223747.00,11,07,2020,00,00*78
$GNGBS,223747.00,1.0,1.0,3.0,,,,,,*5B
$GNRMC,223748.00,A,3806.62969,N,12237.61387,W,0.041,,110720,,,D,V*0A
$GNVTG,,T,,M,0.041,N,0.076,K,D*3C
$GNGGA,223748.00,3806.62969,N,12237.61387,W,2,12,0.56,82.9,M,-29.5,M,,0000*4A
$GNGSA,A,3,29,20,18,16,51,13,44,26,,,,,1.04,0.56,0.88,1*02
$GNGSA,A,3,82,73,74,67,81,83,68,,,,,,1.04,0.56,0.88,2*04
$GNGSA,A,3,03,05,30,27,15,,,,,,,,1.04,0.56,0.88,3*01
$GNGSA,A,3,32,28,30,33,27,,,,,,,,1.04,0.56,0.88,4*0F
$GPGSV,4,1,16,05,01,047,,10,29,224,,13,22,062,23,15,40,094,,1*65
$GPGSV,4,2,16,16,25,306,28,18,68,358,39,20,63,235,36,21,35,292,,1*63
$GPGSV,4,3,16,23,58,225,,25,00,179,,26,33,265,36,27,07,316,,1*63
$GPGSV,4,4,16,29,46,133,43,44,45,171,45,46,45,191,42,51,43,156,43,1*61
$GLGSV,3,1,10,66,09,027,,67,56,054,40,68,55,168,44,69,08,194,19,1*72
$GLGSV,3,2,10,73,13,282,30,74,10,318,12,81,09,110,18,82,51,077,40,1*7D
$GLGSV,3,3,10,83,52,346,28,84,05,307,,1*73
$GAGSV,3,1,10,03,44,149,41,05,42,071,39,08,08,190,,09,06,034,,7*75
$GAGSV,3,2,10,13,11,292,,15,56,322,39,21,10,318,,27,24,268,27,7*74
$GAGSV,3,3,10,30,14,215,21,36,08,098,,7*7D
$GBGSV,2,1,07,04,01,262,,07,03,328,,27,78,059,43,28,29,115,35,1*7F
$GBGSV,2,2,07,30,38,312,37,32,45,196,43,33,20,043,29,1*4A
$GNGLL,3806.62969,N,12237.61387,W,223748.00,A,D*69
$GNGST,223748.00,865,2.5,2.4,125,0.98,1.0,3.0*7E
$GNZDA,223748.00,11,07,2020,00,00*77
$GNGBS,223748.00,1.0,1.0,3.0,,,,,,*54
$GNRMC,223749.00,A,3806.62969,N,12237.61388,W,0.012,,110720,,,D,V*02
$GNVTG,,T,,M,0.012,N,0.021,K,D*38
$GNGGA,223749.00,3806.62969,N,12237.61388,W,2,12,0.56,82.8,M,-29.5,M,,0000*45
$GNGSA,A,3,29,20,18,16,51,13,44,26,,,,,1.04,0.56,0.88,1*02
$GNGSA,A,3,82,73,74,67,81,83,68,,,,,,1.04,0.56,0.88,2*04
$GNGSA,A,3,03,05,30,27,15,,,,,,,,1.04,0.56,0.88,3*01
$GNGSA,A,3,32,28,30,33,27,,,,,,,,1.04,0.56,0.88,4*0F
$GPGSV,4,1,16,05,01,047,,10,29,224,,13,22,062,23,15,40,094,,1*65
$GPGSV,4,2,16,16,25,306,29,18,68,358,38,20,63,235,37,21,35,292,,1*62
$GPGSV,4,3,16,23,58,225,,25,00,179,,26,33,265,36,27,07,316,,1*63
$GPGSV,4,4,16,29,46,133,43,44,45,171,45,46,45,191,43,51,43,156,43,1*60
$GLGSV,3,1,10,66,09,027,,67,56,054,40,68,55,168,44,69,08,194,19,1*72
$GLGSV,3,2,10,73,13,282,31,74,10,318,16,81,09,110,15,82,51,077,40,1*75
$GLGSV,3,3,10,83,52,346,28,84,05,307,,1*73
$GAGSV,3,1,10,03,44,149,41,05,42,071,39,08,08,190,,09,06,034,,7*75
$GAGSV,3,2,10,13,11,292,,15,56,322,39,21,10,318,,27,24,268,28,7*7B
$GAGSV,3,3,10,30,14,215,18,36,08,098,,7*77
$GBGSV,2,1,07,04,01,262,,07,03,328,,27,78,059,43,28,29,115,35,1*7F
$GBGSV,2,2,07,30,38,312,37,32,46,196,44,33,20,043,28,1*4F
$GNGLL,3806.62969,N,12237.61388,W,223749.00,A,D*67
$GNGST,223749.00,837,2.5,2.4,126,0.98,1.0,3.0*7B
$GNZDA,223749.00,11,07,2020,00,00*76
$GNGBS,223749.00,1.0,1.0,3.0,,,,,,*55
$GNRMC,223750.00,A,3806.62969,N,12237.61389,W,0.039,,110720,,,D,V*02
$GNVTG,,T,,M,0.039,N,0.072,K,D*37
$GNGGA,223750.00,3806.62969,N,12237.61389,W,2,12,0.56,82.7,M,-29.5,M,,0000*43
$GNGSA,A,3,29,20,18,16,51,13,44,26,,,,,1.04,0.56,0.88,1*02
$GNGSA,A,3,82,73,74,67,81,83,68,,,,,,1.04,0.56,0.88,2*04
$GNGSA,A,3,03,05,30,27,15,,,,,,,,1.04,0.56,0.88,3*01
$GNGSA,A,3,32,28,30,33,27,,,,,,,,1.04,0.56,0.88,4*0F
$GPGSV,4,1,16,05,01,047,,10,29,224,,13,22,062,23,15,40,094,,1*65
$GPGSV,4,2,16,16,25,306,29,18,68,358,39,20,63,235,37,21,35,292,,1*63
$GPGSV,4,3,16,23,58,225,,25,00,179,,26,33,265,35,27,07,316,,1*60
$GPGSV,4,4,16,29,46,133,44,44,45,171,45,46,45,191,43,51,43,156,43,1*67
$GLGSV,3,1,10,66,09,027,,67,56,054,40,68,55,168,44,69,08,194,18,1*73
$GLGSV,3,2,10,73,13,282,31,74,10,318,10,81,09,110,19,82,51,077,39,1*71
$GLGSV,3,3,10,83,52,346,28,84,05,307,,1*73
$GAGSV,3,1,10,03,44,149,41,05,42,071,39,08,08,190,,09,06,034,,7*75
$GAGSV,3,2,10,13,11,292,,15,56,322,39,21,10,318,,27,24,268,29,7*7A
$GAGSV,3,3,10,30,14,215,20,36,08,098,,7*7C
$GBGSV,2,1,07,04,01,262,,07,03,328,,27,78,059,44,28,29,115,35,1*78
$GBGSV,2,2,07,30,38,312,37,32,46,196,44,33,19,043,28,1*45
$GNGLL,3806.62969,N,12237.61389,W,223750.00,A,D*6E
$GNGST,223750.00,851,2.5,2.4,125,0.98,1.0,3.0*70
$GNZDA,223750.00,11,07,2020,00,00*7E
$GNGBS,223750.00,1.0,1.0,3.0,,,,,,*5D
$GNRMC,223751.00,A,3806.62969,N,12237.61388,W,0.046,,110720,,,D,V*0A
$GNVTG,,T,,M,0.046,N,0.085,K,D*37
$GNGGA,223751.00,3806.62969,N,12237.61388,W,2,12,0.57,82.6,M,-29.5,M,,0000*43
$GNGSA,A,3,29,20,18,16,51,44,26,,,,,,1.03,0.57,0.86,1*08
$GNGSA,A,3,82,73,74,67,81,83,68,,,,,,1.03,0.57,0.86,2*0C
$GNGSA,A,3,03,05,30,27,15,,,,,,,,1.03,0.57,0.86,3*09
$GNGSA,A,3,32,28,30,33,27,,,,,,,,1.03,0.57,0.86,4*07
$GPGSV,4,1,16,05,01,047,,10,29,224,,13,22,062,,15,40,094,,1*64
$GPGSV,4,2,16,16,25,306,28,18,68,358,38,20,63,235,37,21,35,292,,1*63
$GPGSV,4,3,16,23,58,225,,25,00,179,,26,33,265,35,27,07,316,,1*60
$GPGSV,4,4,16,29,46,133,44,44,45,171,45,46,45,191,43,51,43,156,43,1*67
$GLGSV,3,1,10,66,09,027,,67,56,054,40,68,55,168,44,69,08,194,18,1*73
$GLGSV,3,2,10,73,13,282,30,74,10,318,14,81,09,110,15,82,51,077,40,1*76
$GLGSV,3,3,10,83,52,346,29,84,05,307,,1*72
$GAGSV,3,1,10,03,44,149,41,05,42,071,39,08,08,190,,09,06,034,,7*75
$GAGSV,3,2,10,13,11,292,,15,56,322,39,21,10,318,,27,24,268,28,7*7B
$GAGSV,3,3,10,30,14,215,20,36,08,098,,7*7C
$GBGSV,2,1,07,04,01,262,,07,03,328,,27,78,059,43,28,29,115,35,1*7F
$GBGSV,2,2,07,30,38,312,37,32,46,196,44,33,19,043,29,1*44
$GNGLL,3806.62969,N,12237.61388,W,223751.00,A,D*6E
$GNGST,223751.00,225199,2.5,2.4,125,0.98,1.0,3.0*49
$GNZDA,223751.00,11,07,2020,00,00*7F
$GNGBS,223751.00,1.0,1.0,3.0,,,,,,*5C
$GNRMC,223752.00,A,3806.62970,N,12237.61389,W,0.040,,110720,,,D,V*06
$GNVTG,,T,,M,0.040,N,0.074,K,D*3F
$GNGGA,223752.00,3806.62970,N,12237.61389,W,2,12,0.57,82.5,M,-29.5,M,,0000*4A
$GNGSA,A,3,29,20,10,18,16,51,44,26,,,,,1.07,0.57,0.91,1*0B
$GNGSA,A,3,82,73,74,67,81,83,68,,,,,,1.07,0.57,0.91,2*0E
$GNGSA,A,3,03,05,30,27,15,,,,,,,,1.07,0.57,0.91,3*0B
$GNGSA,A,3,32,28,30,33,27,,,,,,,,1.07,0.57,0.91,4*05
$GPGSV,4,1,16,05,01,047,,10,29,224,36,13,22,062,,15,40,094,,1*61
$GPGSV,4,2,16,16,25,306,28,18,68,358,38,20,63,235,37,21,35,292,,1*63
$GPGSV,4,3,16,23,58,225,,25,00,179,,26,33,265,35,27,07,316,,1*60
$GPGSV,4,4,16,29,46,133,44,44,45,171,45,46,45,191,42,51,43,156,43,1*66
$GLGSV,3,1,10,66,08,027,,67,56,054,40,68,55,168,44,69,08,194,18,1*72
$GLGSV,3,2,10,73,13,282,29,74,10,318,14,81,09,110,16,82,51,077,40,1*7D
$GLGSV,3,3,10,83,52,346,28,84,05,307,,1*73
$GAGSV,3,1,10,03,44,149,41,05,42,071,39,08,08,190,,09,06,034,,7*75
$GAGSV,3,2,10,13,11,292,,15,56,322,39,21,10,318,,27,24,268,27,7*74
$GAGSV,3,3,10,30,14,215,20,36,08,098,,7*7C
$GBGSV,2,1,07,04,01,262,,07,03,328,,27,78,059,44,28,29,115,35,1*78
$GBGSV,2,2,07,30,38,312,36,32,46,196,43,33,19,043,28,1*43
$GNGLL,3806.62970,N,12237.61389,W,223752.00,A,D*64
$GNGST,223752.00,837,2.5,2.4,130,0.98,0.99,3.0*47
$GNZDA,223752.00,11,07,2020,00,00*7C
$GNGBS,223752.00,1.0,1.0,3.0,,,,,,*5F
$GNRMC,223753.00,A,3806.62972,N,12237.61391,W,0.021,,110720,,,D,V*0B
$GNVTG,,T,,M,0.021,N,0.038,K,D*30
$GNGGA,223753.00,3806.62972,N,12237.61391,W,2,12,0.57,82.4,M,-29.5,M,,0000*41
$GNGSA,A,3,29,20,10,18,16,51,44,26,,,,,1.07,0.57,0.91,1*0B
$GNGSA,A,3,82,73,74,67,81,83,68,,,,,,1.07,0.57,0.91,2*0E
$GNGSA,A,3,03,05,30,27,15,,,,,,,,1.07,0.57,0.91,3*0B
$GNGSA,A,3,32,28,30,33,27,,,,,,,,1.07,0.57,0.91,4*05
$GPGSV,4,1,16,05,01,047,,10,29,224,37,13,22,062,,15,40,094,,1*60
$GPGSV,4,2,16,16,25,306,29,18,68,358,39,20,63,235,37,21,35,292,,1*63
$GPGSV,4,3,16,23,58,225,,25,00,179,,26,33,265,35,27,07,316,,1*60
$GPGSV,4,4,16,29,46,133,44,44,45,171,45,46,45,191,42,51,43,156,43,1*66
$GLGSV,3,1,10,66,08,027,,67,55,052,40,68,55,168,44,69,08,194,19,1*76
$GLGSV,3,2,10,73,13,282,30,74,10,318,14,81,09,110,10,82,51,077,40,1*73
$GLGSV,3,3,10,83,52,346,27,84,05,307,,1*7C
$GAGSV,3,1,10,03,44,149,41,05,42,071,39,08,08,190,,09,06,034,,7*75
$GAGSV,3,2,10,13,11,292,,15,56,322,39,21,10,318,,27,24,268,27,7*74
$GAGSV,3,3,10,30,14,215,19,36,08,098,,7*76
$GBGSV,2,1,07,04,01,262,,07,03,328,,27,78,059,44,28,29,115,34,1*79
$GBGSV,2,2,07,30,38,312,36,32,46,196,44,33,19,043,28,1*44
$GNGLL,3806.62972,N,12237.61391,W,223753.00,A,D*6E
$GNGST,223753.00,151766,2.5,2.4,134,0.98,0.98,3.0*7D
$GNZDA,223753.00,11,07,2020,00,00*7D
$GNGBS,223753.00,1.0,1.0,3.0,,,,,,*5E
$GNRMC,223754.00,A,3806.62972,N,12237.61393,W,0.061,,110720,,,D,V*0A
$GNVTG,,T,,M,0.061,N,0.114,K,D*3B
$GNGGA,223754.00,3806.62972,N,12237.61393,W,2,12,0.57,82.3,M,-29.5,M,,0000*43
$GNGSA,A,3,29,20,10,18,16,51,44,26,,,,,1.07,0.57,0.91,1*0B
$GNGSA,A,3,82,73,74,67,81,83,68,,,,,,1.07,0.57,0.91,2*0E
$GNGSA,A,3,03,05,30,27,15,,,,,,,,1.07,0.57,0.91,3*0B
$GNGSA,A,3,32,28,30,33,27,,,,,,,,1.07,0.57,0.91,4*05
$GPGSV,4,1,16,05,01,047,,10,29,224,36,13,22,062,,15,40,094,,1*61
$GPGSV,4,2,16,16,25,306,28,18,68,358,39,20,63,235,37,21,35,292,,1*62
$GPGSV,4,3,16,23,58,225,,25,00,179,,26,33,265,35,27,07,316,,1*60
$GPGSV,4,4,16,29,46,133,44,44,45,171,45,46,45,191,42,51,43,156,43,1*66
$GLGSV,3,1,10,66,08,027,,67,55,052,40,68,56,168,45,69,08,194,18,1*75
$GLGSV,3,2,10,73,13,282,29,74,10,318,12,81,09,110,20,82,51,077,40,1*7E
$GLGSV,3,3,10,83,52,346,28,84,05,307,,1*73
$GAGSV,3,1,10,03,44,149,41,05,42,071,39,08,08,190,,09,06,034,,7*75
$GAGSV,3,2,10,13,11,292,,15,56,322,39,21,10,318,,27,24,268,28,7*7B
$GAGSV,3,3,10,30,14,215,20,36,08,098,,7*7C
$GBGSV,2,1,07,04,01,262,,07,03,328,,27,78,059,44,28,29,115,33,1*7E
$GBGSV,2,2,07,30,38,312,37,32,46,196,44,33,19,043,28,1*45
$GNGLL,3806.62972,N,12237.61393,W,223754.00,A,D*6B
$GNGST,223754.00,225199,2.5,2.4,139,0.98,0.98,3.0*71
$GNZDA,223754.00,11,07,2020,00,00*7A
$GNGBS,223754.00,1.0,1.0,3.0,,,,,,*59
$GNRMC,223755.00,A,3806.62973,N,12237.61395,W,0.051,,110720,,,D,V*0F
$GNVTG,,T,,M,0.051,N,0.094,K,D*31
$GNGGA,223755.00,3806.62973,N,12237.61395,W,2,12,0.55,82.1,M,-29.5,M,,0000*45
$GNGSA,A,3,29,20,10,18,16,51,44,26,,,,,1.02,0.55,0.85,1*09
$GNGSA,A,3,82,73,74,67,81,83,68,,,,,,1.02,0.55,0.85,2*0C
$GNGSA,A,3,03,05,30,27,15,,,,,,,,1.02,0.55,0.85,3*09
$GNGSA,A,3,32,28,30,33,27,,,,,,,,1.02,0.55,0.85,4*07
$GPGSV,4,1,16,05,01,047,,10,29,224,36,13,22,062,,15,40,094,,1*61
$GPGSV,4,2,16,16,25,306,28,18,68,358,39,20,63,235,37,21,35,292,,1*62
$GPGSV,4,3,16,23,58,225,,25,00,179,,26,33,265,34,27,07,316,,1*61
$GPGSV,4,4,16,29,46,133,44,44,45,171,45,46,45,191,43,51,43,156,43,1*67
$GLGSV,3,1,10,66,08,027,,67,55,052,40,68,56,168,45,69,09,194,18,1*74
$GLGSV,3,2,10,73,13,282,29,74,10,318,17,81,09,110,17,82,51,077,40,1*7F
$GLGSV,3,3,10,83,52,346,28,84,05,307,,1*73
$GAGSV,3,1,10,03,44,149,41,05,42,071,40,08,08,190,,09,06,034,,7*7B
$GAGSV,3,2,10,13,11,292,,15,56,322,38,21,10,318,,27,24,268,27,7*75
$GAGSV,3,3,10,30,14,215,20,36,08,098,,7*7C
$GBGSV,2,1,07,04,01,262,,07,03,328,,27,78,059,44,28,29,115,33,1*7E
$GBGSV,2,2,07,30,38,312,36,32,46,196,44,33,19,043,28,1*44
$GNGLL,3806.62973,N,12237.61395,W,223755.00,A,D*6D
$GNGST,223755.00,820,2.5,2.4,141,0.98,0.97,3.0*4E
$GNZDA,223755.00,11,07,2020,00,00*7B
$GNGBS,223755.00,1.0,1.0,3.0,,,,,,*58
$GNRMC,223756.00,A,3806.62973,N,12237.61399,W,0.039,,110720,,,D,V*0E
$GNVTG,,T,,M,0.039,N,0.071,K,D*34
$GNGGA,223756.00,3806.62973,N,12237.61399,W,2,12,0.57,82.1,M,-29.5,M,,0000*48
$GNGSA,A,3,29,20,10,18,16,51,44,26,,,,,1.07,0.57,0.91,1*0B
$GNGSA,A,3,82,73,74,67,81,83,68,,,,,,1.07,0.57,0.91,2*0E
$GNGSA,A,3,03,05,30,27,15,,,,,,,,1.07,0.57,0.91,3*0B
$GNGSA,A,3,32,28,30,33,27,,,,,,,,1.07,0.57,0.91,4*05
$GPGSV,4,1,16,05,01,047,,10,29,224,36,13,22,062,,15,40,094,,1*61
$GPGSV,4,2,16,16,25,306,27,18,68,358,38,20,63,235,37,21,35,292,,1*6C
$GPGSV,4,3,16,23,58,225,,25,00,179,,26,33,265,35,27,07,316,,1*60
$GPGSV,4,4,16,29,46,133,44,44,45,171,45,46,45,191,43,51,43,156,43,1*67
$GLGSV,3,1,10,66,08,027,,67,55,052,40,68,56,168,45,69,09,194,18,1*74
$GLGSV,3,2,10,73,13,282,27,74,10,318,10,81,09,110,21,82,51,077,40,1*73
$GLGSV,3,3,10,83,52,346,28,84,05,307,,1*73
$GAGSV,3,1,10,03,44,149,41,05,42,071,39,08,08,190,,09,06,034,,7*75
$GAGSV,3,2,10,13,11,292,,15,56,322,38,21,10,318,,27,24,268,26,7*74
$GAGSV,3,3,10,30,14,215,18,36,08,098,,7*77
$GBGSV,2,1,07,04,01,262,,07,03,328,,27,78,059,44,28,29,115,34,1*79
$GBGSV,2,2,07,30,38,312,36,32,46,196,43,33,19,043,28,1*43
$GNGLL,3806.62973,N,12237.61399,W,223756.00,A,D*62
$GNGST,223756.00,851,2.5,2.4,144,0.98,0.97,3.0*4E
$GNZDA,223756.00,11,07,2020,00,00*78
$GNGBS,223756.00,1.0,1.0,3.0,,,,,,*5B
$GNRMC,223757.00,A,3806.62974,N,12237.61403,W,0.039,,110720,,,D,V*0C
$GNVTG,,T,,M,0.039,N,0.072,K,D*37
$GNGGA,223757.00,3806.62974,N,12237.61403,W,2,12,0.57,82.1,M,-29.5,M,,0000*4A
$GNGSA,A,3,29,20,10,18,16,51,44,26,,,,,1.07,0.57,0.91,1*0B
$GNGSA,A,3,82,73,74,67,81,83,68,,,,,,1.07,0.57,0.91,2*0E
$GNGSA,A,3,03,05,30,27,15,,,,,,,,1.07,0.57,0.91,3*0B
$GNGSA,A,3,32,28,30,33,27,,,,,,,,1.07,0.57,0.91,4*05
$GPGSV,4,1,16,05,01,047,,10,29,224,36,13,22,062,,15,40,094,,1*61
$GPGSV,4,2,16,16,25,306,27,18,68,358,39,20,63,235,37,21,35,292,,1*6D
$GPGSV,4,3,16,23,58,225,,25,00,179,,26,33,265,35,27,07,316,,1*60
$GPGSV,4,4,16,29,46,133,44,44,45,171,45,46,45,191,43,51,43,156,43,1*67
$GLGSV,3,1,10,66,08,027,,67,55,052,40,68,56,168,45,69,09,194,18,1*74
$GLGSV,3,2,10,73,13,282,26,74,10,318,15,81,09,110,16,82,51,077,40,1*73
$GLGSV,3,3,10,83,52,346,27,84,05,307,,1*7C
$GAGSV,3,1,10,03,44,149,41,05,42,071,40,08,08,190,,09,06,034,,7*7B
$GAGSV,3,2,10,13,11,292,,15,56,322,38,21,10,318,,27,24,268,25,7*77
$GAGSV,3,3,10,30,14,215,18,36,08,098,,7*77
$GBGSV,2,1,07,04,01,262,,07,03,328,,27,78,059,44,28,29,115,35,1*78
$GBGSV,2,2,07,30,38,312,37,32,46,196,43,33,19,043,28,1*42
$GNGLL,3806.62974,N,12237.61403,W,223757.00,A,D*60
$GNGST,223757.00,851,2.5,2.4,144,0.98,0.97,3.0*4F
$GNZDA,223757.00,11,07,2020,00,00*79
$GNGBS,223757.00,1.0,1.0,3.0,,,,,,*5A
$GNRMC,223758.00,A,3806.62976,N,12237.61407,W,0.028,,110720,,,D,V*05
$GNVTG,,T,,M,0.028,N,0.052,K,D*35
$GNGGA,223758.00,3806.62976,N,12237.61407,W,2,12,0.57,82.0,M,-29.5,M,,0000*42
$GNGSA,A,3,29,20,10,18,16,51,44,26,,,,,1.07,0.57,0.91,1*0B
$GNGSA,A,3,82,73,74,67,81,83,68,,,,,,1.07,0.57,0.91,2*0E
$GNGSA,A,3,03,05,30,27,15,,,,,,,,1.07,0.57,0.91,3*0B
$GNGSA,A,3,32,28,30,33,27,,,,,,,,1.07,0.57,0.91,4*05
$GPGSV,4,1,16,05,01,047,,10,29,224,37,13,22,062,,15,40,094,,1*60
$GPGSV,4,2,16,16,25,306,28,18,68,358,39,20,63,235,37,21,35,292,,1*62
$GPGSV,4,3,16,23,58,225,,25,00,179,,26,33,265,34,27,07,316,,1*61
$GPGSV,4,4,16,29,46,133,43,44,45,171,45,46,45,191,43,51,43,156,43,1*60
$GLGSV,3,1,10,66,08,027,,67,55,052,40,68,56,168,45,69,09,194,18,1*74
$GLGSV,3,2,10,73,13,282,24,74,10,318,10,81,09,110,14,82,51,077,40,1*76
$GLGSV,3,3,10,83,52,346,26,84,05,307,,1*7D
$GAGSV,3,1,10,03,44,149,41,05,42,071,40,08,08,190,,09,06,034,,7*7B
$GAGSV,3,2,10,13,11,292,,15,56,322,38,21,10,318,,27,24,268,22,7*70
$GAGSV,3,3,10,30,14,215,19,36,08,098,,7*76
$GBGSV,2,1,07,04,01,262,,07,03,328,,27,78,059,44,28,29,115,35,1*78
$GBGSV,2,2,07,30,38,312,36,32,46,196,43,33,19,043,27,1*4C
$GNGLL,3806.62976,N,12237.61407,W,223758.00,A,D*69
$GNGST,223758.00,837,2.5,2.4,144,0.98,0.97,3.0*40
$GNZDA,223758.00,11,07,2020,00,00*76
$GNGBS,223758.00,1.0,1.0,3.0,,,,,,*55
$GNRMC,223759.00,A,3806.62977,N,12237.61413,W,0.048,,110720,,,D,V*06
$GNVTG,,T,,M,0.048,N,0.089,K,D*35
$GNGGA,223759.00,3806.62977,N,12237.61413,W,2,12,0.57,82.0,M,-29.5,M,,0000*47
$GNGSA,A,3,29,20,10,18,16,51,44,26,,,,,1.07,0.57,0.91,1*0B
$GNGSA,A,3,82,73,74,67,81,83,68,,,,,,1.07,0.57,0.91,2*0E
$GNGSA,A,3,03,05,30,27,15,,,,,,,,1.07,0.57,0.91,3*0B
$GNGSA,A,3,32,28,30,33,27,,,,,,,,1.07,0.57,0.91,4*05
$GPGSV,4,1,16,05,01,047,,10,29,224,36,13,22,062,,15,40,094,,1*61
$GPGSV,4,2,16,16,25,306,27,18,68,358,39,20,63,235,37,21,35,292,,1*6D
$GPGSV,4,3,16,23,58,225,,25,00,179,,26,33,265,34,27,07,316,,1*61
$GPGSV,4,4,16,29,46,133,43,44,45,171,45,46,45,191,43,51,43,156,43,1*60
$GLGSV,3,1,10,66,08,027,,67,55,052,40,68,56,168,45,69,09,194,16,1*7A
$GLGSV,3,2,10,73,13,281,23,74,10,318,19,81,09,110,15,82,51,077,40,1*7A
$GLGSV,3,3,10,83,52,346,27,84,05,307,,1*7C
$GAGSV,3,1,10,03,44,149,41,05,42,071,40,08,08,190,,09,06,034,,7*7B
$GAGSV,3,2,10,13,11,292,,15,56,322,38,21,10,318,,27,24,268,19,7*78
$GAGSV,3,3,10,30,14,215,20,36,08,098,,7*7C
$GBGSV,2,1,07,04,01,262,,07,03,328,,27,78,059,44,28,29,115,34,1*79
$GBGSV,2,2,07,30,38,312,37,32,46,196,43,33,19,043,28,1*42
$GNGLL,3806.62977,N,12237.61413,W,223759.00,A,D*6C
$GNGST,223759.00,851,2.5,2.4,143,0.98,0.97,3.0*46
$GNZDA,223759.00,11,07,2020,00,00*77
$GNGBS,223759.00,1.0,1.0,3.0,,,,,,*54
$GNRMC,223800.00,A,3806.62980,N,12237.61420,W,0.058,,110720,,,D,V*0C
$GNVTG,,T,,M,0.058,N,0.107,K,D*33
$GNGGA,223800.00,3806.62980,N,12237.61420,W,2,12,0.57,81.9,M,-29.5,M,,0000*46
$GNGSA,A,3,29,20,10,18,16,51,44,26,,,,,1.07,0.57,0.91,1*0B
$GNGSA,A,3,82,73,74,67,81,83,68,,,,,,1.07,0.57,0.91,2*0E
$GNGSA,A,3,03,05,30,27,15,,,,,,,,1.07,0.57,0.91,3*0B
$GNGSA,A,3,32,28,30,33,27,,,,,,,,1.07,0.57,0.91,4*05
$GPGSV,4,1,16,05,01,047,,10,29,224,37,13,22,062,,15,40,094,,1*60
$GPGSV,4,2,16,16,25,306,28,18,68,358,39,20,63,235,37,21,35,292,,1*62
$GPGSV,4,3,16,23,58,225,,25,00,179,,26,33,265,35,27,07,316,,1*60
$GPGSV,4,4,16,29,46,133,44,44,45,171,45,46,45,191,43,51,43,156,43,1*67
$GLGSV,3,1,10,66,08,027,,67,55,052,40,68,56,168,45,69,09,194,17,1*7B
$GLGSV,3,2,10,73,13,281,22,74,10,317,18,81,09,110,19,82,51,077,40,1*79
$GLGSV,3,3,10,83,52,346,27,84,05,307,,1*7C
$GAGSV,3,1,10,03,44,149,41,05,42,071,39,08,08,190,,09,06,034,,7*75
$GAGSV,3,2,10,13,11,292,,15,56,322,38,21,10,318,,27,24,268,17,7*76
$GAGSV,3,3,10,30,14,215,19,36,08,098,,7*76
$GBGSV,2,1,07,04,01,262,,07,03,328,,27,78,059,44,28,29,115,35,1*78
$GBGSV,2,2,07,30,38,312,36,32,46,196,43,33,19,043,29,1*42
$GNGLL,3806.62980,N,12237.61420,W,223800.00,A,D*67
$GNGST,223800.00,851,2.5,2.4,144,0.98,0.97,3.0*42
$GNZDA,223800.00,11,07,2020,00,00*74
$GNGBS,223800.00,1.0,1.0,3.0,,,,,,*57
$GNRMC,223801.00,A,3806.62981,N,12237.61427,W,0.028,,110720,,,D,V*0C
$GNVTG,,T,,M,0.028,N,0.052,K,D*35
$GNGGA,223801.00,3806.62981,N,12237.61427,W,2,12,0.60,81.8,M,-29.5,M,,0000*44
$GNGSA,A,3,29,20,10,18,16,51,44,26,,,,,1.22,0.60,1.07,1*06
$GNGSA,A,3,82,73,74,67,81,83,68,,,,,,1.22,0.60,1.07,2*03
$GNGSA,A,3,03,05,30,27,15,,,,,,,,1.22,0.60,1.07,3*06
$GNGSA,A,3,32,28,30,33,27,,,,,,,,1.22,0.60,1.07,4*08
$GPGSV,4,1,16,05,01,047,,10,29,224,36,13,22,062,,15,40,094,,1*61
$GPGSV,4,2,16,16,25,306,27,18,68,358,39,20,63,235,37,21,35,292,,1*6D
$GPGSV,4,3,16,23,58,225,,25,00,179,,26,33,265,35,27,07,316,,1*60
$GPGSV,4,4,16,29,46,133,44,44,45,171,45,46,45,191,43,51,43,156,43,1*67
$GLGSV,3,1,10,66,08,027,,67,55,052,40,68,56,168,45,69,09,194,18,1*74
$GLGSV,3,2,10,73,13,281,20,74,10,317,13,81,09,110,12,82,51,077,40,1*7B
$GLGSV,3,3,10,83,52,346,27,84,05,307,,1*7C
$GAGSV,3,1,10,03,44,149,41,05,42,071,39,08,08,190,,09,06,034,,7*75
$GAGSV,3,2,10,13,11,292,,15,56,322,38,21,10,318,,27,24,268,12,7*73
$GAGSV,3,3,10,30,14,215,20,36,08,098,,7*7C
$GBGSV,2,1,07,04,01,262,,07,03,328,,27,78,059,44,28,29,115,35,1*78
$GBGSV,2,2,07,30,38,312,37,32,46,196,43,33,19,043,28,1*42
$GNGLL,3806.62981,N,12237.61427,W,223801.00,A,D*60
$GNGST,223801.00,855,2.5,2.4,144,0.99,0.97,3.0*46
$GNZDA,223801.00,11,07,2020,00,00*75
$GNGBS,223801.00,1.0,1.0,3.0,,,,,,*56
$GNRMC,223802.00,A,3806.62983,N,12237.61434,W,0.042,,110720,,,D,V*03
$GNVTG,,T,,M,0.042,N,0.078,K,D*31
$GNGGA,223802.00,3806.62983,N,12237.61434,W,2,12,0.57,81.7,M,-29.5,M,,0000*4C
$GNGSA,A,3,29,20,10,18,16,51,44,26,,,,,1.07,0.57,0.91,1*0B
$GNGSA,A,3,82,73,74,67,81,83,68,,,,,,1.07,0.57,0.91,2*0E
$GNGSA,A,3,03,05,30,27,15,,,,,,,,1.07,0.57,0.91,3*0B
$GNGSA,A,3,32,28,30,33,27,,,,,,,,1.07,0.57,0.91,4*05
$GPGSV,4,1,16,05,01,047,,10,29,224,37,13,22,062,,15,40,094,,1*60
$GPGSV,4,2,16,16,25,306,25,18,68,358,39,20,63,235,37,21,35,292,,1*6F
$GPGSV,4,3,16,23,58,225,,25,00,179,,26,33,265,35,27,07,316,,1*60
$GPGSV,4,4,16,29,46,133,44,44,45,171,45,46,45,191,43,51,43,156,43,1*67
$GLGSV,3,1,10,66,08,027,,67,55,052,40,68,56,168,44,69,09,194,16,1*7B
$GLGSV,3,2,10,73,13,281,21,74,10,317,21,81,09,110,12,82,51,077,40,1*7B
$GLGSV,3,3,10,83,52,346,27,84,05,307,,1*7C
$GAGSV,3,1,10,03,44,149,41,05,42,071,39,08,08,190,,09,06,034,,7*75
$GAGSV,3,2,10,13,11,292,,15,56,322,38,21,10,318,,27,24,268,13,7*72
$GAGSV,3,3,10,30,14,215,20,36,08,098,,7*7C
$GBGSV,2,1,07,04,01,262,,07,03,328,,27,78,059,44,28,29,115,35,1*78
$GBGSV,2,2,07,30,38,312,36,32,46,196,43,33,19,043,28,1*43
$GNGLL,3806.62983,N,12237.61434,W,223802.00,A,D*63
$GNGST,223802.00,163639,2.5,2.4,145,0.99,0.97,3.0*74
$GNZDA,223802.00,11,07,2020,00,00*76
$GNGBS,223802.00,1.0,1.0,3.0,,,,,,*55
$GNRMC,223803.00,A,3806.62985,N,12237.61440,W,0.033,,110720,,,D,V*01
$GNVTG,,T,,M,0.033,N,0.061,K,D*3F
$GNGGA,223803.00,3806.62985,N,12237.61440,W,2,12,0.57,81.7,M,-29.5,M,,0000*48
$GNGSA,A,3,29,20,10,18,16,51,44,26,,,,,1.07,0.57,0.91,1*0B
$GNGSA,A,3,82,73,74,67,81,83,68,,,,,,1.07,0.57,0.91,2*0E
$GNGSA,A,3,03,05,30,27,15,,,,,,,,1.07,0.57,0.91,3*0B
$GNGSA,A,3,32,28,30,33,27,,,,,,,,1.07,0.57,0.91,4*05
$GPGSV,4,1,16,05,01,047,,10,29,224,37,13,22,062,,15,40,094,,1*60
$GPGSV,4,2,16,16,25,306,25,18,68,358,39,20,63,235,37,21,35,292,,1*6F
$GPGSV,4,3,16,23,58,225,,25,00,179,,26,33,265,34,27,07,316,,1*61
$GPGSV,4,4,16,29,46,133,44,44,45,171,45,46,45,191,43,51,43,156,43,1*67
$GLGSV,3,1,10,66,08,027,,67,55,052,40,68,56,168,45,69,09,194,17,1*7B
$GLGSV,3,2,10,73,13,281,23,74,10,317,18,81,09,110,15,82,51,077,40,1*74
$GLGSV,3,3,10,83,52,346,28,84,05,307,,1*73
$GAGSV,3,1,10,03,44,149,40,05,42,071,39,08,08,190,,09,06,034,,7*74
$GAGSV,3,2,10,13,11,292,,15,56,322,38,21,10,318,,27,24,268,17,7*76
$GAGSV,3,3,10,30,14,215,22,36,08,098,,7*7E
$GBGSV,2,1,07,04,01,262,,07,03,328,,27,78,059,44,28,29,115,34,1*79
$GBGSV,2,2,07,30,38,312,37,32,46,196,43,33,19,043,29,1*43
$GNGLL,3806.62985,N,12237.61440,W,223803.00,A,D*67
$GNGST,223803.00,233365,2.5,2.4,145,1.0,0.97,3.0*4E
$GNZDA,223803.00,11,07,2020,00,00*77
$GNGBS,223803.00,1.0,1.0,3.0,,,,,,*54
$GNRMC,223804.00,A,3806.62986,N,12237.61445,W,0.026,,110720,,,D,V*04
$GNVTG,,T,,M,0.026,N,0.047,K,D*3F
$GNGGA,223804.00,3806.62986,N,12237.61445,W,2,12,0.60,81.6,M,-29.5,M,,0000*4C
$GNGSA,A,3,29,20,10,18,16,51,44,26,,,,,1.22,0.60,1.07,1*06
$GNGSA,A,3,82,73,74,67,81,83,68,,,,,,1.22,0.60,1.07,2*03
$GNGSA,A,3,03,05,30,27,15,,,,,,,,1.22,0.60,1.07,3*06
$GNGSA,A,3,32,28,30,33,27,,,,,,,,1.22,0.60,1.07,4*08
$GPGSV,4,1,16,05,01,047,,10,29,224,37,13,22,062,,15,40,094,,1*60
$GPGSV,4,2,16,16,25,306,25,18,68,358,39,20,63,235,38,21,35,292,,1*60
$GPGSV,4,3,16,23,58,225,,25,00,179,,26,33,265,34,27,07,316,,1*61
$GPGSV,4,4,16,29,46,133,44,44,45,171,45,46,45,191,43,51,43,156,43,1*67
$GLGSV,3,1,10,66,08,027,,67,55,052,40,68,56,168,45,69,09,194,18,1*74
$GLGSV,3,2,10,73,13,281,26,74,10,317,17,81,09,110,12,82,51,077,40,1*79
$GLGSV,3,3,10,83,52,346,27,84,05,307,,1*7C
$GAGSV,3,1,10,03,44,149,40,05,42,071,39,08,08,190,,09,06,034,,7*74
$GAGSV,3,2,10,13,11,292,,15,56,322,38,21,10,318,,27,24,268,19,7*78
$GAGSV,3,3,10,30,14,215,23,36,08,098,,7*7F
$GBGSV,2,1,07,04,01,262,,07,03,328,,27,78,059,44,28,29,115,34,1*79
$GBGSV,2,2,07,30,38,312,37,32,46,196,43,33,19,043,29,1*43
$GNGLL,3806.62986,N,12237.61445,W,223804.00,A,D*66
$GNGST,223804.00,855,2.5,2.4,146,1.0,0.97,3.0*70
$GNZDA,223804.00,11,07,2020,00,00*70
$GNGBS,223804.00,1.0,1.0,3.0,,,,,,*53
$GNRMC,223805.00,A,3806.62989,N,12237.61449,W,0.028,,110720,,,D,V*08
$GNVTG,,T,,M,0.028,N,0.051,K,D*36
$GNGGA,223805.00,3806.62989,N,12237.61449,W,2,12,0.57,81.6,M,-29.5,M,,0000*4A
$GNGSA,A,3,29,20,10,18,16,51,44,26,,,,,1.07,0.57,0.91,1*0B
$GNGSA,A,3,82,73,74,67,81,83,68,,,,,,1.07,0.57,0.91,2*0E
$GNGSA,A,3,03,05,30,27,15,,,,,,,,1.07,0.57,0.91,3*0B
$GNGSA,A,3,32,28,30,33,27,,,,,,,,1.07,0.57,0.91,4*05
$GPGSV,4,1,16,05,01,047,,10,29,224,36,13,22,062,,15,40,094,,1*61
$GPGSV,4,2,16,16,25,306,26,18,68,358,39,20,63,235,38,21,35,292,,1*63
$GPGSV,4,3,16,23,58,225,,25,00,179,,26,33,265,34,27,07,316,,1*61
$GPGSV,4,4,16,29,46,133,44,44,45,171,45,46,45,191,43,51,43,156,43,1*67
$GLGSV,3,1,10,66,08,027,,67,55,052,41,68,56,168,45,69,09,194,18,1*75
$GLGSV,3,2,10,73,13,281,26,74,10,317,17,81,09,110,15,82,51,077,40,1*7E
$GLGSV,3,3,10,83,52,346,28,84,05,307,,1*73
$GAGSV,3,1,10,03,44,149,40,05,42,071,40,08,08,190,21,09,06,034,,7*79
$GAGSV,3,2,10,13,11,292,,15,56,322,38,21,10,318,,27,24,268,21,7*73
$GAGSV,3,3,10,30,14,215,24,36,08,098,,7*78
$GBGSV,2,1,07,04,01,262,,07,03,328,,27,78,059,44,28,29,115,34,1*79
$GBGSV,2,2,07,30,38,312,36,32,46,196,43,33,19,043,30,1*4A
$GNGLL,3806.62989,N,12237.61449,W,223805.00,A,D*64
$GNGST,223805.00,151766,2.5,2.3,144,1.0,0.97,3.0*4E
$GNZDA,223805.00,11,07,2020,00,00*71
$GNGBS,223805.00,1.0,1.0,3.0,,,,,,*52
$GNRMC,223806.00,A,3806.62990,N,12237.61455,W,0.014,,110720,,,D,V*01
$GNVTG,,T,,M,0.014,N,0.025,K,D*3A
$GNGGA,223806.00,3806.62990,N,12237.61455,W,2,12,0.59,81.5,M,-29.5,M,,0000*41
$GNGSA,A,3,29,20,10,18,51,44,26,,,,,,1.09,0.59,0.92,1*0F
$GNGSA,A,3,82,73,74,67,81,83,68,,,,,,1.09,0.59,0.92,2*0D
$GNGSA,A,3,03,05,30,27,15,,,,,,,,1.09,0.59,0.92,3*08
$GNGSA,A,3,32,28,30,33,27,,,,,,,,1.09,0.59,0.92,4*06
$GPGSV,4,1,16,05,01,047,,10,29,224,37,13,22,062,,15,40,094,,1*60
$GPGSV,4,2,16,16,25,306,27,18,68,358,39,20,63,235,38,21,35,292,,1*62
$GPGSV,4,3,16,23,58,225,,25,00,179,,26,33,265,34,27,07,316,,1*61
$GPGSV,4,4,16,29,46,133,44,44,45,171,45,46,45,191,43,51,43,156,43,1*67
$GLGSV,3,1,10,66,08,027,,67,55,052,41,68,56,168,45,69,09,194,20,1*7E
$GLGSV,3,2,10,73,13,281,27,74,10,317,13,81,09,110,13,82,51,077,40,1*7D
$GLGSV,3,3,10,83,52,346,28,84,05,307,,1*73
$GAGSV,3,1,10,03,44,149,40,05,42,071,40,08,08,190,21,09,06,034,,7*79
$GAGSV,3,2,10,13,11,292,,15,56,322,38,21,10,318,,27,24,268,19,7*78
$GAGSV,3,3,10,30,14,215,24,36,08,098,,7*78
$GBGSV,2,1,07,04,01,262,,07,03,328,,27,78,059,44,28,29,115,34,1*79
$GBGSV,2,2,07,30,38,312,36,32,46,196,43,33,19,043,30,1*4A
$GNGLL,3806.62990,N,12237.61455,W,223806.00,A,D*62
$GNGST,223806.00,230042,2.5,2.3,143,1.0,0.97,3.0*4F
$GNZDA,223806.00,11,07,2020,00,00*72
$GNGBS,223806.00,1.0,1.0,3.0,,,,,,*51
$GNRMC,223807.00,A,3806.62992,N,12237.61461,W,0.037,,110720,,,D,V*04
$GNVTG,,T,,M,0.037,N,0.068,K,D*32
$GNGGA,223807.00,3806.62992,N,12237.61461,W,2,12,0.60,81.4,M,-29.5,M,,0000*4E
$GNGSA,A,3,29,20,10,18,16,51,44,26,,,,,1.22,0.60,1.07,1*06
$GNGSA,A,3,82,73,74,67,81,83,68,,,,,,1.22,0.60,1.07,2*03
$GNGSA,A,3,03,05,30,27,15,,,,,,,,1.22,0.60,1.07,3*06
$GNGSA,A,3,32,28,30,33,27,,,,,,,,1.22,0.60,1.07,4*08
$GPGSV,4,1,16,05,01,047,,10,29,224,37,13,22,062,,15,40,094,,1*60
$GPGSV,4,2,16,16,25,306,28,18,68,358,39,20,63,235,37,21,35,292,,1*62
$GPGSV,4,3,16,23,58,225,,25,00,179,,26,33,265,34,27,07,316,,1*61
$GPGSV,4,4,16,29,46,133,44,44,45,171,45,46,45,191,43,51,43,156,43,1*67
$GLGSV,3,1,10,66,08,027,,67,55,052,40,68,56,168,45,69,09,194,20,1*7F
$GLGSV,3,2,10,73,13,281,28,74,10,317,19,81,09,110,13,82,51,077,40,1*78
$GLGSV,3,3,10,83,52,346,28,84,05,307,,1*73
$GAGSV,3,1,10,03,44,149,40,05,42,071,40,08,08,190,21,09,06,034,,7*79
$GAGSV,3,2,10,13,11,292,,15,56,322,38,21,10,318,,27,24,268,22,7*70
$GAGSV,3,3,10,30,14,215,23,36,08,098,,7*7F
$GBGSV,2,1,07,04,01,262,,07,03,328,,27,78,059,43,28,29,115,35,1*7F
$GBGSV,2,2,07,30,38,312,36,32,46,196,43,33,19,043,29,1*42
$GNGLL,3806.62992,N,12237.61461,W,223807.00,A,D*66
$GNGST,223807.00,855,2.5,2.3,143,1.0,0.97,3.0*71
$GNZDA,223807.00,11,07,2020,00,00*73
$GNGBS,223807.00,1.0,1.0,3.0,,,,,,*50
$GNRMC,223808.00,A,3806.62993,N,12237.61469,W,0.039,,110720,,,D,V*0C
$GNVTG,,T,,M,0.039,N,0.072,K,D*37
$GNGGA,223808.00,3806.62993,N,12237.61469,W,2,12,0.57,81.4,M,-29.5,M,,0000*4C
$GNGSA,A,3,29,20,10,18,16,51,44,26,,,,,1.07,0.57,0.91,1*0B
$GNGSA,A,3,82,73,74,67,81,83,68,,,,,,1.07,0.57,0.91,2*0E
$GNGSA,A,3,03,05,30,27,15,,,,,,,,1.07,0.57,0.91,3*0B
$GNGSA,A,3,32,28,30,33,27,,,,,,,,1.07,0.57,0.91,4*05
$GPGSV,4,1,16,05,01,047,,10,29,224,37,13,22,062,,15,40,094,,1*60
$GPGSV,4,2,16,16,25,306,28,18,68,358,39,20,63,235,38,21,35,292,,1*6D
$GPGSV,4,3,16,23,58,225,,25,00,179,,26,33,265,35,27,07,316,,1*60
$GPGSV,4,4,16,29,46,133,44,44,45,171,45,46,45,191,43,51,43,156,43,1*67
$GLGSV,3,1,10,66,08,027,,67,55,052,40,68,56,168,45,69,09,194,20,1*7F
$GLGSV,3,2,10,73,13,281,29,74,10,317,15,81,09,110,14,82,50,078,40,1*7C
$GLGSV,3,3,10,83,52,346,28,84,05,307,,1*73
$GAGSV,3,1,10,03,44,149,40,05,42,071,40,08,08,190,22,09,06,034,,7*7A
$GAGSV,3,2,10,13,11,292,,15,56,322,38,21,10,318,,27,24,268,22,7*70
$GAGSV,3,3,10,30,14,215,23,36,08,098,,7*7F
$GBGSV,2,1,07,04,01,262,,07,03,328,,27,78,059,44,28,29,115,35,1*78
$GBGSV,2,2,07,30,38,312,36,32,46,196,43,33,19,043,29,1*42
$GNGLL,3806.62993,N,12237.61469,W,223808.00,A,D*60
$GNGST,223808.00,151766,2.5,2.3,144,1.0,0.97,3.0*43
$GNZDA,223808.00,11,07,2020,00,00*7C
$GNGBS,223808.00,1.0,1.0,3.0,,,,,,*5F
$GNRMC,223809.00,A,3806.62995,N,12237.61476,W,0.072,,110720,,,D,V*0A
$GNVTG,,T,,M,0.072,N,0.133,K,D*3C
$GNGGA,223809.00,3806.62995,N,12237.61476,W,2,12,0.55,81.3,M,-29.5,M,,0000*40
$GNGSA,A,3,29,20,10,18,16,51,44,26,,,,,1.01,0.55,0.85,1*0A
$GNGSA,A,3,82,73,74,67,81,83,68,,,,,,1.01,0.55,0.85,2*0F
$GNGSA,A,3,03,05,30,27,15,,,,,,,,1.01,0.55,0.85,3*0A
$GNGSA,A,3,32,28,30,33,27,,,,,,,,1.01,0.55,0.85,4*04
$GPGSV,4,1,16,05,01,047,,10,29,224,37,13,22,062,,15,40,094,,1*60
$GPGSV,4,2,16,16,25,306,29,18,68,358,39,20,63,235,38,21,35,292,,1*6C
$GPGSV,4,3,16,23,58,225,,25,00,179,,26,33,265,34,27,07,316,,1*61
$GPGSV,4,4,16,29,46,133,44,44,45,171,45,46,45,191,42,51,43,156,43,1*66
$GLGSV,3,1,10,66,08,027,,67,55,052,41,68,56,168,45,69,09,194,21,1*7F
$GLGSV,3,2,10,73,13,281,28,74,10,317,15,81,09,110,14,82,50,078,40,1*7D
$GLGSV,3,3,10,83,53,348,28,84,05,307,,1*7C
$GAGSV,3,1,10,03,44,149,40,05,42,071,40,08,08,190,22,09,06,034,,7*7A
$GAGSV,3,2,10,13,11,292,,15,56,322,38,21,10,318,,27,24,268,22,7*70
$GAGSV,3,3,10,30,14,215,24,36,08,098,,7*78
$GBGSV,2,1,07,04,01,262,,07,03,328,,27,78,059,44,28,29,115,34,1*79
$GBGSV,2,2,07,30,38,312,36,32,46,196,43,33,19,043,28,1*43
$GNGLL,3806.62995,N,12237.61476,W,223809.00,A,D*69
$GNGST,223809.00,220649,2.5,2.3,144,1.0,0.97,3.0*4B
$GNZDA,223809.00,11,07,2020,00,00*7D
$GNGBS,223809.00,1.0,1.0,3.0,,,,,,*5E
$GNRMC,223810.00,A,3806.62997,N,12237.61483,W,0.023,,110720,,,D,V*0E
$GNVTG,,T,,M,0.023,N,0.042,K,D*3F
$GNGGA,223810.00,3806.62997,N,12237.61483,W,2,12,0.61,81.4,M,-29.5,M,,0000*40
$GNGSA,A,3,29,20,10,18,16,51,44,26,,,,,1.23,0.61,1.07,1*06
$GNGSA,A,3,82,73,67,81,83,68,,,,,,,1.23,0.61,1.07,2*00
$GNGSA,A,3,03,05,30,15,,,,,,,,,1.23,0.61,1.07,3*03
$GNGSA,A,3,32,28,30,33,27,,,,,,,,1.23,0.61,1.07,4*08
$GPGSV,4,1,16,05,01,047,,10,29,224,38,13,22,062,,15,40,094,,1*6F
$GPGSV,4,2,16,16,25,306,28,18,68,358,39,20,63,235,38,21,35,292,,1*6D
$GPGSV,4,3,16,23,58,225,,25,00,179,,26,33,265,33,27,07,316,,1*66
$GPGSV,4,4,16,29,46,133,44,44,45,171,45,46,45,191,43,51,43,156,43,1*67
$GLGSV,3,1,10,66,08,027,,67,55,052,40,68,56,168,45,69,09,194,22,1*7D
$GLGSV,3,2,10,73,13,281,28,74,10,317,10,81,09,110,11,82,50,078,40,1*7D
$GLGSV,3,3,10,83,53,348,28,84,06,307,,1*7F
$GAGSV,3,1,10,03,44,149,40,05,42,071,40,08,08,190,21,09,06,034,,7*79
$GAGSV,3,2,10,13,11,292,,15,56,322,38,21,10,318,,27,24,268,,7*70
$GAGSV,3,3,10,30,14,215,23,36,08,098,,7*7F
$GBGSV,2,1,07,04,01,262,,07,03,328,,27,78,059,43,28,29,115,34,1*7E
$GBGSV,2,2,07,30,38,312,36,32,46,196,43,33,19,043,27,1*4C
$GNGLL,3806.62997,N,12237.61483,W,223810.00,A,D*69
$GNGST,223810.00,874,2.5,2.3,145,1.0,0.96,3.0*73
$GNZDA,223810.00,11,07,2020,00,00*75
$GNGBS,223810.00,1.0,1.0,3.0,,,,,,*56
$GNRMC,223811.00,A,3806.62998,N,12237.61488,W,0.053,,110720,,,D,V*0C
$GNVTG,,T,,M,0.053,N,0.099,K,D*3E
$GNGGA,223811.00,3806.62998,N,12237.61488,W,2,12,0.58,81.3,M,-29.5,M,,0000*48
$GNGSA,A,3,29,20,10,18,16,51,44,26,,,,,1.08,0.58,0.92,1*08
$GNGSA,A,3,82,73,67,81,83,68,,,,,,,1.08,0.58,0.92,2*0E
$GNGSA,A,3,03,05,30,15,,,,,,,,,1.08,0.58,0.92,3*0D
$GNGSA,A,3,32,28,30,33,27,,,,,,,,1.08,0.58,0.92,4*06
$GPGSV,4,1,16,05,01,047,,10,29,224,37,13,22,062,,15,40,094,,1*60
$GPGSV,4,2,16,16,25,306,27,18,68,358,39,20,63,235,38,21,35,292,,1*62
$GPGSV,4,3,16,23,58,225,,25,00,179,,26,33,265,32,27,07,316,,1*67
$GPGSV,4,4,16,29,46,133,44,44,45,171,45,46,45,191,43,51,43,156,43,1*67
$GLGSV,3,1,10,66,08,027,,67,55,052,39,68,56,168,45,69,09,194,22,1*73
$GLGSV,3,2,10,73,13,281,28,74,10,317,12,81,09,110,15,82,50,078,40,1*7B
$GLGSV,3,3,10,83,53,348,28,84,06,307,,1*7F
$GAGSV,3,1,10,03,44,149,40,05,42,071,40,08,08,190,22,09,06,034,,7*7A
$GAGSV,3,2,10,13,11,292,,15,56,322,39,21,10,318,,27,24,268,22,7*71
$GAGSV,3,3,10,30,14,215,24,36,08,098,,7*78
$GBGSV,2,1,07,04,01,262,,07,03,328,,27,78,059,43,28,29,115,34,1*7E
$GBGSV,2,2,07,30,38,312,37,32,46,196,43,33,19,043,27,1*4D
$GNGLL,3806.62998,N,12237.61488,W,223811.00,A,D*6C
$GNGST,223811.00,155030,2.5,2.3,146,1.0,0.96,3.0*48
$GNZDA,223811.00,11,07,2020,00,00*74
$GNGBS,223811.00,1.0,1.0,3.0,,,,,,*57
$GNRMC,223812.00,A,3806.62999,N,12237.61494,W,0.033,,110720,,,D,V*05
$GNVTG,,T,,M,0.033,N,0.060,K,D*3E
$GNGGA,223812.00,3806.62999,N,12237.61494,W,2,12,0.56,81.4,M,-29.5,M,,0000*4E
$GNGSA,A,3,29,20,10,18,16,51,44,26,,,,,1.02,0.56,0.86,1*09
$GNGSA,A,3,82,73,74,67,81,83,68,,,,,,1.02,0.56,0.86,2*0C
$GNGSA,A,3,03,05,30,15,,,,,,,,,1.02,0.56,0.86,3*0C
$GNGSA,A,3,32,28,30,33,27,,,,,,,,1.02,0.56,0.86,4*07
$GPGSV,4,1,16,05,01,047,,10,29,224,38,13,22,062,,15,40,094,,1*6F
$GPGSV,4,2,16,16,25,306,28,18,68,358,39,20,63,235,37,21,35,292,,1*62
$GPGSV,4,3,16,23,58,225,,25,00,179,,26,33,265,33,27,07,316,,1*66
$GPGSV,4,4,16,29,46,133,44,44,45,171,45,46,45,191,43,51,43,156,43,1*67
$GLGSV,3,1,10,66,08,027,,67,55,052,40,68,56,168,45,69,09,194,21,1*7E
$GLGSV,3,2,10,73,13,281,28,74,10,317,17,81,09,110,11,82,50,078,40,1*7A
$GLGSV,3,3,10,83,53,348,28,84,06,307,,1*7F
$GAGSV,3,1,10,03,44,149,39,05,42,071,40,08,08,190,22,09,06,034,,7*74
$GAGSV,3,2,10,13,11,292,,15,56,322,39,21,10,318,,27,24,268,21,7*72
$GAGSV,3,3,10,30,14,215,24,36,08,098,,7*78
$GBGSV,2,1,07,04,01,262,,07,03,328,,27,78,059,43,28,29,115,34,1*7E
$GBGSV,2,2,07,30,38,312,36,32,46,196,43,33,19,043,27,1*4C
$GNGLL,3806.62999,N,12237.61494,W,223812.00,A,D*63
$GNGST,223812.00,225199,2.5,2.3,147,1.0,0.96,3.0*4C
$GNZDA,223812.00,11,07,2020,00,00*77
$GNGBS,223812.00,1.0,1.0,3.0,,,,,,*54
$GNRMC,223813.00,A,3806.63001,N,12237.61500,W,0.035,,110720,,,D,V*07
$GNVTG,,T,,M,0.035,N,0.065,K,D*3D
$GNGGA,223813.00,3806.63001,N,12237.61500,W,2,12,0.59,81.3,M,-29.5,M,,0000*42
$GNGSA,A,3,29,20,10,18,16,51,44,26,,,,,1.16,0.59,1.00,1*0C
$GNGSA,A,3,82,73,74,67,81,83,68,,,,,,1.16,0.59,1.00,2*09
$GNGSA,A,3,03,05,30,15,,,,,,,,,1.16,0.59,1.00,3*09
$GNGSA,A,3,32,28,30,33,27,,,,,,,,1.16,0.59,1.00,4*02
$GPGSV,4,1,16,05,01,047,,10,29,224,38,13,22,062,,15,40,094,,1*6F
$GPGSV,4,2,16,16,25,306,28,18,68,358,39,20,63,235,38,21,35,292,,1*6D
$GPGSV,4,3,16,23,58,225,,25,00,179,,26,33,265,33,27,07,316,,1*66
$GPGSV,4,4,16,29,46,133,44,44,45,171,45,46,45,191,42,51,43,156,43,1*66
$GLGSV,3,1,10,66,08,027,,67,55,052,40,68,56,168,45,69,09,194,20,1*7F
$GLGSV,3,2,10,73,13,281,27,74,10,317,19,81,09,110,12,82,50,078,41,1*79
$GLGSV,3,3,10,83,53,348,28,84,06,307,,1*7F
$GAGSV,3,1,10,03,44,149,40,05,42,071,40,08,08,190,21,09,06,034,,7*79
$GAGSV,3,2,10,13,11,292,,15,56,322,39,21,10,318,,27,24,268,20,7*73
$GAGSV,3,3,10,30,14,215,26,36,08,098,,7*7A
$GBGSV,2,1,07,04,01,262,,07,03,328,,27,78,059,43,28,29,115,35,1*7F
$GBGSV,2,2,07,30,38,312,35,32,46,196,43,33,19,043,29,1*41
$GNGLL,3806.63001,N,12237.61500,W,223813.00,A,D*67
$GNGST,223813.00,854,2.5,2.3,147,1.0,0.96,3.0*70
$GNZDA,223813.00,11,07,2020,00,00*76
$GNGBS,223813.00,1.0,1.0,3.0,,,,,,*55
$GNRMC,223814.00,A,3806.63000,N,12237.61506,W,0.027,,110720,,,D,V*04
$GNVTG,,T,,M,0.027,N,0.051,K,D*39
$GNGGA,223814.00,3806.63000,N,12237.61506,W,2,12,0.56,81.3,M,-29.5,M,,0000*4D
$GNGSA,A,3,29,20,10,18,16,51,44,26,,,,,1.02,0.56,0.86,1*09
$GNGSA,A,3,82,73,74,67,81,83,68,,,,,,1.02,0.56,0.86,2*0C
$GNGSA,A,3,03,05,30,27,15,,,,,,,,1.02,0.56,0.86,3*09
$GNGSA,A,3,32,28,30,33,27,,,,,,,,1.02,0.56,0.86,4*07
$GPGSV,4,1,16,05,01,047,,10,29,224,37,13,22,062,,15,40,094,,1*60
$GPGSV,4,2,16,16,25,306,27,18,68,358,40,20,63,235,38,21,35,292,,1*6C
$GPGSV,4,3,16,23,58,225,,25,00,179,,26,33,265,34,27,07,316,,1*61
$GPGSV,4,4,16,29,46,133,44,44,45,171,45,46,45,191,42,51,43,156,44,1*61
$GLGSV,3,1,10,66,08,027,,67,55,052,40,68,56,168,44,69,09,194,21,1*7F
$GLGSV,3,2,10,73,13,281,27,74,10,317,19,81,09,110,15,82,50,078,40,1*7F
$GLGSV,3,3,10,83,53,348,28,84,06,307,,1*7F
$GAGSV,3,1,10,03,44,149,40,05,42,071,40,08,08,190,21,09,06,034,,7*79
$GAGSV,3,2,10,13,11,292,,15,56,322,39,21,10,318,,27,24,268,21,7*72
$GAGSV,3,3,10,30,14,215,25,36,08,098,,7*79
$GBGSV,2,1,07,04,01,262,,07,03,328,,27,78,059,43,28,29,115,35,1*7F
$GBGSV,2,2,07,30,38,312,37,32,46,196,43,33,19,043,29,1*43
$GNGLL,3806.63000,N,12237.61506,W,223814.00,A,D*67
$GNGST,223814.00,151766,2.5,2.3,148,1.0,0.96,3.0*43
$GNZDA,223814.00,11,07,2020,00,00*71
$GNGBS,223814.00,1.0,1.0,3.0,,,,,,*52
$GNRMC,223815.00,A,3806.63001,N,12237.61510,W,0.056,,110720,,,D,V*05
$GNVTG,,T,,M,0.056,N,0.104,K,D*3E
$GNGGA,223815.00,3806.63001,N,12237.61510,W,2,12,0.56,81.3,M,-29.5,M,,0000*4A
$GNGSA,A,3,29,20,10,18,16,51,44,26,,,,,1.02,0.56,0.86,1*09
$GNGSA,A,3,82,73,74,67,81,83,68,,,,,,1.02,0.56,0.86,2*0C
$GNGSA,A,3,03,05,30,27,15,,,,,,,,1.02,0.56,0.86,3*09
$GNGSA,A,3,32,28,30,33,27,,,,,,,,1.02,0.56,0.86,4*07
$GPGSV,4,1,16,05,01,047,,10,29,224,37,13,22,062,,15,40,094,,1*60
$GPGSV,4,2,16,16,25,306,27,18,68,358,40,20,63,235,38,21,35,292,,1*6C
$GPGSV,4,3,16,23,58,225,,25,00,179,,26,33,265,35,27,07,316,,1*60
$GPGSV,4,4,16,29,46,133,44,44,45,171,45,46,45,191,42,51,43,156,44,1*61
$GLGSV,3,1,10,66,08,027,,67,55,052,40,68,56,168,45,69,09,194,22,1*7D
$GLGSV,3,2,10,73,13,281,26,74,10,317,19,81,09,110,13,82,50,078,40,1*78
$GLGSV,3,3,10,83,53,348,28,84,06,307,,1*7F
$GAGSV,3,1,10,03,44,149,39,05,42,071,40,08,08,190,20,09,06,034,,7*76
$GAGSV,3,2,10,13,11,292,,15,56,322,39,21,10,318,,27,24,268,20,7*73
$GAGSV,3,3,10,30,14,215,24,36,08,098,,7*78
$GBGSV,2,1,07,04,01,262,,07,03,328,,27,78,059,43,28,29,115,35,1*7F
$GBGSV,2,2,07,30,38,312,36,32,46,196,43,33,19,043,29,1*42
$GNGLL,3806.63001,N,12237.61510,W,223815.00,A,D*60
$GNGST,223815.00,225199,2.5,2.3,148,1.0,0.96,3.0*44
$GNZDA,223815.00,11,07,2020,00,00*70
$GNGBS,223815.00,1.0,1.0,3.0,,,,,,*53
$GNRMC,223816.00,A,3806.63003,N,12237.61514,W,0.047,,110720,,,D,V*00
$GNVTG,,T,,M,0.047,N,0.088,K,D*3B
$GNGGA,223816.00,3806.63003,N,12237.61514,W,2,12,0.56,81.3,M,-29.5,M,,0000*4F
$GNGSA,A,3,29,20,10,18,16,51,44,26,,,,,1.02,0.56,0.86,1*09
$GNGSA,A,3,82,73,74,67,81,83,68,,,,,,1.02,0.56,0.86,2*0C
$GNGSA,A,3,03,05,30,27,15,,,,,,,,1.02,0.56,0.86,3*09
$GNGSA,A,3,32,28,30,33,27,,,,,,,,1.02,0.56,0.86,4*07
$GPGSV,4,1,16,05,01,047,,10,29,224,37,13,22,062,,15,40,094,,1*60
$GPGSV,4,2,16,16,25,306,25,18,68,358,39,20,63,235,38,21,35,292,,1*60
$GPGSV,4,3,16,23,58,225,,25,00,179,,26,33,265,35,27,07,316,,1*60
$GPGSV,4,4,16,29,46,133,44,44,45,171,45,46,45,191,42,51,43,156,44,1*61
$GLGSV,3,1,10,66,08,027,,67,55,052,40,68,56,168,45,69,09,194,23,1*7C
$GLGSV,3,2,10,73,13,281,24,74,10,317,20,81,09,110,16,82,50,078,40,1*75
$GLGSV,3,3,10,83,53,348,28,84,06,307,,1*7F
$GAGSV,3,1,10,03,44,149,39,05,42,071,40,08,08,190,21,09,06,034,,7*77
$GAGSV,3,2,10,13,11,292,,15,56,322,38,21,10,318,,27,24,268,18,7*79
$GAGSV,3,3,10,30,14,215,24,36,08,098,,7*78
$GBGSV,2,1,07,04,01,262,,07,03,328,,27,78,059,43,28,29,115,34,1*7E
$GBGSV,2,2,07,30,38,312,36,32,46,196,43,33,19,043,30,1*4A
$GNGLL,3806.63003,N,12237.61514,W,223816.00,A,D*65
$GNGST,223816.00,837,2.5,2.3,148,1.0,0.96,3.0*7F
$GNZDA,223816.00,11,07,2020,00,00*73
$GNGBS,223816.00,1.0,1.0,3.0,,,,,,*50
$GNRMC,223817.00,A,3806.63006,N,12237.61518,W,0.045,,110720,,,D,V*0A
$GNVTG,,T,,M,0.045,N,0.083,K,D*32
$GNGGA,223817.00,3806.63006,N,12237.61518,W,2,12,0.57,81.3,M,-29.5,M,,0000*46
$GNGSA,A,3,29,20,10,18,51,44,26,,,,,,1.04,0.57,0.86,1*09
$GNGSA,A,3,82,73,74,67,81,83,68,,,,,,1.04,0.57,0.86,2*0B
$GNGSA,A,3,03,05,30,27,15,,,,,,,,1.04,0.57,0.86,3*0E
$GNGSA,A,3,32,28,30,33,27,,,,,,,,1.04,0.57,0.86,4*00
$GPGSV,4,1,16,05,01,047,,10,29,224,38,13,22,062,,15,40,094,,1*6F
$GPGSV,4,2,16,16,25,306,,18,68,358,40,20,63,235,38,21,35,292,,1*69
$GPGSV,4,3,16,23,58,225,,25,00,179,,26,33,265,35,27,07,316,,1*60
$GPGSV,4,4,16,29,46,133,44,44,45,171,45,46,45,191,42,51,43,156,43,1*66
$GLGSV,3,1,10,66,08,027,,67,55,052,41,68,56,168,44,69,09,194,22,1*7D
$GLGSV,3,2,10,73,13,281,24,74,10,317,20,81,09,110,13,82,50,078,40,1*70
$GLGSV,3,3,10,83,53,348,28,84,06,307,,1*7F
$GAGSV,3,1,10,03,44,149,39,05,42,071,40,08,08,190,22,09,06,034,,7*74
$GAGSV,3,2,10,13,11,292,,15,56,322,39,21,10,318,,27,24,268,15,7*75
$GAGSV,3,3,10,30,14,215,24,36,08,098,,7*78
$GBGSV,2,1,07,04,01,262,,07,03,328,,27,78,059,43,28,29,115,35,1*7F
$GBGSV,2,2,07,30,38,312,37,32,46,196,43,33,19,043,31,1*4A
$GNGLL,3806.63006,N,12237.61518,W,223817.00,A,D*6D
$GNGST,223817.00,155030,2.5,2.3,147,1.0,0.96,3.0*4F
$GNZDA,223817.00,11,07,2020,00,00*72
$GNGBS,223817.00,1.0,1.0,3.0,,,,,,*51
$GNRMC,223818.00,A,3806.63008,N,12237.61523,W,0.011,,110720,,,D,V*02
$GNVTG,,T,,M,0.011,N,0.021,K,D*3B
$GNGGA,223818.00,3806.63008,N,12237.61523,W,2,12,0.57,81.4,M,-29.5,M,,0000*48
$GNGSA,A,3,29,20,10,18,51,44,26,,,,,,1.03,0.57,0.86,1*0E
$GNGSA,A,3,82,73,74,67,81,83,68,,,,,,1.03,0.57,0.86,2*0C
$GNGSA,A,3,03,05,30,27,15,,,,,,,,1.03,0.57,0.86,3*09
$GNGSA,A,3,32,28,30,33,27,,,,,,,,1.03,0.57,0.86,4*07
$GPGSV,4,1,16,05,01,047,,10,29,224,38,13,22,062,,15,40,094,,1*6F
$GPGSV,4,2,16,16,25,306,25,18,68,358,40,20,63,235,39,21,35,292,,1*6F
$GPGSV,4,3,16,23,58,225,,25,00,179,,26,33,265,35,27,07,316,,1*60
$GPGSV,4,4,16,29,46,133,44,44,45,171,45,46,45,191,42,51,43,156,43,1*66
$GLGSV,3,1,10,66,08,027,,67,55,052,41,68,56,168,45,69,09,194,20,1*7E
$GLGSV,3,2,10,73,13,281,25,74,10,317,21,81,09,110,13,82,50,078,40,1*70
$GLGSV,3,3,10,83,53,348,28,84,06,307,,1*7F
$GAGSV,3,1,10,03,44,149,39,05,42,071,40,08,08,190,22,09,06,034,,7*74
$GAGSV,3,2,10,13,11,292,,15,56,322,39,21,10,318,,27,24,268,15,7*75
$GAGSV,3,3,10,30,14,215,23,36,08,098,,7*7F
$GBGSV,2,1,07,04,01,262,,07,03,328,,27,78,059,43,28,29,115,35,1*7F
$GBGSV,2,2,07,30,38,312,37,32,46,196,43,33,19,043,32,1*49
$GNGLL,3806.63008,N,12237.61523,W,223818.00,A,D*64
$GNGST,223818.00,230042,2.5,2.3,146,0.99,0.96,3.0*75
$GNZDA,223818.00,11,07,2020,00,00*7D
$GNGBS,223818.00,1.0,1.0,3.0,,,,,,*5E
$GNRMC,223819.00,A,3806.63011,N,12237.61527,W,0.036,,110720,,,D,V*0A
$GNVTG,,T,,M,0.036,N,0.067,K,D*3C
$GNGGA,223819.00,3806.63011,N,12237.61527,W,2,12,0.57,81.5,M,-29.5,M,,0000*44
$GNGSA,A,3,29,20,10,18,51,44,26,,,,,,1.03,0.57,0.86,1*0E
$GNGSA,A,3,82,73,74,67,81,83,68,,,,,,1.03,0.57,0.86,2*0C
$GNGSA,A,3,03,05,30,27,15,,,,,,,,1.03,0.57,0.86,3*09
$GNGSA,A,3,32,28,30,33,27,,,,,,,,1.03,0.57,0.86,4*07
$GPGSV,4,1,16,05,01,047,,10,29,224,37,13,22,062,,15,40,094,,1*60
$GPGSV,4,2,16,16,25,306,24,18,68,358,40,20,63,235,38,21,35,292,,1*6F
$GPGSV,4,3,16,23,58,225,,25,00,179,,26,33,265,36,27,07,316,,1*63
$GPGSV,4,4,16,29,46,133,44,44,45,171,45,46,45,191,43,51,43,156,43,1*67
$GLGSV,3,1,10,66,08,027,,67,55,052,40,68,56,168,44,69,09,194,20,1*7E
$GLGSV,3,2,10,73,13,281,24,74,10,317,21,81,09,110,13,82,50,078,41,1*70
$GLGSV,3,3,10,83,53,348,28,84,06,307,,1*7F
$GAGSV,3,1,10,03,44,149,40,05,42,071,39,08,08,190,22,09,06,034,,7*74
$GAGSV,3,2,10,13,11,292,,15,56,322,38,21,10,318,,27,24,268,15,7*74
$GAGSV,3,3,10,30,14,215,24,36,08,098,,7*78
$GBGSV,2,1,07,04,01,262,,07,03,328,,27,78,059,44,28,29,115,34,1*79
$GBGSV,2,2,07,30,38,312,37,32,46,196,43,33,19,043,32,1*49
$GNGLL,3806.63011,N,12237.61527,W,223819.00,A,D*69
$GNGST,223819.00,855,2.5,2.3,145,0.99,0.95,3.0*4B
$GNZDA,223819.00,11,07,2020,00,00*7C
$GNGBS,223819.00,1.0,1.0,3.0,,,,,,*5F
$GNRMC,223820.00,A,3806.63013,N,12237.61532,W,0.021,,110720,,,D,V*00
$GNVTG,,T,,M,0.021,N,0.039,K,D*31
$GNGGA,223820.00,3806.63013,N,12237.61532,W,2,12,0.57,81.5,M,-29.5,M,,0000*48
$GNGSA,A,3,29,20,10,18,51,44,26,,,,,,1.03,0.57,0.86,1*0E
$GNGSA,A,3,82,73,74,67,81,83,68,,,,,,1.03,0.57,0.86,2*0C
$GNGSA,A,3,03,05,30,27,15,,,,,,,,1.03,0.57,0.86,3*09
$GNGSA,A,3,32,28,30,33,27,,,,,,,,1.03,0.57,0.86,4*07
$GPGSV,4,1,16,05,00,047,,10,29,224,37,13,22,062,,15,40,094,,1*61
$GPGSV,4,2,16,16,25,306,22,18,68,358,39,20,63,235,38,21,35,292,,1*67
$GPGSV,4,3,16,23,58,225,,25,00,179,,26,33,265,35,27,07,316,,1*60
$GPGSV,4,4,16,29,46,133,44,44,45,171,45,46,45,191,43,51,43,156,43,1*67
$GLGSV,3,1,10,66,08,027,,67,55,052,40,68,56,168,45,69,09,194,20,1*7F
$GLGSV,3,2,10,73,13,281,23,74,10,317,19,81,09,110,16,82,50,078,41,1*79
$GLGSV,3,3,10,83,53,348,29,84,06,307,,1*7E
$GAGSV,3,1,10,03,44,149,40,05,42,071,39,08,08,190,22,09,06,034,,7*74
$GAGSV,3,2,10,13,11,292,,15,56,322,39,21,10,318,,27,24,268,18,7*78
$GAGSV,3,3,10,30,14,215,25,36,08,098,,7*79
$GBGSV,2,1,07,04,01,262,,07,03,328,,27,78,059,44,28,29,115,35,1*78
$GBGSV,2,2,07,30,38,312,36,32,46,196,43,33,19,043,31,1*4B
$GNGLL,3806.63013,N,12237.61532,W,223820.00,A,D*65
$GNGST,223820.00,155030,2.5,2.3,145,0.99,0.95,3.0*7B
$GNZDA,223820.00,11,07,2020,00,00*76
$GNGBS,223820.00,1.0,1.0,3.0,,,,,,*55
$GNRMC,223821.00,A,3806.63014,N,12237.61537,W,0.041,,110720,,,D,V*05
$GNVTG,,T,,M,0.041,N,0.075,K,D*3F
$GNGGA,223821.00,3806.63014,N,12237.61537,W,2,12,0.56,81.6,M,-29.5,M,,0000*49
$GNGSA,A,3,29,20,10,18,16,51,44,26,,,,,1.02,0.56,0.86,1*09
$GNGSA,A,3,82,73,74,67,81,83,68,,,,,,1.02,0.56,0.86,2*0C
$GNGSA,A,3,03,05,30,27,15,,,,,,,,1.02,0.56,0.86,3*09
$GNGSA,A,3,32,28,30,33,27,,,,,,,,1.02,0.56,0.86,4*07
$GPGSV,4,1,16,05,00,047,,10,29,224,37,13,22,062,,15,40,094,,1*61
$GPGSV,4,2,16,16,25,306,21,18,68,358,40,20,63,235,39,21,35,292,,1*6B
$GPGSV,4,3,16,23,58,225,,25,00,179,,26,33,265,35,27,07,316,,1*60
$GPGSV,4,4,16,29,46,133,44,44,45,171,45,46,45,191,43,51,43,156,43,1*67
$GLGSV,3,1,10,66,08,027,,67,55,052,40,68,56,168,45,69,09,194,21,1*7E
$GLGSV,3,2,10,73,13,281,23,74,10,317,19,81,09,110,17,82,50,078,40,1*79
$GLGSV,3,3,10,83,53,348,28,84,06,307,,1*7F
$GAGSV,3,1,10,03,44,149,39,05,42,071,39,08,08,190,22,09,06,034,,7*7A
$GAGSV,3,2,10,13,11,292,,15,56,322,39,21,10,318,,27,24,268,19,7*79
$GAGSV,3,3,10,30,14,215,26,36,08,098,,7*7A
$GBGSV,2,1,07,04,01,262,,07,03,328,,27,78,059,44,28,29,115,34,1*79
$GBGSV,2,2,07,30,38,312,36,32,46,196,43,33,19,043,31,1*4B
$GNGLL,3806.63014,N,12237.61537,W,223821.00,A,D*66
$GNGST,223821.00,225199,2.5,2.3,145,0.99,0.96,3.0*7F
$GNZDA,223821.00,11,07,2020,00,00*77
$GNGBS,223821.00,1.0,1.0,3.0,,,,,,*54
$GNRMC,223822.00,A,3806.63015,N,12237.61543,W,0.015,,110720,,,D,V*05
$GNVTG,,T,,M,0.015,N,0.028,K,D*36
$GNGGA,223822.00,3806.63015,N,12237.61543,W,2,12,0.56,81.6,M,-29.5,M,,0000*48
$GNGSA,A,3,29,20,10,18,16,51,44,26,,,,,1.02,0.56,0.86,1*09
$GNGSA,A,3,82,73,74,67,81,83,68,,,,,,1.02,0.56,0.86,2*0C
$GNGSA,A,3,03,05,30,27,15,,,,,,,,1.02,0.56,0.86,3*09
$GNGSA,A,3,32,28,30,33,27,,,,,,,,1.02,0.56,0.86,4*07
$GPGSV,4,1,16,05,00,047,,10,29,224,36,13,22,062,,15,40,094,,1*60
$GPGSV,4,2,16,16,25,306,22,18,68,358,40,20,63,235,39,21,35,292,,1*68
$GPGSV,4,3,16,23,58,225,,25,00,179,,26,33,265,35,27,07,316,,1*60
$GPGSV,4,4,16,29,46,133,44,44,45,171,45,46,45,191,43,51,43,156,43,1*67
$GLGSV,3,1,10,66,08,027,,67,55,052,40,68,56,168,45,69,09,194,21,1*7E
$GLGSV,3,2,10,73,13,281,23,74,10,317,19,81,09,110,11,82,50,078,40,1*7F
$GLGSV,3,3,10,83,53,348,28,84,06,307,,1*7F
$GAGSV,3,1,10,03,44,149,39,05,42,071,39,08,08,190,21,09,06,034,,7*79
$GAGSV,3,2,10,13,11,292,,15,56,322,38,21,10,318,,27,24,268,20,7*72
$GAGSV,3,3,10,30,14,215,26,36,08,098,,7*7A
$GBGSV,2,1,07,04,01,262,,07,03,328,,27,78,059,44,28,29,115,34,1*79
$GBGSV,2,2,07,30,38,312,35,32,46,196,43,33,19,043,30,1*49
$GNGLL,3806.63015,N,12237.61543,W,223822.00,A,D*67
$GNGST,223822.00,837,2.5,2.3,145,0.99,0.96,3.0*44
$GNZDA,223822.00,11,07,2020,00,00*74
$GNGBS,223822.00,1.0,1.0,3.0,,,,,,*57
$GNRMC,223823.00,A,3806.63017,N,12237.61550,W,0.038,,110720,,,D,V*0B
$GNVTG,,T,,M,0.038,N,0.070,K,D*34
$GNGGA,223823.00,3806.63017,N,12237.61550,W,2,12,0.57,81.6,M,-29.5,M,,0000*48
$GNGSA,A,3,29,20,10,18,51,44,26,,,,,,1.03,0.57,0.86,1*0E
$GNGSA,A,3,82,73,74,67,81,83,68,,,,,,1.03,0.57,0.86,2*0C
$GNGSA,A,3,03,05,30,27,15,,,,,,,,1.03,0.57,0.86,3*09
$GNGSA,A,3,32,28,30,33,27,,,,,,,,1.03,0.57,0.86,4*07
$GPGSV,4,1,16,05,00,047,,10,29,224,37,13,22,062,,15,40,094,,1*61
$GPGSV,4,2,16,16,25,306,,18,68,358,41,20,63,235,38,21,35,292,,1*68
$GPGSV,4,3,16,23,58,225,,25,00,179,,26,33,265,35,27,07,316,,1*60
$GPGSV,4,4,16,29,46,133,44,44,45,171,45,46,45,191,43,51,43,156,43,1*67
$GLGSV,3,1,10,66,08,027,,67,55,052,39,68,56,168,45,69,09,194,20,1*71
$GLGSV,3,2,10,73,13,281,24,74,10,317,19,81,09,110,13,82,50,078,40,1*7A
$GLGSV,3,3,10,83,53,348,29,84,06,307,,1*7E
$GAGSV,3,1,10,03,44,149,39,05,42,071,39,08,08,190,20,09,06,034,,7*78
$GAGSV,3,2,10,13,11,292,,15,56,322,38,21,10,318,25,27,24,268,20,7*75
$GAGSV,3,3,10,30,14,215,26,36,08,098,,7*7A
$GBGSV,2,1,07,04,01,262,,07,03,328,,27,78,059,44,28,29,115,34,1*79
$GBGSV,2,2,07,30,38,312,36,32,46,196,43,33,19,043,28,1*43
$GNGLL,3806.63017,N,12237.61550,W,223823.00,A,D*66
$GNGST,223823.00,155030,2.5,2.3,145,0.99,0.96,3.0*7B
$GNZDA,223823.00,11,07,2020,00,00*75
$GNGBS,223823.00,1.0,1.0,3.0,,,,,,*56
$GNRMC,223824.00,A,3806.63018,N,12237.61555,W,0.031,,110720,,,D,V*0F
$GNVTG,,T,,M,0.031,N,0.058,K,D*37
$GNGGA,223824.00,3806.63018,N,12237.61555,W,2,12,0.57,81.6,M,-29.5,M,,0000*45
$GNGSA,A,3,29,20,10,18,51,44,26,,,,,,1.03,0.57,0.86,1*0E
$GNGSA,A,3,82,73,74,67,81,83,68,,,,,,1.03,0.57,0.86,2*0C
$GNGSA,A,3,03,05,30,27,15,,,,,,,,1.03,0.57,0.86,3*09
$GNGSA,A,3,32,28,30,33,27,,,,,,,,1.03,0.57,0.86,4*07
$GPGSV,4,1,16,05,00,047,,10,29,224,37,13,22,062,,15,40,094,,1*61
$GPGSV,4,2,16,16,25,306,,18,68,358,41,20,63,235,39,21,35,292,,1*69
$GPGSV,4,3,16,23,58,225,,25,00,179,,26,33,265,35,27,07,316,,1*60
$GPGSV,4,4,16,29,46,133,43,44,45,171,45,46,45,191,43,51,43,156,44,1*67
$GLGSV,3,1,10,66,08,027,,67,55,052,41,68,56,168,45,69,09,194,20,1*7E
$GLGSV,3,2,10,73,13,281,24,74,10,317,18,81,09,110,18,82,50,078,40,1*70
$GLGSV,3,3,10,83,53,348,28,84,06,307,,1*7F
$GAGSV,3,1,10,03,44,149,39,05,42,071,40,08,08,190,19,09,06,034,,7*7C
$GAGSV,3,2,10,13,11,292,,15,56,322,39,21,10,318,25,27,24,268,20,7*74
$GAGSV,3,3,10,30,14,215,26,36,08,098,,7*7A
$GBGSV,2,1,07,04,01,262,,07,03,328,,27,78,059,44,28,29,115,34,1*79
$GBGSV,2,2,07,30,38,312,36,32,46,196,43,33,19,043,29,1*42
$GNGLL,3806.63018,N,12237.61555,W,223824.00,A,D*6B
$GNGST,223824.00,230042,2.5,2.3,145,0.99,0.96,3.0*79
$GNZDA,223824.00,11,07,2020,00,00*72
$GNGBS,223824.00,1.0,1.0,3.0,,,,,,*51
$GNRMC,223825.00,A,3806.63017,N,12237.61558,W,0.026,,110720,,,D,V*0A
$GNVTG,,T,,M,0.026,N,0.047,K,D*3F
$GNGGA,223825.00,3806.63017,N,12237.61558,W,2,12,0.57,81.5,M,-29.5,M,,0000*45
$GNGSA,A,3,29,20,10,18,51,44,26,,,,,,1.03,0.57,0.86,1*0E
$GNGSA,A,3,82,73,74,67,81,83,68,,,,,,1.03,0.57,0.86,2*0C
$GNGSA,A,3,03,05,30,27,15,,,,,,,,1.03,0.57,0.86,3*09
$GNGSA,A,3,32,28,30,33,27,,,,,,,,1.03,0.57,0.86,4*07
$GPGSV,4,1,16,05,00,047,,10,30,225,36,13,22,062,,15,40,094,,1*69
$GPGSV,4,2,16,16,25,306,,18,68,358,40,20,63,235,39,21,35,292,,1*68
$GPGSV,4,3,16,23,58,225,,25,00,179,,26,33,265,35,27,07,316,,1*60
$GPGSV,4,4,16,29,46,133,43,44,45,171,45,46,45,191,43,51,43,156,44,1*67
$GLGSV,3,1,10,66,08,027,,67,55,052,41,68,56,168,45,69,09,194,20,1*7E
$GLGSV,3,2,10,73,13,281,25,74,10,317,17,81,09,110,14,82,50,078,40,1*72
$GLGSV,3,3,10,83,53,348,28,84,06,307,,1*7F
$GAGSV,3,1,10,03,44,149,39,05,42,071,40,08,08,190,19,09,06,034,,7*7C
$GAGSV,3,2,10,13,11,292,,15,56,322,39,21,10,318,25,27,24,268,19,7*7E
$GAGSV,3,3,10,30,14,215,26,36,08,098,,7*7A
$GBGSV,2,1,07,04,01,262,,07,03,328,,27,78,059,44,28,29,115,34,1*79
$GBGSV,2,2,07,30,38,312,37,32,46,196,44,33,19,043,29,1*44
$GNGLL,3806.63017,N,12237.61558,W,223825.00,A,D*68
$GNGST,223825.00,855,2.5,2.3,144,0.99,0.96,3.0*46
$GNZDA,223825.00,11,07,2020,00,00*73
$GNGBS,223825.00,1.0,1.0,3.0,,,,,,*50
$GNRMC,223826.00,A,3806.63017,N,12237.61560,W,0.057,,110720,,,D,V*04
$GNVTG,,T,,M,0.057,N,0.105,K,D*3E
$GNGGA,223826.00,3806.63017,N,12237.61560,W,2,12,0.57,81.4,M,-29.5,M,,0000*4C
$GNGSA,A,3,29,20,10,18,51,44,26,,,,,,1.03,0.57,0.86,1*0E
$GNGSA,A,3,82,73,74,67,81,83,68,,,,,,1.03,0.57,0.86,2*0C
$GNGSA,A,3,03,05,30,27,15,,,,,,,,1.03,0.57,0.86,3*09
$GNGSA,A,3,32,28,30,33,27,,,,,,,,1.03,0.57,0.86,4*07
$GPGSV,4,1,16,05,00,047,,10,30,225,37,13,22,062,,15,40,094,,1*68
$GPGSV,4,2,16,16,25,306,,18,68,358,40,20,63,235,39,21,35,292,,1*68
$GPGSV,4,3,16,23,58,225,,25,00,179,,26,33,265,34,27,07,316,,1*61
$GPGSV,4,4,16,29,46,133,43,44,45,171,45,46,45,191,43,51,43,156,43,1*60
$GLGSV,3,1,10,66,08,027,,67,55,052,40,68,56,168,45,69,09,194,20,1*7F
$GLGSV,3,2,10,73,13,281,26,74,10,317,18,81,09,110,13,82,50,078,40,1*79
$GLGSV,3,3,10,83,53,348,27,84,06,307,,1*70
$GAGSV,3,1,10,03,44,149,39,05,42,071,40,08,08,190,18,09,06,034,,7*7D
$GAGSV,3,2,10,13,11,292,,15,56,322,39,21,10,318,25,27,24,267,19,7*71
$GAGSV,3,3,10,30,14,215,25,36,08,098,,7*79
$GBGSV,2,1,07,04,01,262,,07,03,328,,27,78,059,44,28,29,115,35,1*78
$GBGSV,2,2,07,30,38,312,36,32,46,196,43,33,19,043,29,1*42
$GNGLL,3806.63017,N,12237.61560,W,223826.00,A,D*60
$GNGST,223826.00,869,2.5,2.3,144,0.99,0.96,3.0*4A
$GNZDA,223826.00,11,07,2020,00,00*70
$GNGBS,223826.00,1.0,1.0,3.0,,,,,,*53
$GNRMC,223827.00,A,3806.63017,N,12237.61561,W,0.054,,110720,,,D,V*07
$GNVTG,,T,,M,0.054,N,0.100,K,D*38
$GNGGA,223827.00,3806.63017,N,12237.61561,W,2,12,0.57,81.4,M,-29.5,M,,0000*4C
$GNGSA,A,3,29,20,10,18,51,44,26,,,,,,1.03,0.57,0.86,1*0E
$GNGSA,A,3,82,73,74,67,81,83,68,,,,,,1.03,0.57,0.86,2*0C
$GNGSA,A,3,03,05,30,27,15,,,,,,,,1.03,0.57,0.86,3*09
$GNGSA,A,3,32,28,30,33,27,,,,,,,,1.03,0.57,0.86,4*07
$GPGSV,4,1,16,05,00,047,,10,30,225,37,13,22,062,,15,40,094,,1*68
$GPGSV,4,2,16,16,25,306,,18,68,358,40,20,63,235,39,21,35,292,,1*68
$GPGSV,4,3,16,23,58,225,,25,00,179,,26,33,265,35,27,07,316,,1*60
$GPGSV,4,4,16,29,46,133,43,44,45,171,45,46,45,191,44,51,43,156,43,1*67
$GLGSV,3,1,10,66,08,027,,67,55,052,40,68,56,168,45,69,09,194,20,1*7F
$GLGSV,3,2,10,73,13,281,28,74,10,317,16,81,09,110,18,82,50,078,40,1*72
$GLGSV,3,3,10,83,53,348,27,84,06,307,,1*70
$GAGSV,3,1,10,03,44,149,40,05,42,071,40,08,08,190,19,09,06,034,,7*72
$GAGSV,3,2,10,13,11,292,,15,56,322,38,21,10,318,25,27,24,267,20,7*7A
$GAGSV,3,3,10,30,14,215,26,36,08,098,,7*7A
$GBGSV,2,1,07,04,01,262,,07,03,328,,27,78,059,43,28,29,115,35,1*7F
$GBGSV,2,2,07,30,38,312,36,32,46,196,44,33,19,043,30,1*4D
$GNGLL,3806.63017,N,12237.61561,W,223827.00,A,D*60
$GNGST,223827.00,869,2.5,2.3,144,0.99,0.96,3.0*4B
$GNZDA,223827.00,11,07,2020,00,00*71
$GNGBS,223827.00,1.0,1.0,3.0,,,,,,*52
$GNRMC,223828.00,A,3806.63017,N,12237.61560,W,0.034,,110720,,,D,V*0F
$GNVTG,,T,,M,0.034,N,0.062,K,D*3B
$GNGGA,223828.00,3806.63017,N,12237.61560,W,2,12,0.57,81.3,M,-29.5,M,,0000*45
$GNGSA,A,3,29,20,10,18,51,44,26,,,,,,1.03,0.57,0.86,1*0E
$GNGSA,A,3,82,73,74,67,81,83,68,,,,,,1.03,0.57,0.86,2*0C
$GNGSA,A,3,03,05,30,27,15,,,,,,,,1.03,0.57,0.86,3*09
$GNGSA,A,3,32,28,30,33,27,,,,,,,,1.03,0.57,0.86,4*07
$GPGSV,4,1,16,05,00,047,,10,30,225,37,13,22,061,,15,40,094,,1*6B
$GPGSV,4,2,16,16,25,306,,18,68,358,41,20,63,235,39,21,35,292,,1*69
$GPGSV,4,3,16,23,58,225,,25,00,179,,26,33,265,35,27,07,316,,1*60
$GPGSV,4,4,16,29,46,133,43,44,45,171,45,46,45,191,43,51,43,156,43,1*60
$GLGSV,3,1,10,66,08,027,,67,55,052,40,68,56,168,45,69,09,194,20,1*7F
$GLGSV,3,2,10,73,13,281,29,74,10,317,16,81,09,110,15,82,50,078,40,1*7E
$GLGSV,3,3,10,83,53,348,27,84,06,307,,1*70
$GAGSV,3,1,10,03,44,149,40,05,42,071,39,08,08,190,20,09,06,034,,7*76
$GAGSV,3,2,10,13,11,292,,15,56,322,38,21,10,318,25,27,24,267,19,7*70
$GAGSV,3,3,10,30,14,215,26,36,08,098,,7*7A
$GBGSV,2,1,07,04,01,262,,07,03,328,,27,78,059,43,28,29,115,36,1*7C
$GBGSV,2,2,07,30,38,312,36,32,46,196,43,33,19,043,30,1*4A
$GNGLL,3806.63017,N,12237.61560,W,223828.00,A,D*6E
$GNGST,223828.00,855,2.5,2.3,143,0.99,0.96,3.0*4C
$GNZDA,223828.00,11,07,2020,00,00*7E
$GNGBS,223828.00,1.0,1.0,3.0,,,,,,*5D
$GNRMC,223829.00,A,3806.63018,N,12237.61560,W,0.013,,110720,,,D,V*04
$GNVTG,,T,,M,0.013,N,0.023,K,D*3B
$GNGGA,223829.00,3806.63018,N,12237.61560,W,2,12,0.57,81.4,M,-29.5,M,,0000*4C
$GNGSA,A,3,29,20,10,18,51,44,26,,,,,,1.03,0.57,0.86,1*0E
$GNGSA,A,3,82,73,74,67,81,83,68,,,,,,1.03,0.57,0.86,2*0C
$GNGSA,A,3,03,05,30,27,15,,,,,,,,1.03,0.57,0.86,3*09
$GNGSA,A,3,32,28,30,33,27,,,,,,,,1.03,0.57,0.86,4*07
$GPGSV,4,1,16,05,00,047,,10,30,225,37,13,22,061,,15,40,094,,1*6B
$GPGSV,4,2,16,16,25,306,,18,68,358,40,20,63,235,39,21,35,292,,1*68
$GPGSV,4,3,16,23,58,225,,25,00,179,,26,33,265,35,27,07,316,,1*60
$GPGSV,4,4,16,29,46,133,43,44,45,171,45,46,45,191,44,51,43,156,43,1*67
$GLGSV,3,1,10,66,08,027,,67,55,052,40,68,56,168,45,69,09,194,20,1*7F
$GLGSV,3,2,10,73,13,281,28,74,10,317,15,81,09,110,20,82,50,078,40,1*7A
$GLGSV,3,3,10,83,53,348,27,84,06,307,,1*70
