$GPGSV,3,1,09,66,27,063,33,67,78,017,27,68,41,258,17,75,13,005,32*79
$GPGSV,3,2,09,76,28,063,38,77,14,111,00,82,38,202,18,83,60,271,00*71
$GPGSV,3,3,09,84,16,336,21*4E
{"class":"SKY","time":"2019-04-10T14:52:11.000Z","nSat":9,"uSat":3,"satellites":[{"PRN":66,"gnssid":6,"svid":2,"az":63.0,"el":27.0,"prRes":6.3,"qual":7,"ss":33.0,"used":true,"health":1},{"PRN":67,"gnssid":6,"svid":3,"az":17.0,"el":78.0,"prRes":1.7,"qual":3,"ss":27.0,"used":false,"health":1},{"PRN":68,"gnssid":6,"svid":4,"az":258.0,"el":41.0,"prRes":25.8,"qual":4,"ss":17.0,"used":false,"health":1},{"PRN":75,"gnssid":6,"svid":11,"az":5.0,"el":13.0,"prRes":0.5,"qual":7,"ss":32.0,"used":true,"health":1},{"PRN":76,"gnssid":6,"svid":12,"az":63.0,"el":28.0,"prRes":6.3,"qual":7,"ss":38.0,"used":true,"health":1},{"PRN":77,"gnssid":6,"svid":13,"az":111.0,"el":14.0,"prRes":11.1,"qual":0,"ss":0.0,"used":false,"health":1},{"PRN":82,"gnssid":6,"svid":18,"az":202.0,"el":38.0,"prRes":20.2,"qual":4,"ss":18.0,"used":false,"health":1},{"PRN":83,"gnssid":6,"svid":19,"az":271.0,"el":60.0,"prRes":27.1,"qual":1,"ss":0.0,"used":false,"health":1},{"PRN":84,"gnssid":6,"svid":20,"az":336.0,"el":16.0,"prRes":33.6,"qual":4,"ss":21.0,"used":false,"health":1}]}
$GPGSV,2,1,08,66,27,063,33,67,78,017,27,68,41,258,17,75,13,005,32*79
$GPGSV,2,2,08,76,28,063,38,82,38,202,18,83,60,271,00,84,16,336,21*7B
{"class":"SKY","time":"2019-04-10T14:52:11.000Z","nSat":8,"uSat":3,"satellites":[{"PRN":66,"gnssid":6,"svid":2,"freqid":3,"az":63.0,"el":27.0,"prRes":-0.7,"qual":7,"ss":33.0,"used":true,"health":1},{"PRN":67,"gnssid":6,"svid":3,"freqid":12,"az":17.0,"el":78.0,"prRes":-4.5,"qual":3,"ss":27.0,"used":false,"health":1},{"PRN":68,"gnssid":6,"svid":4,"freqid":13,"az":258.0,"el":41.0,"prRes":0.0,"qual":4,"ss":17.0,"used":false,"health":1},{"PRN":75,"gnssid":6,"svid":11,"freqid":7,"az":5.0,"el":13.0,"prRes":-0.2,"qual":7,"ss":32.0,"used":true,"health":1},{"PRN":76,"gnssid":6,"svid":12,"freqid":6,"az":63.0,"el":28.0,"prRes":0.2,"qual":7,"ss":38.0,"used":true,"health":1},{"PRN":82,"gnssid":6,"svid":18,"freqid":4,"az":202.0,"el":38.0,"prRes":0.0,"qual":4,"ss":18.0,"used":false,"health":1},{"PRN":83,"gnssid":6,"svid":19,"freqid":10,"az":271.0,"el":60.0,"prRes":0.0,"qual":1,"ss":0.0,"used":false,"health":1},{"PRN":84,"gnssid":6,"svid":20,"freqid":9,"az":336.0,"el":16.0,"prRes":0.0,"qual":4,"ss":21.0,"used":false,"health":1}]}
{"class":"SKY","time":"2019-04-10T14:52:11.000Z","vdop":1.00}
$GPGSV,3,1,09,66,27,063,34,67,78,017,28,68,41,258,16,75,13,005,32*70
$GPGSV,3,2,09,76,28,063,38,77,14,111,00,82,38,202,19,83,60,271,00*70
$GPGSV,3,3,09,84,16,336,21*4E
{"class":"SKY","time":"2023-06-28T14:52:12.000Z","nSat":9,"uSat":3,"satellites":[{"PRN":66,"gnssid":6,"svid":2,"az":63.0,"el":27.0,"prRes":6.3,"qual":7,"ss":34.0,"used":true,"health":1},{"PRN":67,"gnssid":6,"svid":3,"az":17.0,"el":78.0,"prRes":1.7,"qual":3,"ss":28.0,"used":false,"health":1},{"PRN":68,"gnssid":6,"svid":4,"az":258.0,"el":41.0,"prRes":25.8,"qual":4,"ss":16.0,"used":false,"health":1},{"PRN":75,"gnssid":6,"svid":11,"az":5.0,"el":13.0,"prRes":0.5,"qual":7,"ss":32.0,"used":true,"health":1},{"PRN":76,"gnssid":6,"svid":12,"az":63.0,"el":28.0,"prRes":6.3,"qual":7,"ss":38.0,"used":true,"health":1},{"PRN":77,"gnssid":6,"svid":13,"az":111.0,"el":14.0,"prRes":11.1,"qual":1,"ss":0.0,"used":false,"health":1},{"PRN":82,"gnssid":6,"svid":18,"az":202.0,"el":38.0,"prRes":20.2,"qual":4,"ss":19.0,"used":false,"health":1},{"PRN":83,"gnssid":6,"svid":19,"az":271.0,"el":60.0,"prRes":27.1,"qual":0,"ss":0.0,"used":false,"health":1},{"PRN":84,"gnssid":6,"svid":20,"az":336.0,"el":16.0,"prRes":33.6,"qual":4,"ss":21.0,"used":false,"health":1}]}
$GPGSV,2,1,08,66,27,063,34,67,78,017,28,68,41,258,16,75,13,005,32*70
$GPGSV,2,2,08,76,28,063,38,77,14,111,00,82,38,202,19,84,16,336,21*77
{"class":"SKY","time":"2023-06-28T14:52:12.000Z","nSat":8,"uSat":3,"satellites":[{"PRN":66,"gnssid":6,"svid":2,"freqid":3,"az":63.0,"el":27.0,"prRes":-1.0,"qual":7,"ss":34.0,"used":true,"health":1},{"PRN":67,"gnssid":6,"svid":3,"freqid":12,"az":17.0,"el":78.0,"prRes":-5.2,"qual":3,"ss":28.0,"used":false,"health":1},{"PRN":68,"gnssid":6,"svid":4,"freqid":13,"az":258.0,"el":41.0,"prRes":0.0,"qual":4,"ss":16.0,"used":false,"health":1},{"PRN":75,"gnssid":6,"svid":11,"freqid":7,"az":5.0,"el":13.0,"prRes":-0.1,"qual":7,"ss":32.0,"used":true,"health":1},{"PRN":76,"gnssid":6,"svid":12,"freqid":6,"az":63.0,"el":28.0,"prRes":0.2,"qual":7,"ss":38.0,"used":true,"health":1},{"PRN":77,"gnssid":6,"svid":13,"freqid":5,"az":111.0,"el":14.0,"prRes":0.0,"qual":1,"ss":0.0,"used":false,"health":1},{"PRN":82,"gnssid":6,"svid":18,"freqid":4,"az":202.0,"el":38.0,"prRes":0.0,"qual":4,"ss":19.0,"used":false,"health":1},{"PRN":84,"gnssid":6,"svid":20,"freqid":9,"az":336.0,"el":16.0,"prRes":0.0,"qual":4,"ss":21.0,"used":false,"health":1}]}
{"class":"SKY","time":"2023-06-28T14:52:12.000Z","vdop":1.00}
$GPZDA,145212.00,28,06,2023,00,00*68
$GPGGA,145212.00,5536.1492260,N,03735.8783620,E,1,03,,192.76,M,13.629,M,,*79
$GPRMC,145212.00,A,5536.1492260,N,3735.8783620,E,0.0408,343.817,280623,11.3,E*6C
$GPGSA,A,2,66,75,76,,,,,,,,,,,,1.0*31
{"class":"TPV","mode":2,"time":"2023-06-28T14:52:12.000Z","ept":0.005,"lat":55.602487100,"lon":37.597972700,"altHAE":206.1210,"altMSL":192.7580,"alt":192.7580,"epv":68.507,"track":343.8170,"magtrack":355.1161,"magvar":11.3,"speed":0.021,"eps":0.63,"eph":28.568}
$GPGSV,3,1,09,66,27,063,34,67,78,017,28,68,41,258,17,75,13,005,32*71
$GPGSV,3,2,09,76,28,063,38,77,14,111,00,82,38,202,19,83,60,271,00*70
$GPGSV,3,3,09,84,16,336,21*4E
{"class":"SKY","time":"2023-06-28T14:52:13.000Z","nSat":9,"uSat":3,"satellites":[{"PRN":66,"gnssid":6,"svid":2,"az":63.0,"el":27.0,"prRes":6.3,"qual":7,"ss":34.0,"used":true,"health":1},{"PRN":67,"gnssid":6,"svid":3,"az":17.0,"el":78.0,"prRes":1.7,"qual":3,"ss":28.0,"used":false,"health":1},{"PRN":68,"gnssid":6,"svid":4,"az":258.0,"el":41.0,"prRes":25.8,"qual":4,"ss":17.0,"used":false,"health":1},{"PRN":75,"gnssid":6,"svid":11,"az":5.0,"el":13.0,"prRes":0.5,"qual":7,"ss":32.0,"used":true,"health":1},{"PRN":76,"gnssid":6,"svid":12,"az":63.0,"el":28.0,"prRes":6.3,"qual":7,"ss":38.0,"used":true,"health":1},{"PRN":77,"gnssid":6,"svid":13,"az":111.0,"el":14.0,"prRes":11.1,"qual":1,"ss":0.0,"used":false,"health":1},{"PRN":82,"gnssid":6,"svid":18,"az":202.0,"el":38.0,"prRes":20.2,"qual":4,"ss":19.0,"used":false,"health":1},{"PRN":83,"gnssid":6,"svid":19,"az":271.0,"el":60.0,"prRes":27.1,"qual":1,"ss":0.0,"used":false,"health":1},{"PRN":84,"gnssid":6,"svid":20,"az":336.0,"el":16.0,"prRes":33.6,"qual":4,"ss":21.0,"used":false,"health":1}]}
$GPGSV,3,1,09,66,27,063,34,67,78,017,28,68,41,258,17,75,13,005,32*71
$GPGSV,3,2,09,76,28,063,38,77,14,111,00,82,38,202,19,83,60,271,00*70
$GPGSV,3,3,09,84,16,336,21*4E
{"class":"SKY","time":"2023-06-28T14:52:13.000Z","nSat":9,"uSat":3,"satellites":[{"PRN":66,"gnssid":6,"svid":2,"freqid":3,"az":63.0,"el":27.0,"prRes":-1.3,"qual":7,"ss":34.0,"used":true,"health":1},{"PRN":67,"gnssid":6,"svid":3,"freqid":12,"az":17.0,"el":78.0,"prRes":-7.3,"qual":3,"ss":28.0,"used":false,"health":1},{"PRN":68,"gnssid":6,"svid":4,"freqid":13,"az":258.0,"el":41.0,"prRes":0.0,"qual":4,"ss":17.0,"used":false,"health":1},{"PRN":75,"gnssid":6,"svid":11,"freqid":7,"az":5.0,"el":13.0,"prRes":0.0,"qual":7,"ss":32.0,"used":true,"health":1},{"PRN":76,"gnssid":6,"svid":12,"freqid":6,"az":63.0,"el":28.0,"prRes":0.3,"qual":7,"ss":38.0,"used":true,"health":1},{"PRN":77,"gnssid":6,"svid":13,"freqid":5,"az":111.0,"el":14.0,"prRes":0.0,"qual":1,"ss":0.0,"used":false,"health":1},{"PRN":82,"gnssid":6,"svid":18,"freqid":4,"az":202.0,"el":38.0,"prRes":0.0,"qual":4,"ss":19.0,"used":false,"health":1},{"PRN":83,"gnssid":6,"svid":19,"freqid":10,"az":271.0,"el":60.0,"prRes":0.0,"qual":1,"ss":0.0,"used":false,"health":1},{"PRN":84,"gnssid":6,"svid":20,"freqid":9,"az":336.0,"el":16.0,"prRes":0.0,"qual":4,"ss":21.0,"used":false,"health":1}]}
{"class":"SKY","time":"2023-06-28T14:52:13.000Z","vdop":1.00}
$GPZDA,145213.00,28,06,2023,00,00*69
$GPGGA,145213.00,5536.1491420,N,03735.8782900,E,1,03,,193.17,M,13.629,M,,*73
$GPRMC,145213.00,A,5536.1491420,N,3735.8782900,E,0.0700,343.817,280623,11.3,E*6B
$GPGSA,A,2,66,75,76,,,,,,,,,,,,1.0*31
{"class":"TPV","mode":2,"time":"2023-06-28T14:52:13.000Z","ept":0.005,"lat":55.602485700,"lon":37.597971500,"altHAE":206.5370,"altMSL":193.1740,"alt":193.1740,"epv":68.272,"track":343.8170,"magtrack":355.1161,"magvar":11.3,"speed":0.036,"eps":1.55,"eph":28.308}
$GPGSV,3,1,09,66,27,063,35,67,78,017,29,68,41,258,18,75,13,005,31*7D
$GPGSV,3,2,09,76,28,063,38,77,14,111,00,82,38,202,20,83,60,271,00*7A
$GPGSV,3,3,09,84,16,336,21*4E
{"class":"SKY","time":"2023-06-28T14:52:14.000Z","nSat":9,"uSat":4,"satellites":[{"PRN":66,"gnssid":6,"svid":2,"az":63.0,"el":27.0,"prRes":6.3,"qual":7,"ss":35.0,"used":true,"health":1},{"PRN":67,"gnssid":6,"svid":3,"az":17.0,"el":78.0,"prRes":1.7,"qual":7,"ss":29.0,"used":true,"health":1},{"PRN":68,"gnssid":6,"svid":4,"az":258.0,"el":41.0,"prRes":25.8,"qual":3,"ss":18.0,"used":false,"health":1},{"PRN":75,"gnssid":6,"svid":11,"az":5.0,"el":13.0,"prRes":0.5,"qual":7,"ss":31.0,"used":true,"health":1},{"PRN":76,"gnssid":6,"svid":12,"az":63.0,"el":28.0,"prRes":6.3,"qual":7,"ss":38.0,"used":true,"health":1},{"PRN":77,"gnssid":6,"svid":13,"az":111.0,"el":14.0,"prRes":11.1,"qual":1,"ss":0.0,"used":false,"health":1},{"PRN":82,"gnssid":6,"svid":18,"az":202.0,"el":38.0,"prRes":20.2,"qual":4,"ss":20.0,"used":false,"health":1},{"PRN":83,"gnssid":6,"svid":19,"az":271.0,"el":60.0,"prRes":27.1,"qual":1,"ss":0.0,"used":false,"health":1},{"PRN":84,"gnssid":6,"svid":20,"az":336.0,"el":16.0,"prRes":33.6,"qual":4,"ss":21.0,"used":false,"health":1}]}
$GPGSV,3,1,09,66,27,063,35,67,78,017,29,68,41,258,18,75,13,005,31*7D
$GPGSV,3,2,09,76,28,063,38,77,14,111,00,82,38,202,20,83,60,271,00*7A
$GPGSV,3,3,09,84,16,336,21*4E
{"class":"SKY","time":"2023-06-28T14:52:14.000Z","nSat":9,"uSat":4,"satellites":[{"PRN":66,"gnssid":6,"svid":2,"freqid":3,"az":63.0,"el":27.0,"prRes":-1.2,"qual":7,"ss":35.0,"used":true,"health":1},{"PRN":67,"gnssid":6,"svid":3,"freqid":12,"az":17.0,"el":78.0,"prRes":-5.6,"qual":7,"ss":29.0,"used":true,"health":1},{"PRN":68,"gnssid":6,"svid":4,"freqid":13,"az":258.0,"el":41.0,"prRes":0.0,"qual":3,"ss":18.0,"used":false,"health":1},{"PRN":75,"gnssid":6,"svid":11,"freqid":7,"az":5.0,"el":13.0,"prRes":0.7,"qual":7,"ss":31.0,"used":true,"health":1},{"PRN":76,"gnssid":6,"svid":12,"freqid":6,"az":63.0,"el":28.0,"prRes":1.1,"qual":7,"ss":38.0,"used":true,"health":1},{"PRN":77,"gnssid":6,"svid":13,"freqid":5,"az":111.0,"el":14.0,"prRes":0.0,"qual":1,"ss":0.0,"used":false,"health":1},{"PRN":82,"gnssid":6,"svid":18,"freqid":4,"az":202.0,"el":38.0,"prRes":0.0,"qual":4,"ss":20.0,"used":false,"health":1},{"PRN":83,"gnssid":6,"svid":19,"freqid":10,"az":271.0,"el":60.0,"prRes":0.0,"qual":1,"ss":0.0,"used":false,"health":1},{"PRN":84,"gnssid":6,"svid":20,"freqid":9,"az":336.0,"el":16.0,"prRes":0.0,"qual":4,"ss":21.0,"used":false,"health":1}]}
{"class":"SKY","time":"2023-06-28T14:52:14.000Z","hdop":94.47,"vdop":90.20}
$GPZDA,145214.00,28,06,2023,00,00*6E
$GPGGA,145214.00,5536.1497120,N,03735.8790460,E,1,04,94.47,192.22,M,13.629,M,,*5F
$GPRMC,145214.00,A,5536.1497120,N,3735.8790460,E,0.2177,343.817,280623,11.3,E*63
$GPGSA,A,3,66,67,75,76,,,,,,,,,,94.5,90.2*1D
{"class":"TPV","mode":3,"time":"2023-06-28T14:52:14.000Z","ept":0.005,"lat":55.602495200,"lon":37.597984100,"altHAE":205.5790,"altMSL":192.2160,"alt":192.2160,"epv":24.418,"track":343.8170,"magtrack":355.1161,"magvar":11.3,"speed":0.112,"eps":0.84,"epc":92.69,"ecefx":2861481.95,"ecefy":2203477.38,"ecefz":5239736.32,"ecefvx":-0.09,"ecefvy":-0.03,"ecefvz":0.06,"ecefpAcc":36.62,"ecefvAcc":0.85,"geoidSep":13.629,"eph":27.297}
$GPGSV,3,1,09,66,27,063,35,67,78,017,28,68,41,258,17,75,13,005,30*72
$GPGSV,3,2,09,76,28,063,38,77,14,111,00,82,38,202,20,83,60,271,00*7A
$GPGSV,3,3,09,84,16,336,21*4E
{"class":"SKY","time":"2023-06-28T14:52:15.000Z","nSat":9,"uSat":4,"satellites":[{"PRN":66,"gnssid":6,"svid":2,"az":63.0,"el":27.0,"prRes":6.3,"qual":7,"ss":35.0,"used":true,"health":1},{"PRN":67,"gnssid":6,"svid":3,"az":17.0,"el":78.0,"prRes":1.7,"qual":7,"ss":28.0,"used":true,"health":1},{"PRN":68,"gnssid":6,"svid":4,"az":258.0,"el":41.0,"prRes":25.8,"qual":4,"ss":17.0,"used":false,"health":1},{"PRN":75,"gnssid":6,"svid":11,"az":5.0,"el":13.0,"prRes":0.5,"qual":5,"ss":30.0,"used":true,"health":1},{"PRN":76,"gnssid":6,"svid":12,"az":63.0,"el":28.0,"prRes":6.3,"qual":7,"ss":38.0,"used":true,"health":1},{"PRN":77,"gnssid":6,"svid":13,"az":111.0,"el":14.0,"prRes":11.1,"qual":0,"ss":0.0,"used":false,"health":1},{"PRN":82,"gnssid":6,"svid":18,"az":202.0,"el":38.0,"prRes":20.2,"qual":4,"ss":20.0,"used":false,"health":1},{"PRN":83,"gnssid":6,"svid":19,"az":271.0,"el":60.0,"prRes":27.1,"qual":1,"ss":0.0,"used":false,"health":1},{"PRN":84,"gnssid":6,"svid":20,"az":336.0,"el":16.0,"prRes":33.6,"qual":4,"ss":21.0,"used":false,"health":1}]}
$GPGSV,2,1,08,66,27,063,35,67,78,017,28,68,41,258,17,75,13,005,30*72
$GPGSV,2,2,08,76,28,063,38,82,38,202,20,83,60,271,00,84,16,336,21*70
{"class":"SKY","time":"2023-06-28T14:52:15.000Z","nSat":8,"uSat":4,"satellites":[{"PRN":66,"gnssid":6,"svid":2,"freqid":3,"az":63.0,"el":27.0,"prRes":-1.6,"qual":7,"ss":35.0,"used":true,"health":1},{"PRN":67,"gnssid":6,"svid":3,"freqid":12,"az":17.0,"el":78.0,"prRes":-8.3,"qual":7,"ss":28.0,"used":true,"health":1},{"PRN":68,"gnssid":6,"svid":4,"freqid":13,"az":258.0,"el":41.0,"prRes":0.0,"qual":4,"ss":17.0,"used":false,"health":1},{"PRN":75,"gnssid":6,"svid":11,"freqid":7,"az":5.0,"el":13.0,"prRes":0.6,"qual":5,"ss":30.0,"used":true,"health":1},{"PRN":76,"gnssid":6,"svid":12,"freqid":6,"az":63.0,"el":28.0,"prRes":0.9,"qual":7,"ss":38.0,"used":true,"health":1},{"PRN":82,"gnssid":6,"svid":18,"freqid":4,"az":202.0,"el":38.0,"prRes":0.0,"qual":4,"ss":20.0,"used":false,"health":1},{"PRN":83,"gnssid":6,"svid":19,"freqid":10,"az":271.0,"el":60.0,"prRes":0.0,"qual":1,"ss":0.0,"used":false,"health":1},{"PRN":84,"gnssid":6,"svid":20,"freqid":9,"az":336.0,"el":16.0,"prRes":0.0,"qual":4,"ss":21.0,"used":false,"health":1}]}
{"class":"SKY","time":"2023-06-28T14:52:15.000Z","hdop":93.13,"vdop":88.90}
$GPZDA,145215.00,28,06,2023,00,00*6F
$GPGGA,145215.00,5536.1499400,N,03735.8793640,E,1,04,93.13,192.57,M,13.629,M,,*50
$GPRMC,145215.00,A,5536.1499400,N,3735.8793640,E,0.1419,343.817,280623,11.3,E*66
$GPGSA,A,3,66,67,75,76,,,,,,,,,,93.1,88.9*1C
{"class":"TPV","mode":3,"time":"2023-06-28T14:52:15.000Z","ept":0.005,"lat":55.602499000,"lon":37.597989400,"altHAE":205.9330,"altMSL":192.5700,"alt":192.5700,"epv":22.408,"track":343.8170,"magtrack":355.1161,"magvar":11.3,"speed":0.073,"climb":0.354,"eps":0.88,"epc":46.83,"ecefx":2861481.63,"ecefy":2203477.55,"ecefz":5239736.86,"ecefvx":-0.06,"ecefvy":0.04,"ecefvz":0.02,"ecefpAcc":35.29,"ecefvAcc":0.88,"geoidSep":13.629,"eph":27.258}
$GPGSV,3,1,09,66,27,063,34,67,78,017,28,68,41,258,18,75,13,005,30*7C
$GPGSV,3,2,09,76,28,063,38,77,14,111,00,82,38,202,20,83,60,271,00*7A
$GPGSV,3,3,09,84,16,336,20*4F
{"class":"SKY","time":"2023-06-28T14:52:16.000Z","nSat":9,"uSat":4,"satellites":[{"PRN":66,"gnssid":6,"svid":2,"az":63.0,"el":27.0,"prRes":6.3,"qual":7,"ss":34.0,"used":true,"health":1},{"PRN":67,"gnssid":6,"svid":3,"az":17.0,"el":78.0,"prRes":1.7,"qual":7,"ss":28.0,"used":true,"health":1},{"PRN":68,"gnssid":6,"svid":4,"az":258.0,"el":41.0,"prRes":25.8,"qual":4,"ss":18.0,"used":false,"health":1},{"PRN":75,"gnssid":6,"svid":11,"az":5.0,"el":13.0,"prRes":0.5,"qual":6,"ss":30.0,"used":true,"health":1},{"PRN":76,"gnssid":6,"svid":12,"az":63.0,"el":28.0,"prRes":6.3,"qual":7,"ss":38.0,"used":true,"health":1},{"PRN":77,"gnssid":6,"svid":13,"az":111.0,"el":14.0,"prRes":11.1,"qual":1,"ss":0.0,"used":false,"health":1},{"PRN":82,"gnssid":6,"svid":18,"az":202.0,"el":38.0,"prRes":20.2,"qual":4,"ss":20.0,"used":false,"health":1},{"PRN":83,"gnssid":6,"svid":19,"az":271.0,"el":60.0,"prRes":27.1,"qual":0,"ss":0.0,"used":false,"health":1},{"PRN":84,"gnssid":6,"svid":20,"az":336.0,"el":16.0,"prRes":33.6,"qual":4,"ss":20.0,"used":false,"health":1}]}
$GPGSV,2,1,08,66,27,063,34,67,78,017,28,68,41,258,18,75,13,005,30*7C
$GPGSV,2,2,08,76,28,063,38,77,14,111,00,82,38,202,20,84,16,336,20*7C
{"class":"SKY","time":"2023-06-28T14:52:16.000Z","nSat":8,"uSat":4,"satellites":[{"PRN":66,"gnssid":6,"svid":2,"freqid":3,"az":63.0,"el":27.0,"prRes":-2.0,"qual":7,"ss":34.0,"used":true,"health":1},{"PRN":67,"gnssid":6,"svid":3,"freqid":12,"az":17.0,"el":78.0,"prRes":-7.9,"qual":7,"ss":28.0,"used":true,"health":1},{"PRN":68,"gnssid":6,"svid":4,"freqid":13,"az":258.0,"el":41.0,"prRes":0.0,"qual":4,"ss":18.0,"used":false,"health":1},{"PRN":75,"gnssid":6,"svid":11,"freqid":7,"az":5.0,"el":13.0,"prRes":0.7,"qual":6,"ss":30.0,"used":true,"health":1},{"PRN":76,"gnssid":6,"svid":12,"freqid":6,"az":63.0,"el":28.0,"prRes":1.3,"qual":7,"ss":38.0,"used":true,"health":1},{"PRN":77,"gnssid":6,"svid":13,"freqid":5,"az":111.0,"el":14.0,"prRes":0.0,"qual":1,"ss":0.0,"used":false,"health":1},{"PRN":82,"gnssid":6,"svid":18,"freqid":4,"az":202.0,"el":38.0,"prRes":0.0,"qual":4,"ss":20.0,"used":false,"health":1},{"PRN":84,"gnssid":6,"svid":20,"freqid":9,"az":336.0,"el":16.0,"prRes":0.0,"qual":4,"ss":20.0,"used":false,"health":1}]}
{"class":"SKY","time":"2023-06-28T14:52:16.000Z","hdop":91.83,"vdop":87.63}
$GPZDA,145216.00,28,06,2023,00,00*6C
$GPGGA,145216.00,5536.1502340,N,03735.8797720,E,1,04,91.83,193.01,M,13.629,M,,*59
$GPRMC,145216.00,A,5536.1502340,N,3735.8797720,E,0.0797,343.817,280623,11.3,E*62
$GPGSA,A,3,66,67,75,76,,,,,,,,,,91.8,87.6*17
{"class":"TPV","mode":3,"time":"2023-06-28T14:52:16.000Z","ept":0.005,"lat":55.602503900,"lon":37.597996200,"altHAE":206.3760,"altMSL":193.0130,"alt":193.0130,"epv":21.619,"track":343.8170,"magtrack":355.1161,"magvar":11.3,"speed":0.041,"climb":0.443,"eps":1.13,"epc":44.03,"ecefx":2861481.21,"ecefy":2203477.76,"ecefz":5239737.53,"ecefvx":-0.04,"ecefvy":0.00,"ecefvz":0.02,"ecefpAcc":34.76,"ecefvAcc":1.13,"geoidSep":13.629,"eph":27.215}
$GPGSV,3,1,09,66,27,063,35,67,78,017,29,68,41,258,18,75,13,005,30*7C
$GPGSV,3,2,09,76,28,063,38,77,14,111,00,82,38,202,20,83,60,271,00*7A
$GPGSV,3,3,09,84,16,336,21*4E
{"class":"SKY","time":"2023-06-28T14:52:17.000Z","nSat":9,"uSat":4,"satellites":[{"PRN":66,"gnssid":6,"svid":2,"az":63.0,"el":27.0,"prRes":6.3,"qual":7,"ss":35.0,"used":true,"health":1},{"PRN":67,"gnssid":6,"svid":3,"az":17.0,"el":78.0,"prRes":1.7,"qual":7,"ss":29.0,"used":true,"health":1},{"PRN":68,"gnssid":6,"svid":4,"az":258.0,"el":41.0,"prRes":25.8,"qual":4,"ss":18.0,"used":false,"health":1},{"PRN":75,"gnssid":6,"svid":11,"az":5.0,"el":13.0,"prRes":0.5,"qual":6,"ss":30.0,"used":true,"health":1},{"PRN":76,"gnssid":6,"svid":12,"az":63.0,"el":28.0,"prRes":6.3,"qual":7,"ss":38.0,"used":true,"health":1},{"PRN":77,"gnssid":6,"svid":13,"az":111.0,"el":14.0,"prRes":11.1,"qual":1,"ss":0.0,"used":false,"health":1},{"PRN":82,"gnssid":6,"svid":18,"az":202.0,"el":38.0,"prRes":20.2,"qual":4,"ss":20.0,"used":false,"health":1},{"PRN":83,"gnssid":6,"svid":19,"az":271.0,"el":60.0,"prRes":27.1,"qual":1,"ss":0.0,"used":false,"health":1},{"PRN":84,"gnssid":6,"svid":20,"az":336.0,"el":16.0,"prRes":33.6,"qual":4,"ss":21.0,"used":false,"health":1}]}
$GPGSV,3,1,09,66,27,063,35,67,78,017,29,68,41,258,18,75,13,005,30*7C
$GPGSV,3,2,09,76,28,063,38,77,14,111,00,82,38,202,20,83,60,271,00*7A
$GPGSV,3,3,09,84,16,336,21*4E
{"class":"SKY","time":"2023-06-28T14:52:17.000Z","nSat":9,"uSat":4,"satellites":[{"PRN":66,"gnssid":6,"svid":2,"freqid":3,"az":63.0,"el":27.0,"prRes":-2.3,"qual":7,"ss":35.0,"used":true,"health":1},{"PRN":67,"gnssid":6,"svid":3,"freqid":12,"az":17.0,"el":78.0,"prRes":-7.8,"qual":7,"ss":29.0,"used":true,"health":1},{"PRN":68,"gnssid":6,"svid":4,"freqid":13,"az":258.0,"el":41.0,"prRes":0.0,"qual":4,"ss":18.0,"used":false,"health":1},{"PRN":75,"gnssid":6,"svid":11,"freqid":7,"az":5.0,"el":13.0,"prRes":1.0,"qual":6,"ss":30.0,"used":true,"health":1},{"PRN":76,"gnssid":6,"svid":12,"freqid":6,"az":63.0,"el":28.0,"prRes":1.3,"qual":7,"ss":38.0,"used":true,"health":1},{"PRN":77,"gnssid":6,"svid":13,"freqid":5,"az":111.0,"el":14.0,"prRes":0.0,"qual":1,"ss":0.0,"used":false,"health":1},{"PRN":82,"gnssid":6,"svid":18,"freqid":4,"az":202.0,"el":38.0,"prRes":0.0,"qual":4,"ss":20.0,"used":false,"health":1},{"PRN":83,"gnssid":6,"svid":19,"freqid":10,"az":271.0,"el":60.0,"prRes":0.0,"qual":1,"ss":0.0,"used":false,"health":1},{"PRN":84,"gnssid":6,"svid":20,"freqid":9,"az":336.0,"el":16.0,"prRes":0.0,"qual":4,"ss":21.0,"used":false,"health":1}]}
{"class":"SKY","time":"2023-06-28T14:52:17.000Z","hdop":90.57,"vdop":86.40}
$GPZDA,145217.00,28,06,2023,00,00*6D
$GPGGA,145217.00,5536.1506240,N,03735.8803000,E,1,04,90.57,193.15,M,13.629,M,,*57
$GPRMC,145217.00,A,5536.1506240,N,3735.8803000,E,0.1069,343.817,280623,11.3,E*66
$GPGSA,A,3,66,67,75,76,,,,,,,,,,90.6,86.4*1B
{"class":"TPV","mode":3,"time":"2023-06-28T14:52:17.000Z","ept":0.005,"lat":55.602510400,"lon":37.598005000,"altHAE":206.5150,"altMSL":193.1520,"alt":193.1520,"epv":21.168,"track":343.8170,"magtrack":355.1161,"magvar":11.3,"speed":0.055,"climb":0.139,"eps":1.20,"epc":42.79,"ecefx":2861480.46,"ecefy":2203477.89,"ecefz":5239738.06,"ecefvx":-0.05,"ecefvy":0.01,"ecefvz":0.02,"ecefpAcc":34.39,"ecefvAcc":1.20,"geoidSep":13.629,"eph":27.100}
$GPGSV,3,1,09,66,27,063,35,67,78,017,29,68,41,258,18,75,13,005,30*7C
$GPGSV,3,2,09,76,28,063,37,77,14,111,16,82,38,202,18,83,60,271,00*79
$GPGSV,3,3,09,84,16,336,20*4F
{"class":"SKY","time":"2023-06-28T14:52:18.000Z","nSat":9,"uSat":4,"satellites":[{"PRN":66,"gnssid":6,"svid":2,"az":63.0,"el":27.0,"prRes":6.3,"qual":7,"ss":35.0,"used":true,"health":1},{"PRN":67,"gnssid":6,"svid":3,"az":17.0,"el":78.0,"prRes":1.7,"qual":7,"ss":29.0,"used":true,"health":1},{"PRN":68,"gnssid":6,"svid":4,"az":258.0,"el":41.0,"prRes":25.8,"qual":4,"ss":18.0,"used":false,"health":1},{"PRN":75,"gnssid":6,"svid":11,"az":5.0,"el":13.0,"prRes":0.5,"qual":6,"ss":30.0,"used":true,"health":1},{"PRN":76,"gnssid":6,"svid":12,"az":63.0,"el":28.0,"prRes":6.3,"qual":7,"ss":37.0,"used":true,"health":1},{"PRN":77,"gnssid":6,"svid":13,"az":111.0,"el":14.0,"prRes":11.1,"qual":3,"ss":16.0,"used":false,"health":1},{"PRN":82,"gnssid":6,"svid":18,"az":202.0,"el":38.0,"prRes":20.2,"qual":4,"ss":18.0,"used":false,"health":1},{"PRN":83,"gnssid":6,"svid":19,"az":271.0,"el":60.0,"prRes":27.1,"qual":1,"ss":0.0,"used":false,"health":1},{"PRN":84,"gnssid":6,"svid":20,"az":336.0,"el":16.0,"prRes":33.6,"qual":4,"ss":20.0,"used":false,"health":1}]}
$GPGSV,3,1,09,66,27,063,35,67,78,017,29,68,41,258,18,75,13,005,30*7C
$GPGSV,3,2,09,76,28,063,37,77,14,111,16,82,38,202,18,83,60,271,00*79
$GPGSV,3,3,09,84,16,336,20*4F
{"class":"SKY","time":"2023-06-28T14:52:18.000Z","nSat":9,"uSat":4,"satellites":[{"PRN":66,"gnssid":6,"svid":2,"freqid":3,"az":63.0,"el":27.0,"prRes":-2.3,"qual":7,"ss":35.0,"used":true,"health":1},{"PRN":67,"gnssid":6,"svid":3,"freqid":12,"az":17.0,"el":78.0,"prRes":-6.1,"qual":7,"ss":29.0,"used":true,"health":1},{"PRN":68,"gnssid":6,"svid":4,"freqid":13,"az":258.0,"el":41.0,"prRes":0.0,"qual":4,"ss":18.0,"used":false,"health":1},{"PRN":75,"gnssid":6,"svid":11,"freqid":7,"az":5.0,"el":13.0,"prRes":1.2,"qual":6,"ss":30.0,"used":true,"health":1},{"PRN":76,"gnssid":6,"svid":12,"freqid":6,"az":63.0,"el":28.0,"prRes":1.6,"qual":7,"ss":37.0,"used":true,"health":1},{"PRN":77,"gnssid":6,"svid":13,"freqid":5,"az":111.0,"el":14.0,"prRes":0.0,"qual":3,"ss":16.0,"used":false,"health":1},{"PRN":82,"gnssid":6,"svid":18,"freqid":4,"az":202.0,"el":38.0,"prRes":0.0,"qual":4,"ss":18.0,"used":false,"health":1},{"PRN":83,"gnssid":6,"svid":19,"freqid":10,"az":271.0,"el":60.0,"prRes":0.0,"qual":1,"ss":0.0,"used":false,"health":1},{"PRN":84,"gnssid":6,"svid":20,"freqid":9,"az":336.0,"el":16.0,"prRes":0.0,"qual":4,"ss":20.0,"used":false,"health":1}]}
{"class":"SKY","time":"2023-06-28T14:52:18.000Z","hdop":89.34,"vdop":85.21}
$GPZDA,145218.00,28,06,2023,00,00*62
$GPGGA,145218.00,5536.1510020,N,03735.8808040,E,1,04,89.34,193.14,M,13.629,M,,*58
$GPRMC,145218.00,A,5536.1510020,N,3735.8808040,E,0.0952,343.817,280623,11.3,E*65
$GPGSA,A,3,66,67,75,76,,,,,,,,,,89.3,85.2*13
{"class":"TPV","mode":3,"time":"2023-06-28T14:52:18.000Z","ept":0.005,"lat":55.602516700,"lon":37.598013400,"altHAE":206.5030,"altMSL":193.1400,"alt":193.1400,"epv":20.954,"track":343.8170,"magtrack":355.1161,"magvar":11.3,"speed":0.049,"climb":-0.012,"eps":1.14,"epc":42.12,"ecefx":2861479.67,"ecefy":2203477.95,"ecefz":5239738.44,"ecefvx":-0.04,"ecefvy":0.01,"ecefvz":0.02,"ecefpAcc":34.05,"ecefvAcc":1.13,"geoidSep":13.629,"eph":26.845}
$GPGSV,3,1,09,66,27,063,35,67,78,017,29,68,41,258,17,75,13,005,30*73
$GPGSV,3,2,09,76,28,063,38,77,14,111,16,82,38,202,18,83,60,271,00*76
$GPGSV,3,3,09,84,16,336,20*4F
{"class":"SKY","time":"2023-06-28T14:52:19.000Z","nSat":9,"uSat":4,"satellites":[{"PRN":66,"gnssid":6,"svid":2,"az":63.0,"el":27.0,"prRes":6.3,"qual":7,"ss":35.0,"used":true,"health":1},{"PRN":67,"gnssid":6,"svid":3,"az":17.0,"el":78.0,"prRes":1.7,"qual":7,"ss":29.0,"used":true,"health":1},{"PRN":68,"gnssid":6,"svid":4,"az":258.0,"el":41.0,"prRes":25.8,"qual":4,"ss":17.0,"used":false,"health":1},{"PRN":75,"gnssid":6,"svid":11,"az":5.0,"el":13.0,"prRes":0.5,"qual":7,"ss":30.0,"used":true,"health":1},{"PRN":76,"gnssid":6,"svid":12,"az":63.0,"el":28.0,"prRes":6.3,"qual":7,"ss":38.0,"used":true,"health":1},{"PRN":77,"gnssid":6,"svid":13,"az":111.0,"el":14.0,"prRes":11.1,"qual":3,"ss":16.0,"used":false,"health":1},{"PRN":82,"gnssid":6,"svid":18,"az":202.0,"el":38.0,"prRes":20.2,"qual":4,"ss":18.0,"used":false,"health":1},{"PRN":83,"gnssid":6,"svid":19,"az":271.0,"el":60.0,"prRes":27.1,"qual":1,"ss":0.0,"used":false,"health":1},{"PRN":84,"gnssid":6,"svid":20,"az":336.0,"el":16.0,"prRes":33.6,"qual":4,"ss":20.0,"used":false,"health":1}]}
$GPGSV,3,1,09,66,27,063,35,67,78,017,29,68,41,258,17,75,13,005,30*73
$GPGSV,3,2,09,76,28,063,38,77,14,111,16,82,38,202,18,83,60,271,00*76
$GPGSV,3,3,09,84,16,336,20*4F
{"class":"SKY","time":"2023-06-28T14:52:19.000Z","nSat":9,"uSat":4,"satellites":[{"PRN":66,"gnssid":6,"svid":2,"freqid":3,"az":63.0,"el":27.0,"prRes":-2.5,"qual":7,"ss":35.0,"used":true,"health":1},{"PRN":67,"gnssid":6,"svid":3,"freqid":12,"az":17.0,"el":78.0,"prRes":-4.6,"qual":7,"ss":29.0,"used":true,"health":1},{"PRN":68,"gnssid":6,"svid":4,"freqid":13,"az":258.0,"el":41.0,"prRes":0.0,"qual":4,"ss":17.0,"used":false,"health":1},{"PRN":75,"gnssid":6,"svid":11,"freqid":7,"az":5.0,"el":13.0,"prRes":1.1,"qual":7,"ss":30.0,"used":true,"health":1},{"PRN":76,"gnssid":6,"svid":12,"freqid":6,"az":63.0,"el":28.0,"prRes":1.7,"qual":7,"ss":38.0,"used":true,"health":1},{"PRN":77,"gnssid":6,"svid":13,"freqid":5,"az":111.0,"el":14.0,"prRes":0.0,"qual":3,"ss":16.0,"used":false,"health":1},{"PRN":82,"gnssid":6,"svid":18,"freqid":4,"az":202.0,"el":38.0,"prRes":0.0,"qual":4,"ss":18.0,"used":false,"health":1},{"PRN":83,"gnssid":6,"svid":19,"freqid":10,"az":271.0,"el":60.0,"prRes":0.0,"qual":1,"ss":0.0,"used":false,"health":1},{"PRN":84,"gnssid":6,"svid":20,"freqid":9,"az":336.0,"el":16.0,"prRes":0.0,"qual":4,"ss":20.0,"used":false,"health":1}]}
{"class":"SKY","time":"2023-06-28T14:52:19.000Z","hdop":88.14,"vdop":84.05}
$GPZDA,145219.00,28,06,2023,00,00*63
$GPGGA,145219.00,5536.1513260,N,03735.8812420,E,1,04,88.14,193.35,M,13.629,M,,*55
$GPRMC,145219.00,A,5536.1513260,N,3735.8812420,E,0.0544,343.817,280623,11.3,E*63
$GPGSA,A,3,66,67,75,76,,,,,,,,,,88.1,84.0*13
{"class":"TPV","mode":3,"time":"2023-06-28T14:52:19.000Z","ept":0.005,"lat":55.602522100,"lon":37.598020700,"altHAE":206.7090,"altMSL":193.3460,"alt":193.3460,"epv":20.752,"track":343.8170,"magtrack":355.1161,"magvar":11.3,"speed":0.028,"climb":0.206,"eps":0.56,"epc":41.71,"ecefx":2861479.10,"ecefy":2203478.09,"ecefz":5239738.95,"ecefvx":-0.02,"ecefvy":0.02,"ecefvz":0.00,"ecefpAcc":33.60,"ecefvAcc":0.56,"geoidSep":13.629,"eph":26.431}
$GPGSV,3,1,09,66,27,063,34,67,78,017,29,68,41,258,17,75,13,005,30*72
$GPGSV,3,2,09,76,28,063,37,77,14,111,17,82,38,202,18,83,60,271,00*78
$GPGSV,3,3,09,84,16,336,21*4E
{"class":"SKY","time":"2023-06-28T14:52:20.000Z","nSat":9,"uSat":4,"satellites":[{"PRN":66,"gnssid":6,"svid":2,"az":63.0,"el":27.0,"prRes":6.3,"qual":7,"ss":34.0,"used":true,"health":1},{"PRN":67,"gnssid":6,"svid":3,"az":17.0,"el":78.0,"prRes":1.7,"qual":7,"ss":29.0,"used":true,"health":1},{"PRN":68,"gnssid":6,"svid":4,"az":258.0,"el":41.0,"prRes":25.8,"qual":4,"ss":17.0,"used":false,"health":1},{"PRN":75,"gnssid":6,"svid":11,"az":5.0,"el":13.0,"prRes":0.5,"qual":7,"ss":30.0,"used":true,"health":1},{"PRN":76,"gnssid":6,"svid":12,"az":63.0,"el":28.0,"prRes":6.3,"qual":7,"ss":37.0,"used":true,"health":1},{"PRN":77,"gnssid":6,"svid":13,"az":111.0,"el":14.0,"prRes":11.1,"qual":3,"ss":17.0,"used":false,"health":1},{"PRN":82,"gnssid":6,"svid":18,"az":202.0,"el":38.0,"prRes":20.2,"qual":4,"ss":18.0,"used":false,"health":1},{"PRN":83,"gnssid":6,"svid":19,"az":271.0,"el":60.0,"prRes":27.1,"qual":1,"ss":0.0,"used":false,"health":1},{"PRN":84,"gnssid":6,"svid":20,"az":336.0,"el":16.0,"prRes":33.6,"qual":4,"ss":21.0,"used":false,"health":1}]}
$GPGSV,3,1,09,66,27,063,34,67,78,017,29,68,41,258,17,75,13,005,30*72
$GPGSV,3,2,09,76,28,063,37,77,14,111,17,82,38,202,18,83,60,271,00*78
$GPGSV,3,3,09,84,16,336,21*4E
{"class":"SKY","time":"2023-06-28T14:52:20.000Z","nSat":9,"uSat":4,"satellites":[{"PRN":66,"gnssid":6,"svid":2,"freqid":3,"az":63.0,"el":27.0,"prRes":-2.7,"qual":7,"ss":34.0,"used":true,"health":1},{"PRN":67,"gnssid":6,"svid":3,"freqid":12,"az":17.0,"el":78.0,"prRes":-7.1,"qual":7,"ss":29.0,"used":true,"health":1},{"PRN":68,"gnssid":6,"svid":4,"freqid":13,"az":258.0,"el":41.0,"prRes":0.0,"qual":4,"ss":17.0,"used":false,"health":1},{"PRN":75,"gnssid":6,"svid":11,"freqid":7,"az":5.0,"el":13.0,"prRes":1.1,"qual":7,"ss":30.0,"used":true,"health":1},{"PRN":76,"gnssid":6,"svid":12,"freqid":6,"az":63.0,"el":28.0,"prRes":2.0,"qual":7,"ss":37.0,"used":true,"health":1},{"PRN":77,"gnssid":6,"svid":13,"freqid":5,"az":111.0,"el":14.0,"prRes":0.0,"qual":3,"ss":17.0,"used":false,"health":1},{"PRN":82,"gnssid":6,"svid":18,"freqid":4,"az":202.0,"el":38.0,"prRes":0.0,"qual":4,"ss":18.0,"used":false,"health":1},{"PRN":83,"gnssid":6,"svid":19,"freqid":10,"az":271.0,"el":60.0,"prRes":0.0,"qual":1,"ss":0.0,"used":false,"health":1},{"PRN":84,"gnssid":6,"svid":20,"freqid":9,"az":336.0,"el":16.0,"prRes":0.0,"qual":4,"ss":21.0,"used":false,"health":1}]}
{"class":"SKY","time":"2023-06-28T14:52:20.000Z","hdop":86.98,"tdop":98.77,"vdop":82.91}
$GPZDA,145220.00,28,06,2023,00,00*69
$GPGGA,145220.00,5536.1517580,N,03735.8818480,E,1,04,86.98,193.41,M,13.629,M,,*5B
$GPRMC,145220.00,A,5536.1517580,N,3735.8818480,E,0.0641,343.817,280623,11.3,E*62
$GPGSA,A,3,66,67,75,76,,,,,,,,,,87.0,82.9*12
{"class":"TPV","mode":3,"time":"2023-06-28T14:52:20.000Z","ept":0.005,"lat":55.602529300,"lon":37.598030800,"altHAE":206.7680,"altMSL":193.4050,"alt":193.4050,"epv":20.646,"track":343.8170,"magtrack":355.1162,"magvar":11.3,"speed":0.033,"climb":0.059,"eps":0.61,"epc":41.40,"ecefx":2861478.21,"ecefy":2203478.21,"ecefz":5239739.45,"ecefvx":-0.03,"ecefvy":0.02,"ecefvz":0.01,"ecefpAcc":33.32,"ecefvAcc":0.61,"geoidSep":13.629,"eph":26.154}
$GPGSV,3,1,09,66,27,063,34,67,78,017,30,68,41,258,17,75,13,005,30*7A
$GPGSV,3,2,09,76,28,063,38,77,14,111,17,82,38,202,18,83,60,271,00*77
$GPGSV,3,3,09,84,16,336,20*4F
{"class":"SKY","time":"2023-06-28T14:52:21.000Z","nSat":9,"uSat":4,"satellites":[{"PRN":66,"gnssid":6,"svid":2,"az":63.0,"el":27.0,"prRes":6.3,"qual":7,"ss":34.0,"used":true,"health":1},{"PRN":67,"gnssid":6,"svid":3,"az":17.0,"el":78.0,"prRes":1.7,"qual":7,"ss":30.0,"used":true,"health":1},{"PRN":68,"gnssid":6,"svid":4,"az":258.0,"el":41.0,"prRes":25.8,"qual":4,"ss":17.0,"used":false,"health":1},{"PRN":75,"gnssid":6,"svid":11,"az":5.0,"el":13.0,"prRes":0.5,"qual":7,"ss":30.0,"used":true,"health":1},{"PRN":76,"gnssid":6,"svid":12,"az":63.0,"el":28.0,"prRes":6.3,"qual":7,"ss":38.0,"used":true,"health":1},{"PRN":77,"gnssid":6,"svid":13,"az":111.0,"el":14.0,"prRes":11.1,"qual":4,"ss":17.0,"used":false,"health":1},{"PRN":82,"gnssid":6,"svid":18,"az":202.0,"el":38.0,"prRes":20.2,"qual":4,"ss":18.0,"used":false,"health":1},{"PRN":83,"gnssid":6,"svid":19,"az":271.0,"el":60.0,"prRes":27.1,"qual":1,"ss":0.0,"used":false,"health":1},{"PRN":84,"gnssid":6,"svid":20,"az":336.0,"el":16.0,"prRes":33.6,"qual":4,"ss":20.0,"used":false,"health":1}]}
$GPGSV,3,1,09,66,27,063,34,67,78,017,30,68,41,258,17,75,13,005,30*7A
$GPGSV,3,2,09,76,28,063,38,77,14,111,17,82,38,202,18,83,60,271,00*77
$GPGSV,3,3,09,84,16,336,20*4F
{"class":"SKY","time":"2023-06-28T14:52:21.000Z","nSat":9,"uSat":4,"satellites":[{"PRN":66,"gnssid":6,"svid":2,"freqid":3,"az":63.0,"el":27.0,"prRes":-2.8,"qual":7,"ss":34.0,"used":true,"health":1},{"PRN":67,"gnssid":6,"svid":3,"freqid":12,"az":17.0,"el":78.0,"prRes":-8.5,"qual":7,"ss":30.0,"used":true,"health":1},{"PRN":68,"gnssid":6,"svid":4,"freqid":13,"az":258.0,"el":41.0,"prRes":0.0,"qual":4,"ss":17.0,"used":false,"health":1},{"PRN":75,"gnssid":6,"svid":11,"freqid":7,"az":5.0,"el":13.0,"prRes":1.1,"qual":7,"ss":30.0,"used":true,"health":1},{"PRN":76,"gnssid":6,"svid":12,"freqid":6,"az":63.0,"el":28.0,"prRes":2.1,"qual":7,"ss":38.0,"used":true,"health":1},{"PRN":77,"gnssid":6,"svid":13,"freqid":5,"az":111.0,"el":14.0,"prRes":0.0,"qual":4,"ss":17.0,"used":false,"health":1},{"PRN":82,"gnssid":6,"svid":18,"freqid":4,"az":202.0,"el":38.0,"prRes":0.0,"qual":4,"ss":18.0,"used":false,"health":1},{"PRN":83,"gnssid":6,"svid":19,"freqid":10,"az":271.0,"el":60.0,"prRes":0.0,"qual":1,"ss":0.0,"used":false,"health":1},{"PRN":84,"gnssid":6,"svid":20,"freqid":9,"az":336.0,"el":16.0,"prRes":0.0,"qual":4,"ss":20.0,"used":false,"health":1}]}
{"class":"SKY","time":"2023-06-28T14:52:21.000Z","hdop":85.84,"tdop":97.47,"vdop":81.81}
$GPZDA,145221.00,28,06,2023,00,00*68
$GPGGA,145221.00,5536.1523580,N,03735.8826820,E,1,04,85.84,193.60,M,13.629,M,,*5B
$GPRMC,145221.00,A,5536.1523580,N,3735.8826820,E,0.0894,343.817,280623,11.3,E*69
$GPGSA,A,3,66,67,75,76,,,,,,,,,,85.8,81.8*1A
{"class":"TPV","mode":3,"time":"2023-06-28T14:52:21.000Z","ept":0.005,"lat":55.602539300,"lon":37.598044700,"altHAE":206.9590,"altMSL":193.5960,"alt":193.5960,"epv":20.529,"track":343.8170,"magtrack":355.1162,"magvar":11.3,"speed":0.046,"climb":0.191,"eps":0.69,"epc":41.17,"ecefx":2861477.03,"ecefy":2203478.41,"ecefz":5239740.24,"ecefvx":-0.04,"ecefvy":0.00,"ecefvz":0.02,"ecefpAcc":33.02,"ecefvAcc":0.68,"geoidSep":13.629,"eph":25.861}
$GPGSV,3,1,09,66,27,063,34,67,78,017,29,68,41,258,18,75,13,005,30*7D
$GPGSV,3,2,09,76,28,063,38,77,14,111,18,82,38,202,18,83,60,271,00*78
$GPGSV,3,3,09,84,16,336,21*4E
{"class":"SKY","time":"2023-06-28T14:52:22.000Z","nSat":9,"uSat":4,"satellites":[{"PRN":66,"gnssid":6,"svid":2,"az":63.0,"el":27.0,"prRes":6.3,"qual":7,"ss":34.0,"used":true,"health":1},{"PRN":67,"gnssid":6,"svid":3,"az":17.0,"el":78.0,"prRes":1.7,"qual":7,"ss":29.0,"used":true,"health":1},{"PRN":68,"gnssid":6,"svid":4,"az":258.0,"el":41.0,"prRes":25.8,"qual":4,"ss":18.0,"used":false,"health":1},{"PRN":75,"gnssid":6,"svid":11,"az":5.0,"el":13.0,"prRes":0.5,"qual":7,"ss":30.0,"used":true,"health":1},{"PRN":76,"gnssid":6,"svid":12,"az":63.0,"el":28.0,"prRes":6.3,"qual":7,"ss":38.0,"used":true,"health":1},{"PRN":77,"gnssid":6,"svid":13,"az":111.0,"el":14.0,"prRes":11.1,"qual":4,"ss":18.0,"used":false,"health":1},{"PRN":82,"gnssid":6,"svid":18,"az":202.0,"el":38.0,"prRes":20.2,"qual":4,"ss":18.0,"used":false,"health":1},{"PRN":83,"gnssid":6,"svid":19,"az":271.0,"el":60.0,"prRes":27.1,"qual":1,"ss":0.0,"used":false,"health":1},{"PRN":84,"gnssid":6,"svid":20,"az":336.0,"el":16.0,"prRes":33.6,"qual":4,"ss":21.0,"used":false,"health":1}]}
$GPGSV,3,1,09,66,27,063,34,67,78,017,29,68,41,258,18,75,13,005,30*7D
$GPGSV,3,2,09,76,28,063,38,77,14,111,18,82,38,202,18,83,60,271,00*78
$GPGSV,3,3,09,84,16,336,21*4E
{"class":"SKY","time":"2023-06-28T14:52:22.000Z","nSat":9,"uSat":4,"satellites":[{"PRN":66,"gnssid":6,"svid":2,"freqid":3,"az":63.0,"el":27.0,"prRes":-2.8,"qual":7,"ss":34.0,"used":true,"health":1},{"PRN":67,"gnssid":6,"svid":3,"freqid":12,"az":17.0,"el":78.0,"prRes":-7.3,"qual":7,"ss":29.0,"used":true,"health":1},{"PRN":68,"gnssid":6,"svid":4,"freqid":13,"az":258.0,"el":41.0,"prRes":0.0,"qual":4,"ss":18.0,"used":false,"health":1},{"PRN":75,"gnssid":6,"svid":11,"freqid":7,"az":5.0,"el":13.0,"prRes":1.0,"qual":7,"ss":30.0,"used":true,"health":1},{"PRN":76,"gnssid":6,"svid":12,"freqid":6,"az":63.0,"el":28.0,"prRes":2.0,"qual":7,"ss":38.0,"used":true,"health":1},{"PRN":77,"gnssid":6,"svid":13,"freqid":5,"az":111.0,"el":14.0,"prRes":0.0,"qual":4,"ss":18.0,"used":false,"health":1},{"PRN":82,"gnssid":6,"svid":18,"freqid":4,"az":202.0,"el":38.0,"prRes":0.0,"qual":4,"ss":18.0,"used":false,"health":1},{"PRN":83,"gnssid":6,"svid":19,"freqid":10,"az":271.0,"el":60.0,"prRes":0.0,"qual":1,"ss":0.0,"used":false,"health":1},{"PRN":84,"gnssid":6,"svid":20,"freqid":9,"az":336.0,"el":16.0,"prRes":0.0,"qual":4,"ss":21.0,"used":false,"health":1}]}
{"class":"SKY","time":"2023-06-28T14:52:22.000Z","hdop":84.74,"tdop":96.21,"vdop":80.74}
$GPZDA,145222.00,28,06,2023,00,00*6B
$GPGGA,145222.00,5536.1528140,N,03735.8832880,E,1,04,84.74,193.85,M,13.629,M,,*51
$GPRMC,145222.00,A,5536.1528140,N,3735.8832880,E,0.0972,343.817,280623,11.3,E*6F
$GPGSA,A,3,66,67,75,76,,,,,,,,,,84.7,80.7*1A
{"class":"TPV","mode":3,"time":"2023-06-28T14:52:22.000Z","ept":0.005,"lat":55.602546900,"lon":37.598054800,"altHAE":207.2110,"altMSL":193.8480,"alt":193.8480,"epv":20.438,"track":343.8170,"magtrack":355.1162,"magvar":11.3,"speed":0.050,"climb":0.252,"eps":0.69,"epc":40.97,"ecefx":2861476.20,"ecefy":2203478.58,"ecefz":5239740.92,"ecefvx":-0.04,"ecefvy":-0.01,"ecefvz":0.03,"ecefpAcc":32.79,"ecefvAcc":0.69,"geoidSep":13.629,"eph":25.646}
$GPGSV,3,1,09,66,27,063,34,67,78,017,29,68,41,258,19,75,13,005,30*7C
$GPGSV,3,2,09,76,28,063,38,77,14,111,17,82,38,202,18,83,60,271,00*77
$GPGSV,3,3,09,84,16,336,21*4E
{"class":"SKY","time":"2023-06-28T14:52:23.000Z","nSat":9,"uSat":4,"satellites":[{"PRN":66,"gnssid":6,"svid":2,"az":63.0,"el":27.0,"prRes":6.3,"qual":7,"ss":34.0,"used":true,"health":1},{"PRN":67,"gnssid":6,"svid":3,"az":17.0,"el":78.0,"prRes":1.7,"qual":7,"ss":29.0,"used":true,"health":1},{"PRN":68,"gnssid":6,"svid":4,"az":258.0,"el":41.0,"prRes":25.8,"qual":4,"ss":19.0,"used":false,"health":1},{"PRN":75,"gnssid":6,"svid":11,"az":5.0,"el":13.0,"prRes":0.5,"qual":7,"ss":30.0,"used":true,"health":1},{"PRN":76,"gnssid":6,"svid":12,"az":63.0,"el":28.0,"prRes":6.3,"qual":7,"ss":38.0,"used":true,"health":1},{"PRN":77,"gnssid":6,"svid":13,"az":111.0,"el":14.0,"prRes":11.1,"qual":4,"ss":17.0,"used":false,"health":1},{"PRN":82,"gnssid":6,"svid":18,"az":202.0,"el":38.0,"prRes":20.2,"qual":4,"ss":18.0,"used":false,"health":1},{"PRN":83,"gnssid":6,"svid":19,"az":271.0,"el":60.0,"prRes":27.1,"qual":1,"ss":0.0,"used":false,"health":1},{"PRN":84,"gnssid":6,"svid":20,"az":336.0,"el":16.0,"prRes":33.6,"qual":4,"ss":21.0,"used":false,"health":1}]}
$GPGSV,3,1,09,66,27,063,34,67,78,017,29,68,41,258,19,75,13,005,30*7C
$GPGSV,3,2,09,76,28,063,38,77,14,111,17,82,38,202,18,83,60,271,00*77
$GPGSV,3,3,09,84,16,336,21*4E
{"class":"SKY","time":"2023-06-28T14:52:23.000Z","nSat":9,"uSat":4,"satellites":[{"PRN":66,"gnssid":6,"svid":2,"freqid":3,"az":63.0,"el":27.0,"prRes":-2.7,"qual":7,"ss":34.0,"used":true,"health":1},{"PRN":67,"gnssid":6,"svid":3,"freqid":12,"az":17.0,"el":78.0,"prRes":-6.3,"qual":7,"ss":29.0,"used":true,"health":1},{"PRN":68,"gnssid":6,"svid":4,"freqid":13,"az":258.0,"el":41.0,"prRes":0.0,"qual":4,"ss":19.0,"used":false,"health":1},{"PRN":75,"gnssid":6,"svid":11,"freqid":7,"az":5.0,"el":13.0,"prRes":1.0,"qual":7,"ss":30.0,"used":true,"health":1},{"PRN":76,"gnssid":6,"svid":12,"freqid":6,"az":63.0,"el":28.0,"prRes":1.6,"qual":7,"ss":38.0,"used":true,"health":1},{"PRN":77,"gnssid":6,"svid":13,"freqid":5,"az":111.0,"el":14.0,"prRes":0.0,"qual":4,"ss":17.0,"used":false,"health":1},{"PRN":82,"gnssid":6,"svid":18,"freqid":4,"az":202.0,"el":38.0,"prRes":0.0,"qual":4,"ss":18.0,"used":false,"health":1},{"PRN":83,"gnssid":6,"svid":19,"freqid":10,"az":271.0,"el":60.0,"prRes":0.0,"qual":1,"ss":0.0,"used":false,"health":1},{"PRN":84,"gnssid":6,"svid":20,"freqid":9,"az":336.0,"el":16.0,"prRes":0.0,"qual":4,"ss":21.0,"used":false,"health":1}]}
{"class":"SKY","time":"2023-06-28T14:52:23.000Z","hdop":83.66,"tdop":94.97,"vdop":79.69}
$GPZDA,145223.00,28,06,2023,00,00*6A
$GPGGA,145223.00,5536.1531440,N,03735.8837500,E,1,04,83.66,194.00,M,13.629,M,,*53
$GPRMC,145223.00,A,5536.1531440,N,3735.8837500,E,0.0311,343.817,280623,11.3,E*6C
$GPGSA,A,3,66,67,75,76,,,,,,,,,,83.7,79.7*1B
{"class":"TPV","mode":3,"time":"2023-06-28T14:52:23.000Z","ept":0.005,"lat":55.602552400,"lon":37.598062500,"altHAE":207.3590,"altMSL":193.9960,"alt":193.9960,"epv":20.370,"track":343.8170,"magtrack":355.1162,"magvar":11.3,"speed":0.016,"climb":0.148,"eps":0.55,"epc":40.81,"ecefx":2861475.57,"ecefy":2203478.70,"ecefz":5239741.40,"ecefvx":0.00,"ecefvy":0.02,"ecefvz":0.00,"ecefpAcc":32.60,"ecefvAcc":0.55,"geoidSep":13.629,"eph":25.454}
$GPGSV,3,1,09,66,27,063,34,67,78,017,29,68,41,258,20,75,13,005,31*77
$GPGSV,3,2,09,76,28,063,38,77,14,111,16,82,38,202,16,83,60,271,00*78
$GPGSV,3,3,09,84,16,336,22*4D
{"class":"SKY","time":"2023-06-28T14:52:24.000Z","nSat":9,"uSat":4,"satellites":[{"PRN":66,"gnssid":6,"svid":2,"az":63.0,"el":27.0,"prRes":6.3,"qual":7,"ss":34.0,"used":true,"health":1},{"PRN":67,"gnssid":6,"svid":3,"az":17.0,"el":78.0,"prRes":1.7,"qual":7,"ss":29.0,"used":true,"health":1},{"PRN":68,"gnssid":6,"svid":4,"az":258.0,"el":41.0,"prRes":25.8,"qual":4,"ss":20.0,"used":false,"health":1},{"PRN":75,"gnssid":6,"svid":11,"az":5.0,"el":13.0,"prRes":0.5,"qual":7,"ss":31.0,"used":true,"health":1},{"PRN":76,"gnssid":6,"svid":12,"az":63.0,"el":28.0,"prRes":6.3,"qual":7,"ss":38.0,"used":true,"health":1},{"PRN":77,"gnssid":6,"svid":13,"az":111.0,"el":14.0,"prRes":11.1,"qual":4,"ss":16.0,"used":false,"health":1},{"PRN":82,"gnssid":6,"svid":18,"az":202.0,"el":38.0,"prRes":20.2,"qual":4,"ss":16.0,"used":false,"health":1},{"PRN":83,"gnssid":6,"svid":19,"az":271.0,"el":60.0,"prRes":27.1,"qual":0,"ss":0.0,"used":false,"health":1},{"PRN":84,"gnssid":6,"svid":20,"az":336.0,"el":16.0,"prRes":33.6,"qual":4,"ss":22.0,"used":false,"health":1}]}
$GPGSV,2,1,08,66,27,063,34,67,78,017,29,68,41,258,20,75,13,005,31*77
$GPGSV,2,2,08,76,28,063,38,77,14,111,16,82,38,202,16,84,16,336,22*7C
{"class":"SKY","time":"2023-06-28T14:52:24.000Z","nSat":8,"uSat":4,"satellites":[{"PRN":66,"gnssid":6,"svid":2,"freqid":3,"az":63.0,"el":27.0,"prRes":-2.9,"qual":7,"ss":34.0,"used":true,"health":1},{"PRN":67,"gnssid":6,"svid":3,"freqid":12,"az":17.0,"el":78.0,"prRes":-5.3,"qual":7,"ss":29.0,"used":true,"health":1},{"PRN":68,"gnssid":6,"svid":4,"freqid":13,"az":258.0,"el":41.0,"prRes":0.0,"qual":4,"ss":20.0,"used":false,"health":1},{"PRN":75,"gnssid":6,"svid":11,"freqid":7,"az":5.0,"el":13.0,"prRes":1.0,"qual":7,"ss":31.0,"used":true,"health":1},{"PRN":76,"gnssid":6,"svid":12,"freqid":6,"az":63.0,"el":28.0,"prRes":1.7,"qual":7,"ss":38.0,"used":true,"health":1},{"PRN":77,"gnssid":6,"svid":13,"freqid":5,"az":111.0,"el":14.0,"prRes":0.0,"qual":4,"ss":16.0,"used":false,"health":1},{"PRN":82,"gnssid":6,"svid":18,"freqid":4,"az":202.0,"el":38.0,"prRes":0.0,"qual":4,"ss":16.0,"used":false,"health":1},{"PRN":84,"gnssid":6,"svid":20,"freqid":9,"az":336.0,"el":16.0,"prRes":0.0,"qual":4,"ss":22.0,"used":false,"health":1}]}
{"class":"SKY","time":"2023-06-28T14:52:24.000Z","hdop":82.61,"tdop":93.77,"vdop":78.67}
$GPZDA,145224.00,28,06,2023,00,00*6D
$GPGGA,145224.00,5536.1534380,N,03735.8841820,E,1,04,82.61,194.18,M,13.629,M,,*5B
$GPRMC,145224.00,A,5536.1534380,N,3735.8841820,E,0.1011,343.817,280623,11.3,E*69
$GPGSA,A,3,66,67,75,76,,,,,,,,,,82.6,78.7*1A
{"class":"TPV","mode":3,"time":"2023-06-28T14:52:24.000Z","ept":0.005,"lat":55.602557300,"lon":37.598069700,"altHAE":207.5460,"altMSL":194.1830,"alt":194.1830,"epv":20.311,"track":343.8170,"magtrack":355.1162,"magvar":11.3,"speed":0.052,"climb":0.187,"eps":0.52,"epc":40.68,"ecefx":2861475.02,"ecefy":2203478.85,"ecefz":5239741.86,"ecefvx":-0.03,"ecefvy":0.04,"ecefvz":0.00,"ecefpAcc":32.42,"ecefvAcc":0.52,"geoidSep":13.629,"eph":25.274}
$GPGSV,3,1,09,66,27,063,35,67,78,017,28,68,41,258,20,75,13,005,31*77
$GPGSV,3,2,09,76,28,063,38,77,14,111,15,82,38,202,18,83,60,271,00*75
$GPGSV,3,3,09,84,16,336,21*4E
{"class":"SKY","time":"2023-06-28T14:52:25.000Z","nSat":9,"uSat":4,"satellites":[{"PRN":66,"gnssid":6,"svid":2,"az":63.0,"el":27.0,"prRes":6.3,"qual":7,"ss":35.0,"used":true,"health":1},{"PRN":67,"gnssid":6,"svid":3,"az":17.0,"el":78.0,"prRes":1.7,"qual":7,"ss":28.0,"used":true,"health":1},{"PRN":68,"gnssid":6,"svid":4,"az":258.0,"el":41.0,"prRes":25.8,"qual":4,"ss":20.0,"used":false,"health":1},{"PRN":75,"gnssid":6,"svid":11,"az":5.0,"el":13.0,"prRes":0.5,"qual":7,"ss":31.0,"used":true,"health":1},{"PRN":76,"gnssid":6,"svid":12,"az":63.0,"el":28.0,"prRes":6.3,"qual":7,"ss":38.0,"used":true,"health":1},{"PRN":77,"gnssid":6,"svid":13,"az":111.0,"el":14.0,"prRes":11.1,"qual":4,"ss":15.0,"used":false,"health":1},{"PRN":82,"gnssid":6,"svid":18,"az":202.0,"el":38.0,"prRes":20.2,"qual":4,"ss":18.0,"used":false,"health":1},{"PRN":83,"gnssid":6,"svid":19,"az":271.0,"el":60.0,"prRes":27.1,"qual":1,"ss":0.0,"used":false,"health":1},{"PRN":84,"gnssid":6,"svid":20,"az":336.0,"el":16.0,"prRes":33.6,"qual":4,"ss":21.0,"used":false,"health":1}]}
$GPGSV,3,1,09,66,27,063,35,67,78,017,28,68,41,258,20,75,13,005,31*77
$GPGSV,3,2,09,76,28,063,38,77,14,111,15,82,38,202,18,83,60,271,00*75
$GPGSV,3,3,09,84,16,336,21*4E
{"class":"SKY","time":"2023-06-28T14:52:25.000Z","nSat":9,"uSat":4,"satellites":[{"PRN":66,"gnssid":6,"svid":2,"freqid":3,"az":63.0,"el":27.0,"prRes":-2.9,"qual":7,"ss":35.0,"used":true,"health":1},{"PRN":67,"gnssid":6,"svid":3,"freqid":12,"az":17.0,"el":78.0,"prRes":-2.7,"qual":7,"ss":28.0,"used":true,"health":1},{"PRN":68,"gnssid":6,"svid":4,"freqid":13,"az":258.0,"el":41.0,"prRes":0.0,"qual":4,"ss":20.0,"used":false,"health":1},{"PRN":75,"gnssid":6,"svid":11,"freqid":7,"az":5.0,"el":13.0,"prRes":0.8,"qual":7,"ss":31.0,"used":true,"health":1},{"PRN":76,"gnssid":6,"svid":12,"freqid":6,"az":63.0,"el":28.0,"prRes":1.4,"qual":7,"ss":38.0,"used":true,"health":1},{"PRN":77,"gnssid":6,"svid":13,"freqid":5,"az":111.0,"el":14.0,"prRes":0.0,"qual":4,"ss":15.0,"used":false,"health":1},{"PRN":82,"gnssid":6,"svid":18,"freqid":4,"az":202.0,"el":38.0,"prRes":0.0,"qual":4,"ss":18.0,"used":false,"health":1},{"PRN":83,"gnssid":6,"svid":19,"freqid":10,"az":271.0,"el":60.0,"prRes":0.0,"qual":1,"ss":0.0,"used":false,"health":1},{"PRN":84,"gnssid":6,"svid":20,"freqid":9,"az":336.0,"el":16.0,"prRes":0.0,"qual":4,"ss":21.0,"used":false,"health":1}]}
{"class":"SKY","time":"2023-06-28T14:52:25.000Z","hdop":81.59,"tdop":92.60,"vdop":77.68}
$GPZDA,145225.00,28,06,2023,00,00*6C
$GPGGA,145225.00,5536.1536180,N,03735.8844040,E,1,04,81.59,194.32,M,13.629,M,,*51
$GPRMC,145225.00,A,5536.1536180,N,3735.8844040,E,0.0816,343.817,280623,11.3,E*6D
$GPGSA,A,3,66,67,75,76,,,,,,,,,,81.6,77.7*16
{"class":"TPV","mode":3,"time":"2023-06-28T14:52:25.000Z","ept":0.005,"lat":55.602560300,"lon":37.598073400,"altHAE":207.6840,"altMSL":194.3210,"alt":194.3210,"epv":20.265,"track":343.8170,"magtrack":355.1162,"magvar":11.3,"speed":0.042,"climb":0.138,"eps":0.64,"epc":40.58,"ecefx":2861474.72,"ecefy":2203478.91,"ecefz":5239742.16,"ecefvx":-0.04,"ecefvy":0.01,"ecefvz":0.02,"ecefpAcc":32.29,"ecefvAcc":0.64,"geoidSep":13.629,"eph":25.136}
$GPGSV,3,1,09,66,27,063,35,67,78,017,28,68,41,258,20,75,13,005,32*74
$GPGSV,3,2,09,76,28,063,39,77,14,111,16,82,38,202,18,83,60,271,00*77
$GPGSV,3,3,09,84,16,336,21*4E
{"class":"SKY","time":"2023-06-28T14:52:26.000Z","nSat":9,"uSat":4,"satellites":[{"PRN":66,"gnssid":6,"svid":2,"az":63.0,"el":27.0,"prRes":6.3,"qual":7,"ss":35.0,"used":true,"health":1},{"PRN":67,"gnssid":6,"svid":3,"az":17.0,"el":78.0,"prRes":1.7,"qual":7,"ss":28.0,"used":true,"health":1},{"PRN":68,"gnssid":6,"svid":4,"az":258.0,"el":41.0,"prRes":25.8,"qual":4,"ss":20.0,"used":false,"health":1},{"PRN":75,"gnssid":6,"svid":11,"az":5.0,"el":13.0,"prRes":0.5,"qual":7,"ss":32.0,"used":true,"health":1},{"PRN":76,"gnssid":6,"svid":12,"az":63.0,"el":28.0,"prRes":6.3,"qual":7,"ss":39.0,"used":true,"health":1},{"PRN":77,"gnssid":6,"svid":13,"az":111.0,"el":14.0,"prRes":11.1,"qual":4,"ss":16.0,"used":false,"health":1},{"PRN":82,"gnssid":6,"svid":18,"az":202.0,"el":38.0,"prRes":20.2,"qual":4,"ss":18.0,"used":false,"health":1},{"PRN":83,"gnssid":6,"svid":19,"az":271.0,"el":60.0,"prRes":27.1,"qual":1,"ss":0.0,"used":false,"health":1},{"PRN":84,"gnssid":6,"svid":20,"az":336.0,"el":16.0,"prRes":33.6,"qual":4,"ss":21.0,"used":false,"health":1}]}
$GPGSV,3,1,09,66,27,063,35,67,78,017,28,68,41,258,20,75,13,005,32*74
$GPGSV,3,2,09,76,28,063,39,77,14,111,16,82,38,202,18,83,60,271,00*77
$GPGSV,3,3,09,84,16,336,21*4E
{"class":"SKY","time":"2023-06-28T14:52:26.000Z","nSat":9,"uSat":4,"satellites":[{"PRN":66,"gnssid":6,"svid":2,"freqid":3,"az":63.0,"el":27.0,"prRes":-3.0,"qual":7,"ss":35.0,"used":true,"health":1},{"PRN":67,"gnssid":6,"svid":3,"freqid":12,"az":17.0,"el":78.0,"prRes":-1.3,"qual":7,"ss":28.0,"used":true,"health":1},{"PRN":68,"gnssid":6,"svid":4,"freqid":13,"az":258.0,"el":41.0,"prRes":0.0,"qual":4,"ss":20.0,"used":false,"health":1},{"PRN":75,"gnssid":6,"svid":11,"freqid":7,"az":5.0,"el":13.0,"prRes":1.0,"qual":7,"ss":32.0,"used":true,"health":1},{"PRN":76,"gnssid":6,"svid":12,"freqid":6,"az":63.0,"el":28.0,"prRes":1.0,"qual":7,"ss":39.0,"used":true,"health":1},{"PRN":77,"gnssid":6,"svid":13,"freqid":5,"az":111.0,"el":14.0,"prRes":0.0,"qual":4,"ss":16.0,"used":false,"health":1},{"PRN":82,"gnssid":6,"svid":18,"freqid":4,"az":202.0,"el":38.0,"prRes":0.0,"qual":4,"ss":18.0,"used":false,"health":1},{"PRN":83,"gnssid":6,"svid":19,"freqid":10,"az":271.0,"el":60.0,"prRes":0.0,"qual":1,"ss":0.0,"used":false,"health":1},{"PRN":84,"gnssid":6,"svid":20,"freqid":9,"az":336.0,"el":16.0,"prRes":0.0,"qual":4,"ss":21.0,"used":false,"health":1}]}
{"class":"SKY","time":"2023-06-28T14:52:26.000Z","hdop":80.59,"tdop":91.46,"vdop":76.71}
$GPZDA,145226.00,28,06,2023,00,00*6F
$GPGGA,145226.00,5536.1537080,N,03735.8845000,E,1,04,80.59,194.43,M,13.629,M,,*50
$GPRMC,145226.00,A,5536.1537080,N,3735.8845000,E,0.1263,343.817,280623,11.3,E*62
$GPGSA,A,3,66,67,75,76,,,,,,,,,,80.6,76.7*16
{"class":"TPV","mode":3,"time":"2023-06-28T14:52:26.000Z","ept":0.005,"lat":55.602561800,"lon":37.598075000,"altHAE":207.7950,"altMSL":194.4320,"alt":194.4320,"epv":20.221,"track":343.8170,"magtrack":355.1162,"magvar":11.3,"speed":0.065,"climb":0.111,"eps":0.68,"epc":40.49,"ecefx":2861474.60,"ecefy":2203478.95,"ecefz":5239742.34,"ecefvx":0.05,"ecefvy":0.03,"ecefvz":-0.04,"ecefpAcc":32.15,"ecefvAcc":0.68,"geoidSep":13.629,"eph":24.998}
$GPGSV,3,1,09,66,27,063,36,67,78,017,28,68,41,258,21,75,13,005,32*76
$GPGSV,3,2,09,76,28,063,40,77,14,111,16,82,38,202,19,83,60,271,00*78
$GPGSV,3,3,09,84,16,336,22*4D
{"class":"SKY","time":"2023-06-28T14:52:27.000Z","nSat":9,"uSat":4,"satellites":[{"PRN":66,"gnssid":6,"svid":2,"az":63.0,"el":27.0,"prRes":6.3,"qual":7,"ss":36.0,"used":true,"health":1},{"PRN":67,"gnssid":6,"svid":3,"az":17.0,"el":78.0,"prRes":1.7,"qual":7,"ss":28.0,"used":true,"health":1},{"PRN":68,"gnssid":6,"svid":4,"az":258.0,"el":41.0,"prRes":25.8,"qual":4,"ss":21.0,"used":false,"health":1},{"PRN":75,"gnssid":6,"svid":11,"az":5.0,"el":13.0,"prRes":0.5,"qual":7,"ss":32.0,"used":true,"health":1},{"PRN":76,"gnssid":6,"svid":12,"az":63.0,"el":28.0,"prRes":6.3,"qual":7,"ss":40.0,"used":true,"health":1},{"PRN":77,"gnssid":6,"svid":13,"az":111.0,"el":14.0,"prRes":11.1,"qual":4,"ss":16.0,"used":false,"health":1},{"PRN":82,"gnssid":6,"svid":18,"az":202.0,"el":38.0,"prRes":20.2,"qual":4,"ss":19.0,"used":false,"health":1},{"PRN":83,"gnssid":6,"svid":19,"az":271.0,"el":60.0,"prRes":27.1,"qual":1,"ss":0.0,"used":false,"health":1},{"PRN":84,"gnssid":6,"svid":20,"az":336.0,"el":16.0,"prRes":33.6,"qual":4,"ss":22.0,"used":false,"health":1}]}
$GPGSV,3,1,09,66,27,063,36,67,78,017,28,68,41,258,21,75,13,005,32*76
$GPGSV,3,2,09,76,28,063,40,77,14,111,16,82,38,202,19,83,60,271,00*78
$GPGSV,3,3,09,84,16,336,22*4D
{"class":"SKY","time":"2023-06-28T14:52:27.000Z","nSat":9,"uSat":4,"satellites":[{"PRN":66,"gnssid":6,"svid":2,"freqid":3,"az":63.0,"el":27.0,"prRes":-3.1,"qual":7,"ss":36.0,"used":true,"health":1},{"PRN":67,"gnssid":6,"svid":3,"freqid":12,"az":17.0,"el":78.0,"prRes":-0.1,"qual":7,"ss":28.0,"used":true,"health":1},{"PRN":68,"gnssid":6,"svid":4,"freqid":13,"az":258.0,"el":41.0,"prRes":0.0,"qual":4,"ss":21.0,"used":false,"health":1},{"PRN":75,"gnssid":6,"svid":11,"freqid":7,"az":5.0,"el":13.0,"prRes":0.7,"qual":7,"ss":32.0,"used":true,"health":1},{"PRN":76,"gnssid":6,"svid":12,"freqid":6,"az":63.0,"el":28.0,"prRes":0.6,"qual":7,"ss":40.0,"used":true,"health":1},{"PRN":77,"gnssid":6,"svid":13,"freqid":5,"az":111.0,"el":14.0,"prRes":0.0,"qual":4,"ss":16.0,"used":false,"health":1},{"PRN":82,"gnssid":6,"svid":18,"freqid":4,"az":202.0,"el":38.0,"prRes":0.0,"qual":4,"ss":19.0,"used":false,"health":1},{"PRN":83,"gnssid":6,"svid":19,"freqid":10,"az":271.0,"el":60.0,"prRes":0.0,"qual":1,"ss":0.0,"used":false,"health":1},{"PRN":84,"gnssid":6,"svid":20,"freqid":9,"az":336.0,"el":16.0,"prRes":0.0,"qual":4,"ss":22.0,"used":false,"health":1}]}
{"class":"SKY","time":"2023-06-28T14:52:27.000Z","hdop":79.62,"tdop":90.34,"vdop":75.76}
$GPZDA,145227.00,28,06,2023,00,00*6E
$GPGGA,145227.00,5536.1537620,N,03735.8844940,E,1,04,79.62,194.54,M,13.629,M,,*59
$GPRMC,145227.00,A,5536.1537620,N,3735.8844940,E,0.0311,343.817,280623,11.3,E*66
$GPGSA,A,3,66,67,75,76,,,,,,,,,,79.6,75.8*1C
{"class":"TPV","mode":3,"time":"2023-06-28T14:52:27.000Z","ept":0.005,"lat":55.602562700,"lon":37.598074900,"altHAE":207.9030,"altMSL":194.5400,"alt":194.5400,"epv":20.163,"track":343.8170,"magtrack":355.1162,"magvar":11.3,"speed":0.016,"climb":0.108,"eps":0.50,"epc":40.38,"ecefx":2861474.59,"ecefy":2203478.93,"ecefz":5239742.49,"ecefvx":0.01,"ecefvy":-0.01,"ecefvz":0.00,"ecefpAcc":32.00,"ecefvAcc":0.50,"geoidSep":13.629,"eph":24.853}
$GPGSV,3,1,09,66,27,063,35,67,78,017,29,68,41,258,20,75,13,005,33*74
$GPGSV,3,2,09,76,28,063,40,77,14,111,15,82,38,202,18,83,60,271,00*7A
$GPGSV,3,3,09,84,16,336,22*4D
{"class":"SKY","time":"2023-06-28T14:52:28.000Z","nSat":9,"uSat":4,"satellites":[{"PRN":66,"gnssid":6,"svid":2,"az":63.0,"el":27.0,"prRes":6.3,"qual":7,"ss":35.0,"used":true,"health":1},{"PRN":67,"gnssid":6,"svid":3,"az":17.0,"el":78.0,"prRes":1.7,"qual":7,"ss":29.0,"used":true,"health":1},{"PRN":68,"gnssid":6,"svid":4,"az":258.0,"el":41.0,"prRes":25.8,"qual":4,"ss":20.0,"used":false,"health":1},{"PRN":75,"gnssid":6,"svid":11,"az":5.0,"el":13.0,"prRes":0.5,"qual":7,"ss":33.0,"used":true,"health":1},{"PRN":76,"gnssid":6,"svid":12,"az":63.0,"el":28.0,"prRes":6.3,"qual":7,"ss":40.0,"used":true,"health":1},{"PRN":77,"gnssid":6,"svid":13,"az":111.0,"el":14.0,"prRes":11.1,"qual":3,"ss":15.0,"used":false,"health":1},{"PRN":82,"gnssid":6,"svid":18,"az":202.0,"el":38.0,"prRes":20.2,"qual":4,"ss":18.0,"used":false,"health":1},{"PRN":83,"gnssid":6,"svid":19,"az":271.0,"el":60.0,"prRes":27.1,"qual":1,"ss":0.0,"used":false,"health":1},{"PRN":84,"gnssid":6,"svid":20,"az":336.0,"el":16.0,"prRes":33.6,"qual":4,"ss":22.0,"used":false,"health":1}]}
$GPGSV,3,1,09,66,27,063,35,67,78,017,29,68,41,258,20,75,13,005,33*74
$GPGSV,3,2,09,76,28,063,40,77,14,111,15,82,38,202,18,83,60,271,00*7A
$GPGSV,3,3,09,84,16,336,22*4D
{"class":"SKY","time":"2023-06-28T14:52:28.000Z","nSat":9,"uSat":4,"satellites":[{"PRN":66,"gnssid":6,"svid":2,"freqid":3,"az":63.0,"el":27.0,"prRes":-3.0,"qual":7,"ss":35.0,"used":true,"health":1},{"PRN":67,"gnssid":6,"svid":3,"freqid":12,"az":17.0,"el":78.0,"prRes":1.3,"qual":7,"ss":29.0,"used":true,"health":1},{"PRN":68,"gnssid":6,"svid":4,"freqid":13,"az":258.0,"el":41.0,"prRes":0.0,"qual":4,"ss":20.0,"used":false,"health":1},{"PRN":75,"gnssid":6,"svid":11,"freqid":7,"az":5.0,"el":13.0,"prRes":0.7,"qual":7,"ss":33.0,"used":true,"health":1},{"PRN":76,"gnssid":6,"svid":12,"freqid":6,"az":63.0,"el":28.0,"prRes":0.2,"qual":7,"ss":40.0,"used":true,"health":1},{"PRN":77,"gnssid":6,"svid":13,"freqid":5,"az":111.0,"el":14.0,"prRes":0.0,"qual":3,"ss":15.0,"used":false,"health":1},{"PRN":82,"gnssid":6,"svid":18,"freqid":4,"az":202.0,"el":38.0,"prRes":0.0,"qual":4,"ss":18.0,"used":false,"health":1},{"PRN":83,"gnssid":6,"svid":19,"freqid":10,"az":271.0,"el":60.0,"prRes":0.0,"qual":1,"ss":0.0,"used":false,"health":1},{"PRN":84,"gnssid":6,"svid":20,"freqid":9,"az":336.0,"el":16.0,"prRes":0.0,"qual":4,"ss":22.0,"used":false,"health":1}]}
{"class":"SKY","time":"2023-06-28T14:52:28.000Z","hdop":78.67,"tdop":89.25,"vdop":74.84}
$GPZDA,145228.00,28,06,2023,00,00*61
$GPGGA,145228.00,5536.1537500,N,03735.8844100,E,1,04,78.67,194.57,M,13.629,M,,*5C
$GPRMC,145228.00,A,5536.1537500,N,3735.8844100,E,0.0719,343.817,280623,11.3,E*68
$GPGSA,A,3,66,67,75,76,,,,,,,,,,78.7,74.8*1D
{"class":"TPV","mode":3,"time":"2023-06-28T14:52:28.000Z","ept":0.005,"lat":55.602562500,"lon":37.598073500,"altHAE":207.9290,"altMSL":194.5660,"alt":194.5660,"epv":20.133,"track":343.8170,"magtrack":355.1162,"magvar":11.3,"speed":0.037,"climb":0.026,"eps":0.66,"epc":40.30,"ecefx":2861474.67,"ecefy":2203478.88,"ecefz":5239742.50,"ecefvx":0.03,"ecefvy":0.01,"ecefvz":-0.02,"ecefpAcc":31.87,"ecefvAcc":0.66,"geoidSep":13.629,"eph":24.710}
$GPGSV,3,1,09,66,27,063,35,67,78,017,28,68,41,258,21,75,13,005,33*74
$GPGSV,3,2,09,76,28,063,41,77,14,111,14,82,38,202,18,83,60,271,00*7A
$GPGSV,3,3,09,84,16,336,22*4D
{"class":"SKY","time":"2023-06-28T14:52:29.000Z","nSat":9,"uSat":4,"satellites":[{"PRN":66,"gnssid":6,"svid":2,"az":63.0,"el":27.0,"prRes":6.3,"qual":7,"ss":35.0,"used":true,"health":1},{"PRN":67,"gnssid":6,"svid":3,"az":17.0,"el":78.0,"prRes":1.7,"qual":7,"ss":28.0,"used":true,"health":1},{"PRN":68,"gnssid":6,"svid":4,"az":258.0,"el":41.0,"prRes":25.8,"qual":4,"ss":21.0,"used":false,"health":1},{"PRN":75,"gnssid":6,"svid":11,"az":5.0,"el":13.0,"prRes":0.5,"qual":7,"ss":33.0,"used":true,"health":1},{"PRN":76,"gnssid":6,"svid":12,"az":63.0,"el":28.0,"prRes":6.3,"qual":7,"ss":41.0,"used":true,"health":1},{"PRN":77,"gnssid":6,"svid":13,"az":111.0,"el":14.0,"prRes":11.1,"qual":4,"ss":14.0,"used":false,"health":1},{"PRN":82,"gnssid":6,"svid":18,"az":202.0,"el":38.0,"prRes":20.2,"qual":4,"ss":18.0,"used":false,"health":1},{"PRN":83,"gnssid":6,"svid":19,"az":271.0,"el":60.0,"prRes":27.1,"qual":1,"ss":0.0,"used":false,"health":1},{"PRN":84,"gnssid":6,"svid":20,"az":336.0,"el":16.0,"prRes":33.6,"qual":4,"ss":22.0,"used":false,"health":1}]}
$GPGSV,3,1,09,66,27,063,35,67,78,017,28,68,41,258,21,75,13,005,33*74
$GPGSV,3,2,09,76,28,063,41,77,14,111,14,82,38,202,18,83,60,271,00*7A
$GPGSV,3,3,09,84,16,336,22*4D
