$GNRMC,014500.00,A,4404.1306024,N,12118.8446777,W,0.013,,231221,,,D,V*04
{"class":"TPV","status":2,"mode":2,"time":"2021-12-23T01:45:00.000Z","ept":0.005,"lat":44.068843373,"lon":-121.314077962,"magvar":14.4,"speed":0.007}
$GNVTG,,T,,M,0.013,N,0.024,K,D*3C
$GNGGA,014500.00,4404.1306024,N,12118.8446777,W,2,12,0.49,1129.913,M,-21.350,M,,0278*4C
{"class":"TPV","status":2,"mode":3,"time":"2021-12-23T01:45:00.000Z","ept":0.005,"lat":44.068843373,"lon":-121.314077962,"altHAE":1108.5630,"altMSL":1129.9130,"alt":1129.9130,"magvar":14.4,"speed":0.007,"geoidSep":-21.350,"eph":2.328}
{"class":"SKY","hdop":0.49}
$GNGSA,A,3,21,30,46,13,17,51,14,44,15,19,07,01,0.98,0.49,0.84,1*0C
{"class":"TPV","status":2,"mode":3,"time":"2021-12-23T01:45:00.000Z","ept":0.005,"lat":44.068843373,"lon":-121.314077962,"altHAE":1108.5630,"altMSL":1129.9130,"alt":1129.9130,"epv":4.830,"magvar":14.4,"speed":0.007,"geoidSep":-21.350,"eph":2.328,"sep":4.655}
$GNGSA,A,3,70,78,82,79,88,81,69,,,,,,0.98,0.49,0.84,2*08
{"class":"TPV","status":2,"mode":3,"time":"2021-12-23T01:45:00.000Z","ept":0.005,"lat":44.068843373,"lon":-121.314077962,"altHAE":1108.5630,"altMSL":1129.9130,"alt":1129.9130,"epv":4.830,"magvar":14.4,"speed":0.007,"geoidSep":-21.350,"eph":2.328,"sep":4.655}
{"class":"SKY","hdop":0.49,"pdop":0.98,"vdop":0.84}
$GNGSA,A,3,13,31,01,09,04,26,21,,,,,,0.98,0.49,0.84,3*08
{"class":"TPV","status":2,"mode":3,"time":"2021-12-23T01:45:00.000Z","ept":0.005,"lat":44.068843373,"lon":-121.314077962,"altHAE":1108.5630,"altMSL":1129.9130,"alt":1129.9130,"epv":4.830,"magvar":14.4,"speed":0.007,"geoidSep":-21.350,"eph":2.328,"sep":4.655}
{"class":"SKY","hdop":0.49,"pdop":0.98,"vdop":0.84}
$GNGSA,A,3,23,34,25,11,12,,,,,,,,0.98,0.49,0.84,4*06
{"class":"TPV","status":2,"mode":3,"time":"2021-12-23T01:45:00.000Z","ept":0.005,"lat":44.068843373,"lon":-121.314077962,"altHAE":1108.5630,"altMSL":1129.9130,"alt":1129.9130,"epv":4.830,"magvar":14.4,"speed":0.007,"geoidSep":-21.350,"eph":2.328,"sep":4.655}
{"class":"SKY","hdop":0.49,"pdop":0.98,"vdop":0.84}
$GPGSV,4,1,13,01,25,070,31,07,13,130,23,13,48,243,32,14,66,049,33,1*64
$GPGSV,4,2,13,15,32,280,35,17,73,154,34,19,49,193,38,21,15,043,20,1*6B
$GPGSV,4,3,13,24,11,310,19,30,41,131,36,44,39,174,35,46,39,191,38,1*69
$GPGSV,4,4,13,51,37,160,37,1*55
{"class":"SKY","gdop":1.99,"hdop":0.49,"pdop":0.98,"tdop":0.98,"xdop":0.64,"ydop":0.62,"vdop":0.84,"nSat":13,"uSat":12,"satellites":[{"PRN":1,"gnssid":0,"svid":1,"az":70.0,"el":25.0,"ss":31.0,"used":true},{"PRN":7,"gnssid":0,"svid":7,"az":130.0,"el":13.0,"ss":23.0,"used":true},{"PRN":13,"gnssid":0,"svid":13,"az":243.0,"el":48.0,"ss":32.0,"used":true},{"PRN":14,"gnssid":0,"svid":14,"az":49.0,"el":66.0,"ss":33.0,"used":true},{"PRN":15,"gnssid":0,"svid":15,"az":280.0,"el":32.0,"ss":35.0,"used":true},{"PRN":17,"gnssid":0,"svid":17,"az":154.0,"el":73.0,"ss":34.0,"used":true},{"PRN":19,"gnssid":0,"svid":19,"az":193.0,"el":49.0,"ss":38.0,"used":true},{"PRN":21,"gnssid":0,"svid":21,"az":43.0,"el":15.0,"ss":20.0,"used":true},{"PRN":24,"gnssid":0,"svid":24,"az":310.0,"el":11.0,"ss":19.0,"used":false},{"PRN":30,"gnssid":0,"svid":30,"az":131.0,"el":41.0,"ss":36.0,"used":true},{"PRN":44,"gnssid":1,"svid":131,"az":174.0,"el":39.0,"ss":35.0,"used":true},{"PRN":46,"gnssid":1,"svid":133,"az":191.0,"el":39.0,"ss":38.0,"used":true},{"PRN":51,"gnssid":1,"svid":138,"az":160.0,"el":37.0,"ss":37.0,"used":true}]}
$GPGSV,2,1,06,01,25,070,37,07,13,130,18,14,66,049,38,15,32,280,37,6*65
$GPGSV,2,2,06,17,73,154,31,30,41,131,28,6*6A
{"class":"SKY","gdop":1.99,"hdop":0.49,"pdop":0.98,"tdop":0.98,"xdop":0.64,"ydop":0.62,"vdop":0.84,"nSat":19,"uSat":18,"satellites":[{"PRN":1,"gnssid":0,"svid":1,"az":70.0,"el":25.0,"ss":31.0,"used":true},{"PRN":7,"gnssid":0,"svid":7,"az":130.0,"el":13.0,"ss":23.0,"used":true},{"PRN":13,"gnssid":0,"svid":13,"az":243.0,"el":48.0,"ss":32.0,"used":true},{"PRN":14,"gnssid":0,"svid":14,"az":49.0,"el":66.0,"ss":33.0,"used":true},{"PRN":15,"gnssid":0,"svid":15,"az":280.0,"el":32.0,"ss":35.0,"used":true},{"PRN":17,"gnssid":0,"svid":17,"az":154.0,"el":73.0,"ss":34.0,"used":true},{"PRN":19,"gnssid":0,"svid":19,"az":193.0,"el":49.0,"ss":38.0,"used":true},{"PRN":21,"gnssid":0,"svid":21,"az":43.0,"el":15.0,"ss":20.0,"used":true},{"PRN":24,"gnssid":0,"svid":24,"az":310.0,"el":11.0,"ss":19.0,"used":false},{"PRN":30,"gnssid":0,"svid":30,"az":131.0,"el":41.0,"ss":36.0,"used":true},{"PRN":44,"gnssid":1,"svid":131,"az":174.0,"el":39.0,"ss":35.0,"used":true},{"PRN":46,"gnssid":1,"svid":133,"az":191.0,"el":39.0,"ss":38.0,"used":true},{"PRN":51,"gnssid":1,"svid":138,"az":160.0,"el":37.0,"ss":37.0,"used":true},{"PRN":1,"gnssid":0,"svid":1,"sigid":3,"az":70.0,"el":25.0,"ss":37.0,"used":true},{"PRN":7,"gnssid":0,"svid":7,"sigid":3,"az":130.0,"el":13.0,"ss":18.0,"used":true},{"PRN":14,"gnssid":0,"svid":14,"sigid":3,"az":49.0,"el":66.0,"ss":38.0,"used":true},{"PRN":15,"gnssid":0,"svid":15,"sigid":3,"az":280.0,"el":32.0,"ss":37.0,"used":true},{"PRN":17,"gnssid":0,"svid":17,"sigid":3,"az":154.0,"el":73.0,"ss":31.0,"used":true},{"PRN":30,"gnssid":0,"svid":30,"sigid":3,"az":131.0,"el":41.0,"ss":28.0,"used":true}]}
$GLGSV,2,1,08,69,14,237,19,70,23,298,17,78,30,090,41,79,66,019,41,1*77
$GLGSV,2,2,08,81,55,121,37,82,21,172,30,87,02,018,09,88,36,043,36,1*7B
{"class":"SKY","gdop":1.99,"hdop":0.49,"pdop":0.98,"tdop":0.98,"xdop":0.64,"ydop":0.62,"vdop":0.84,"nSat":27,"uSat":25,"satellites":[{"PRN":1,"gnssid":0,"svid":1,"az":70.0,"el":25.0,"ss":31.0,"used":true},{"PRN":7,"gnssid":0,"svid":7,"az":130.0,"el":13.0,"ss":23.0,"used":true},{"PRN":13,"gnssid":0,"svid":13,"az":243.0,"el":48.0,"ss":32.0,"used":true},{"PRN":14,"gnssid":0,"svid":14,"az":49.0,"el":66.0,"ss":33.0,"used":true},{"PRN":15,"gnssid":0,"svid":15,"az":280.0,"el":32.0,"ss":35.0,"used":true},{"PRN":17,"gnssid":0,"svid":17,"az":154.0,"el":73.0,"ss":34.0,"used":true},{"PRN":19,"gnssid":0,"svid":19,"az":193.0,"el":49.0,"ss":38.0,"used":true},{"PRN":21,"gnssid":0,"svid":21,"az":43.0,"el":15.0,"ss":20.0,"used":true},{"PRN":24,"gnssid":0,"svid":24,"az":310.0,"el":11.0,"ss":19.0,"used":false},{"PRN":30,"gnssid":0,"svid":30,"az":131.0,"el":41.0,"ss":36.0,"used":true},{"PRN":44,"gnssid":1,"svid":131,"az":174.0,"el":39.0,"ss":35.0,"used":true},{"PRN":46,"gnssid":1,"svid":133,"az":191.0,"el":39.0,"ss":38.0,"used":true},{"PRN":51,"gnssid":1,"svid":138,"az":160.0,"el":37.0,"ss":37.0,"used":true},{"PRN":1,"gnssid":0,"svid":1,"sigid":3,"az":70.0,"el":25.0,"ss":37.0,"used":true},{"PRN":7,"gnssid":0,"svid":7,"sigid":3,"az":130.0,"el":13.0,"ss":18.0,"used":true},{"PRN":14,"gnssid":0,"svid":14,"sigid":3,"az":49.0,"el":66.0,"ss":38.0,"used":true},{"PRN":15,"gnssid":0,"svid":15,"sigid":3,"az":280.0,"el":32.0,"ss":37.0,"used":true},{"PRN":17,"gnssid":0,"svid":17,"sigid":3,"az":154.0,"el":73.0,"ss":31.0,"used":true},{"PRN":30,"gnssid":0,"svid":30,"sigid":3,"az":131.0,"el":41.0,"ss":28.0,"used":true},{"PRN":69,"gnssid":6,"svid":5,"az":237.0,"el":14.0,"ss":19.0,"used":true},{"PRN":70,"gnssid":6,"svid":6,"az":298.0,"el":23.0,"ss":17.0,"used":true},{"PRN":78,"gnssid":6,"svid":14,"az":90.0,"el":30.0,"ss":41.0,"used":true},{"PRN":79,"gnssid":6,"svid":15,"az":19.0,"el":66.0,"ss":41.0,"used":true},{"PRN":81,"gnssid":6,"svid":17,"az":121.0,"el":55.0,"ss":37.0,"used":true},{"PRN":82,"gnssid":6,"svid":18,"az":172.0,"el":21.0,"ss":30.0,"used":true},{"PRN":87,"gnssid":6,"svid":23,"az":18.0,"el":2.0,"ss":9.0,"used":false},{"PRN":88,"gnssid":6,"svid":24,"az":43.0,"el":36.0,"ss":36.0,"used":true}]}
$GLGSV,2,1,06,69,14,237,19,78,30,090,23,79,66,019,31,81,55,121,32,3*71
$GNTXT,01,01,00,txbuf alloc*61
$GNRMC,014501.00,A,4404.1306023,N,12118.8446927,W,0.013,,231221,,,D,V*09
$GNVTG,,T,,M,0.013,N,0.024,K,D*3C
$GNGGA,014501.00,4404.1306023,N,12118.8446927,W,2,12,0.49,1129.949,M,-21.350,M,,0278*4E
{"class":"TPV","status":2,"mode":3,"time":"2021-12-23T01:45:01.000Z","ept":0.005,"lat":44.068843372,"lon":-121.314078212,"altHAE":1108.5990,"altMSL":1129.9490,"alt":1129.9490,"magvar":14.4,"speed":0.007,"climb":0.036,"geoidSep":-21.350,"eph":2.328}
{"class":"SKY","hdop":0.49}
$GNGSA,A,3,21,30,46,13,17,51,14,44,15,19,07,01,0.98,0.49,0.84,1*0C
{"class":"TPV","status":2,"mode":3,"time":"2021-12-23T01:45:01.000Z","ept":0.005,"lat":44.068843372,"lon":-121.314078212,"altHAE":1108.5990,"altMSL":1129.9490,"alt":1129.9490,"epv":4.830,"magvar":14.4,"speed":0.007,"climb":0.036,"epc":9.66,"geoidSep":-21.350,"eph":2.328,"sep":4.655}
$GNGSA,A,3,70,78,82,79,88,81,69,,,,,,0.98,0.49,0.84,2*08
{"class":"TPV","status":2,"mode":3,"time":"2021-12-23T01:45:01.000Z","ept":0.005,"lat":44.068843372,"lon":-121.314078212,"altHAE":1108.5990,"altMSL":1129.9490,"alt":1129.9490,"epv":4.830,"magvar":14.4,"speed":0.007,"climb":0.036,"epc":9.66,"geoidSep":-21.350,"eph":2.328,"sep":4.655}
{"class":"SKY","hdop":0.49,"pdop":0.98,"vdop":0.84}
$GNGSA,A,3,13,31,01,09,04,26,21,,,,,,0.98,0.49,0.84,3*08
{"class":"TPV","status":2,"mode":3,"time":"2021-12-23T01:45:01.000Z","ept":0.005,"lat":44.068843372,"lon":-121.314078212,"altHAE":1108.5990,"altMSL":1129.9490,"alt":1129.9490,"epv":4.830,"magvar":14.4,"speed":0.007,"climb":0.036,"epc":9.66,"geoidSep":-21.350,"eph":2.328,"sep":4.655}
{"class":"SKY","hdop":0.49,"pdop":0.98,"vdop":0.84}
$GNGSA,A,3,23,34,25,11,12,,,,,,,,0.98,0.49,0.84,4*06
{"class":"TPV","status":2,"mode":3,"time":"2021-12-23T01:45:01.000Z","ept":0.005,"lat":44.068843372,"lon":-121.314078212,"altHAE":1108.5990,"altMSL":1129.9490,"alt":1129.9490,"epv":4.830,"magvar":14.4,"speed":0.007,"climb":0.036,"epc":9.66,"geoidSep":-21.350,"eph":2.328,"sep":4.655}
{"class":"SKY","hdop":0.49,"pdop":0.98,"vdop":0.84}
$GPGSV,4,1,13,01,25,070,31,07,13,130,24,13,48,243,31,14,66,049,33,1*60
$GPGSV,4,2,13,15,32,280,35,17,73,154,34,19,49,193,38,21,15,043,19,1*61
$GPGSV,4,3,13,24,11,310,19,30,41,131,36,44,39,174,35,46,39,191,38,1*69
$GPGSV,4,4,13,51,37,160,37,1*55
$GPGSV,2,1,06,01,25,070,37,07,13,130,17,14,66,049,38,15,32,280,37,6*6A
$GPGSV,2,2,06,17,73,154,30,30,41,131,28,6*6B
$GLGSV,2,1,08,69,14,237,20,70,23,298,17,78,30,090,41,79,66,019,41,1*7D
$GNRMC,014502.00,A,4404.1306012,N,12118.8447054,W,0.013,,231221,,,D,V*04
$GNVTG,,T,,M,0.013,N,0.024,K,D*3C
$GNGGA,014502.00,4404.1306012,N,12118.8447054,W,2,12,0.49,1129.989,M,-21.350,M,,0278*4F
{"class":"TPV","status":2,"mode":3,"time":"2021-12-23T01:45:02.000Z","ept":0.005,"lat":44.068843353,"lon":-121.314078423,"altHAE":1108.6390,"altMSL":1129.9890,"alt":1129.9890,"magvar":14.4,"speed":0.007,"climb":0.040,"geoidSep":-21.350,"eph":2.328}
{"class":"SKY","hdop":0.49}
$GNGSA,A,3,21,30,46,13,17,51,14,44,15,19,07,01,0.98,0.49,0.84,1*0C
{"class":"TPV","status":2,"mode":3,"time":"2021-12-23T01:45:02.000Z","ept":0.005,"lat":44.068843353,"lon":-121.314078423,"altHAE":1108.6390,"altMSL":1129.9890,"alt":1129.9890,"epv":4.830,"magvar":14.4,"speed":0.007,"climb":0.040,"epc":9.66,"geoidSep":-21.350,"eph":2.328,"sep":4.655}
$GNGSA,A,3,70,78,82,79,88,81,69,,,,,,0.98,0.49,0.84,2*08
{"class":"TPV","status":2,"mode":3,"time":"2021-12-23T01:45:02.000Z","ept":0.005,"lat":44.068843353,"lon":-121.314078423,"altHAE":1108.6390,"altMSL":1129.9890,"alt":1129.9890,"epv":4.830,"magvar":14.4,"speed":0.007,"climb":0.040,"epc":9.66,"geoidSep":-21.350,"eph":2.328,"sep":4.655}
{"class":"SKY","hdop":0.49,"pdop":0.98,"vdop":0.84}
$GNGSA,A,3,13,31,01,09,04,26,21,,,,,,0.98,0.49,0.84,3*08
{"class":"TPV","status":2,"mode":3,"time":"2021-12-23T01:45:02.000Z","ept":0.005,"lat":44.068843353,"lon":-121.314078423,"altHAE":1108.6390,"altMSL":1129.9890,"alt":1129.9890,"epv":4.830,"magvar":14.4,"speed":0.007,"climb":0.040,"epc":9.66,"geoidSep":-21.350,"eph":2.328,"sep":4.655}
{"class":"SKY","hdop":0.49,"pdop":0.98,"vdop":0.84}
$GNGSA,A,3,23,34,25,11,12,,,,,,,,0.98,0.49,0.84,4*06
{"class":"TPV","status":2,"mode":3,"time":"2021-12-23T01:45:02.000Z","ept":0.005,"lat":44.068843353,"lon":-121.314078423,"altHAE":1108.6390,"altMSL":1129.9890,"alt":1129.9890,"epv":4.830,"magvar":14.4,"speed":0.007,"climb":0.040,"epc":9.66,"geoidSep":-21.350,"eph":2.328,"sep":4.655}
{"class":"SKY","hdop":0.49,"pdop":0.98,"vdop":0.84}
$GPGSV,4,1,13,01,25,070,31,07,13,130,24,13,48,243,31,14,66,049,34,1*67
$GPGSV,4,2,13,15,32,280,35,17,73,154,34,19,49,193,38,21,15,043,20,1*6B
$GPGSV,4,3,13,24,11,310,20,30,41,131,36,44,39,174,35,46,39,191,38,1*63
$GPGSV,4,4,13,51,37,160,37,1*55
$GPGSV,2,1,06,01,25,070,37,07,13,130,17,14,66,049,38,15,32,280,38,6*65
$GPGSV,2,2,06,17,73,154,31,30,41,131,28,6*6A
$GLGSV,2,1,08,69,14,237,21,70,23,298,16,78,30,090,41,79,66,019,41,1*7D
$GLGSV,2,2,08,81,55,121,36,82,21,172,30,87,01,017,11,88,35,042,35,1*7E
{"class":"TPV","status":2,"mode":3,"time":"2021-12-23T01:45:02.000Z","ept":0.005,"lat":44.068843353,"lon":-121.314078423,"altHAE":1108.6390,"altMSL":1129.9890,"alt":1129.9890,"epx":1.358,"epy":1.567,"epv":4.830,"magvar":14.4,"speed":0.007,"climb":0.040,"epc":9.66,"geoidSep":-21.350,"eph":2.328,"sep":4.655}
{"class":"SKY","gdop":1.17,"hdop":0.49,"pdop":0.98,"tdop":0.56,"xdop":0.36,"ydop":0.42,"vdop":0.84,"nSat":27,"uSat":25,"satellites":[{"PRN":1,"gnssid":0,"svid":1,"az":70.0,"el":25.0,"ss":31.0,"used":true},{"PRN":7,"gnssid":0,"svid":7,"az":130.0,"el":13.0,"ss":24.0,"used":true},{"PRN":13,"gnssid":0,"svid":13,"az":243.0,"el":48.0,"ss":31.0,"used":true},{"PRN":14,"gnssid":0,"svid":14,"az":49.0,"el":66.0,"ss":34.0,"used":true},{"PRN":15,"gnssid":0,"svid":15,"az":280.0,"el":32.0,"ss":35.0,"used":true},{"PRN":17,"gnssid":0,"svid":17,"az":154.0,"el":73.0,"ss":34.0,"used":true},{"PRN":19,"gnssid":0,"svid":19,"az":193.0,"el":49.0,"ss":38.0,"used":true},{"PRN":21,"gnssid":0,"svid":21,"az":43.0,"el":15.0,"ss":20.0,"used":true},{"PRN":24,"gnssid":0,"svid":24,"az":310.0,"el":11.0,"ss":20.0,"used":false},{"PRN":30,"gnssid":0,"svid":30,"az":131.0,"el":41.0,"ss":36.0,"used":true},{"PRN":44,"gnssid":1,"svid":131,"az":174.0,"el":39.0,"ss":35.0,"used":true},{"PRN":46,"gnssid":1,"svid":133,"az":191.0,"el":39.0,"ss":38.0,"used":true},{"PRN":51,"gnssid":1,"svid":138,"az":160.0,"el":37.0,"ss":37.0,"used":true},{"PRN":1,"gnssid":0,"svid":1,"sigid":3,"az":70.0,"el":25.0,"ss":37.0,"used":true},{"PRN":7,"gnssid":0,"svid":7,"sigid":3,"az":130.0,"el":13.0,"ss":17.0,"used":true},{"PRN":14,"gnssid":0,"svid":14,"sigid":3,"az":49.0,"el":66.0,"ss":38.0,"used":true},{"PRN":15,"gnssid":0,"svid":15,"sigid":3,"az":280.0,"el":32.0,"ss":38.0,"used":true},{"PRN":17,"gnssid":0,"svid":17,"sigid":3,"az":154.0,"el":73.0,"ss":31.0,"used":true},{"PRN":30,"gnssid":0,"svid":30,"sigid":3,"az":131.0,"el":41.0,"ss":28.0,"used":true},{"PRN":69,"gnssid":6,"svid":5,"az":237.0,"el":14.0,"ss":21.0,"used":true},{"PRN":70,"gnssid":6,"svid":6,"az":298.0,"el":23.0,"ss":16.0,"used":true},{"PRN":78,"gnssid":6,"svid":14,"az":90.0,"el":30.0,"ss":41.0,"used":true},{"PRN":79,"gnssid":6,"svid":15,"az":19.0,"el":66.0,"ss":41.0,"used":true},{"PRN":81,"gnssid":6,"svid":17,"az":121.0,"el":55.0,"ss":36.0,"used":true},{"PRN":82,"gnssid":6,"svid":18,"az":172.0,"el":21.0,"ss":30.0,"used":true},{"PRN":87,"gnssid":6,"svid":23,"az":17.0,"el":1.0,"ss":11.0,"used":false},{"PRN":88,"gnssid":6,"svid":24,"az":42.0,"el":35.0,"ss":35.0,"used":true}]}
$GLGSV,2,1,06,69,14,237,20,78,30,090,23,79,66,019,32,81,55,121,32,3*78
$GNTXT,01,01,00,txbuf alloc*61
$GNRMC,014503.00,A,4404.1306002,N,12118.8447171,W,0.013,,231221,,,D,V*02
$GNVTG,,T,,M,0.013,N,0.024,K,D*3C
$GNGGA,014503.00,4404.1306002,N,12118.8447171,W,2,12,0.49,1130.026,M,-21.350,M,,0278*4D
{"class":"TPV","status":2,"mode":3,"time":"2021-12-23T01:45:03.000Z","ept":0.005,"lat":44.068843337,"lon":-121.314078618,"altHAE":1108.6760,"altMSL":1130.0260,"alt":1130.0260,"magvar":14.4,"speed":0.007,"climb":0.037,"geoidSep":-21.350,"eph":2.328}
{"class":"SKY","hdop":0.49}
$GNGSA,A,3,21,30,46,13,17,51,14,44,15,19,07,01,0.98,0.49,0.84,1*0C
{"class":"TPV","status":2,"mode":3,"time":"2021-12-23T01:45:03.000Z","ept":0.005,"lat":44.068843337,"lon":-121.314078618,"altHAE":1108.6760,"altMSL":1130.0260,"alt":1130.0260,"epv":4.830,"magvar":14.4,"speed":0.007,"climb":0.037,"epc":9.66,"geoidSep":-21.350,"eph":2.328,"sep":4.655}
$GNGSA,A,3,70,78,82,79,88,81,69,,,,,,0.98,0.49,0.84,2*08
{"class":"TPV","status":2,"mode":3,"time":"2021-12-23T01:45:03.000Z","ept":0.005,"lat":44.068843337,"lon":-121.314078618,"altHAE":1108.6760,"altMSL":1130.0260,"alt":1130.0260,"epv":4.830,"magvar":14.4,"speed":0.007,"climb":0.037,"epc":9.66,"geoidSep":-21.350,"eph":2.328,"sep":4.655}
{"class":"SKY","hdop":0.49,"pdop":0.98,"vdop":0.84}
$GNGSA,A,3,13,31,01,09,04,26,21,,,,,,0.98,0.49,0.84,3*08
{"class":"TPV","status":2,"mode":3,"time":"2021-12-23T01:45:03.000Z","ept":0.005,"lat":44.068843337,"lon":-121.314078618,"altHAE":1108.6760,"altMSL":1130.0260,"alt":1130.0260,"epv":4.830,"magvar":14.4,"speed":0.007,"climb":0.037,"epc":9.66,"geoidSep":-21.350,"eph":2.328,"sep":4.655}
{"class":"SKY","hdop":0.49,"pdop":0.98,"vdop":0.84}
$GNGSA,A,3,23,34,25,11,12,,,,,,,,0.98,0.49,0.84,4*06
{"class":"TPV","status":2,"mode":3,"time":"2021-12-23T01:45:03.000Z","ept":0.005,"lat":44.068843337,"lon":-121.314078618,"altHAE":1108.6760,"altMSL":1130.0260,"alt":1130.0260,"epv":4.830,"magvar":14.4,"speed":0.007,"climb":0.037,"epc":9.66,"geoidSep":-21.350,"eph":2.328,"sep":4.655}
{"class":"SKY","hdop":0.49,"pdop":0.98,"vdop":0.84}
$GPGSV,4,1,13,01,25,070,31,07,13,130,23,13,48,243,30,14,66,049,34,1*61
$GPGSV,4,2,13,15,32,280,35,17,73,154,34,19,49,193,38,21,15,043,22,1*69
$GPGSV,4,3,13,24,11,310,19,30,41,131,36,44,39,174,35,46,39,191,38,1*69
$GPGSV,4,4,13,51,37,160,37,1*55
$GPGSV,2,1,06,01,25,070,37,07,13,130,16,14,66,049,38,15,32,280,38,6*64
$GPGSV,2,2,06,17,73,154,31,30,41,131,28,6*6A
$GLGSV,2,1,08,69,14,237,20,70,23,298,16,78,30,090,41,79,66,019,41,1*7C
$GNRMC,014504.00,A,4404.1305995,N,12118.8447291,W,0.013,,231221,,,D,V*0C
$GNVTG,,T,,M,0.013,N,0.024,K,D*3C
$GNGGA,014504.00,4404.1305995,N,12118.8447291,W,2,12,0.49,1130.060,M,-21.350,M,,0278*41
{"class":"TPV","status":2,"mode":3,"time":"2021-12-23T01:45:04.000Z","ept":0.005,"lat":44.068843325,"lon":-121.314078818,"altHAE":1108.7100,"altMSL":1130.0600,"alt":1130.0600,"magvar":14.4,"speed":0.007,"climb":0.034,"geoidSep":-21.350,"eph":2.328}
{"class":"SKY","hdop":0.49}
$GNGSA,A,3,21,30,46,13,17,51,14,44,15,19,07,01,0.98,0.49,0.84,1*0C
{"class":"TPV","status":2,"mode":3,"time":"2021-12-23T01:45:04.000Z","ept":0.005,"lat":44.068843325,"lon":-121.314078818,"altHAE":1108.7100,"altMSL":1130.0600,"alt":1130.0600,"epv":4.830,"magvar":14.4,"speed":0.007,"climb":0.034,"epc":9.66,"geoidSep":-21.350,"eph":2.328,"sep":4.655}
$GNGSA,A,3,70,78,82,79,88,81,69,,,,,,0.98,0.49,0.84,2*08
{"class":"TPV","status":2,"mode":3,"time":"2021-12-23T01:45:04.000Z","ept":0.005,"lat":44.068843325,"lon":-121.314078818,"altHAE":1108.7100,"altMSL":1130.0600,"alt":1130.0600,"epv":4.830,"magvar":14.4,"speed":0.007,"climb":0.034,"epc":9.66,"geoidSep":-21.350,"eph":2.328,"sep":4.655}
{"class":"SKY","hdop":0.49,"pdop":0.98,"vdop":0.84}
$GNGSA,A,3,13,31,01,09,04,26,21,,,,,,0.98,0.49,0.84,3*08
{"class":"TPV","status":2,"mode":3,"time":"2021-12-23T01:45:04.000Z","ept":0.005,"lat":44.068843325,"lon":-121.314078818,"altHAE":1108.7100,"altMSL":1130.0600,"alt":1130.0600,"epv":4.830,"magvar":14.4,"speed":0.007,"climb":0.034,"epc":9.66,"geoidSep":-21.350,"eph":2.328,"sep":4.655}
{"class":"SKY","hdop":0.49,"pdop":0.98,"vdop":0.84}
$GNGSA,A,3,23,34,25,11,12,,,,,,,,0.98,0.49,0.84,4*06
{"class":"TPV","status":2,"mode":3,"time":"2021-12-23T01:45:04.000Z","ept":0.005,"lat":44.068843325,"lon":-121.314078818,"altHAE":1108.7100,"altMSL":1130.0600,"alt":1130.0600,"epv":4.830,"magvar":14.4,"speed":0.007,"climb":0.034,"epc":9.66,"geoidSep":-21.350,"eph":2.328,"sep":4.655}
{"class":"SKY","hdop":0.49,"pdop":0.98,"vdop":0.84}
$GPGSV,4,1,13,01,25,070,31,07,13,130,22,13,48,243,30,14,66,049,34,1*60
$GPGSV,4,2,13,15,32,280,35,17,73,154,34,19,49,193,38,21,15,043,22,1*69
$GPGSV,4,3,13,24,11,310,19,30,41,131,36,44,39,174,36,46,39,191,38,1*6A
$GPGSV,4,4,13,51,37,160,37,1*55
$GPGSV,2,1,06,01,25,070,37,07,13,130,15,14,66,049,38,15,32,280,38,6*67
$GPGSV,2,2,06,17,73,154,31,30,41,131,29,6*6B
$GLGSV,2,1,08,69,14,237,21,70,23,298,17,78,30,090,41,79,66,019,41,1*7C
$GLGSV,2,2,08,81,55,121,36,82,21,172,31,87,01,017,12,88,35,042,35,1*7C
{"class":"TPV","status":2,"mode":3,"time":"2021-12-23T01:45:04.000Z","ept":0.005,"lat":44.068843325,"lon":-121.314078818,"altHAE":1108.7100,"altMSL":1130.0600,"alt":1130.0600,"epx":1.358,"epy":1.567,"epv":4.830,"magvar":14.4,"speed":0.007,"climb":0.034,"epc":9.66,"geoidSep":-21.350,"eph":2.328,"sep":4.655}
{"class":"SKY","gdop":1.17,"hdop":0.49,"pdop":0.98,"tdop":0.56,"xdop":0.36,"ydop":0.42,"vdop":0.84,"nSat":27,"uSat":25,"satellites":[{"PRN":1,"gnssid":0,"svid":1,"az":70.0,"el":25.0,"ss":31.0,"used":true},{"PRN":7,"gnssid":0,"svid":7,"az":130.0,"el":13.0,"ss":22.0,"used":true},{"PRN":13,"gnssid":0,"svid":13,"az":243.0,"el":48.0,"ss":30.0,"used":true},{"PRN":14,"gnssid":0,"svid":14,"az":49.0,"el":66.0,"ss":34.0,"used":true},{"PRN":15,"gnssid":0,"svid":15,"az":280.0,"el":32.0,"ss":35.0,"used":true},{"PRN":17,"gnssid":0,"svid":17,"az":154.0,"el":73.0,"ss":34.0,"used":true},{"PRN":19,"gnssid":0,"svid":19,"az":193.0,"el":49.0,"ss":38.0,"used":true},{"PRN":21,"gnssid":0,"svid":21,"az":43.0,"el":15.0,"ss":22.0,"used":true},{"PRN":24,"gnssid":0,"svid":24,"az":310.0,"el":11.0,"ss":19.0,"used":false},{"PRN":30,"gnssid":0,"svid":30,"az":131.0,"el":41.0,"ss":36.0,"used":true},{"PRN":44,"gnssid":1,"svid":131,"az":174.0,"el":39.0,"ss":36.0,"used":true},{"PRN":46,"gnssid":1,"svid":133,"az":191.0,"el":39.0,"ss":38.0,"used":true},{"PRN":51,"gnssid":1,"svid":138,"az":160.0,"el":37.0,"ss":37.0,"used":true},{"PRN":1,"gnssid":0,"svid":1,"sigid":3,"az":70.0,"el":25.0,"ss":37.0,"used":true},{"PRN":7,"gnssid":0,"svid":7,"sigid":3,"az":130.0,"el":13.0,"ss":15.0,"used":true},{"PRN":14,"gnssid":0,"svid":14,"sigid":3,"az":49.0,"el":66.0,"ss":38.0,"used":true},{"PRN":15,"gnssid":0,"svid":15,"sigid":3,"az":280.0,"el":32.0,"ss":38.0,"used":true},{"PRN":17,"gnssid":0,"svid":17,"sigid":3,"az":154.0,"el":73.0,"ss":31.0,"used":true},{"PRN":30,"gnssid":0,"svid":30,"sigid":3,"az":131.0,"el":41.0,"ss":29.0,"used":true},{"PRN":69,"gnssid":6,"svid":5,"az":237.0,"el":14.0,"ss":21.0,"used":true},{"PRN":70,"gnssid":6,"svid":6,"az":298.0,"el":23.0,"ss":17.0,"used":true},{"PRN":78,"gnssid":6,"svid":14,"az":90.0,"el":30.0,"ss":41.0,"used":true},{"PRN":79,"gnssid":6,"svid":15,"az":19.0,"el":66.0,"ss":41.0,"used":true},{"PRN":81,"gnssid":6,"svid":17,"az":121.0,"el":55.0,"ss":36.0,"used":true},{"PRN":82,"gnssid":6,"svid":18,"az":172.0,"el":21.0,"ss":31.0,"used":true},{"PRN":87,"gnssid":6,"svid":23,"az":17.0,"el":1.0,"ss":12.0,"used":false},{"PRN":88,"gnssid":6,"svid":24,"az":42.0,"el":35.0,"ss":35.0,"used":true}]}
$GLGSV,2,1,06,69,14,237,20,78,30,090,22,79,66,019,32,81,55,121,31,3*7A
$GNRMC,014505.00,A,4404.1305993,N,12118.8447406,W,0.013,,231221,,,D,V*03
$GNVTG,,T,,M,0.013,N,0.024,K,D*3C
$GNGGA,014505.00,4404.1305993,N,12118.8447406,W,2,12,0.49,1130.097,M,-21.350,M,,0278*46
{"class":"TPV","status":2,"mode":3,"time":"2021-12-23T01:45:05.000Z","ept":0.005,"lat":44.068843322,"lon":-121.314079010,"altHAE":1108.7470,"altMSL":1130.0970,"alt":1130.0970,"magvar":14.4,"speed":0.007,"climb":0.037,"geoidSep":-21.350,"eph":2.328}
{"class":"SKY","hdop":0.49}
$GNGSA,A,3,21,30,46,13,17,51,14,44,15,19,07,01,0.98,0.49,0.84,1*0C
{"class":"TPV","status":2,"mode":3,"time":"2021-12-23T01:45:05.000Z","ept":0.005,"lat":44.068843322,"lon":-121.314079010,"altHAE":1108.7470,"altMSL":1130.0970,"alt":1130.0970,"epv":4.830,"magvar":14.4,"speed":0.007,"climb":0.037,"epc":9.66,"geoidSep":-21.350,"eph":2.328,"sep":4.655}
$GNGSA,A,3,70,78,82,79,88,81,69,,,,,,0.98,0.49,0.84,2*08
{"class":"TPV","status":2,"mode":3,"time":"2021-12-23T01:45:05.000Z","ept":0.005,"lat":44.068843322,"lon":-121.314079010,"altHAE":1108.7470,"altMSL":1130.0970,"alt":1130.0970,"epv":4.830,"magvar":14.4,"speed":0.007,"climb":0.037,"epc":9.66,"geoidSep":-21.350,"eph":2.328,"sep":4.655}
{"class":"SKY","hdop":0.49,"pdop":0.98,"vdop":0.84}
$GNGSA,A,3,13,31,01,09,04,26,21,,,,,,0.98,0.49,0.84,3*08
{"class":"TPV","status":2,"mode":3,"time":"2021-12-23T01:45:05.000Z","ept":0.005,"lat":44.068843322,"lon":-121.314079010,"altHAE":1108.7470,"altMSL":1130.0970,"alt":1130.0970,"epv":4.830,"magvar":14.4,"speed":0.007,"climb":0.037,"epc":9.66,"geoidSep":-21.350,"eph":2.328,"sep":4.655}
{"class":"SKY","hdop":0.49,"pdop":0.98,"vdop":0.84}
$GNGSA,A,3,23,34,25,11,12,,,,,,,,0.98,0.49,0.84,4*06
{"class":"TPV","status":2,"mode":3,"time":"2021-12-23T01:45:05.000Z","ept":0.005,"lat":44.068843322,"lon":-121.314079010,"altHAE":1108.7470,"altMSL":1130.0970,"alt":1130.0970,"epv":4.830,"magvar":14.4,"speed":0.007,"climb":0.037,"epc":9.66,"geoidSep":-21.350,"eph":2.328,"sep":4.655}
{"class":"SKY","hdop":0.49,"pdop":0.98,"vdop":0.84}
$GPGSV,4,1,13,01,25,069,31,07,13,130,22,13,48,243,30,14,66,049,34,1*68
$GPGSV,4,2,13,15,32,280,36,17,73,154,34,19,49,193,38,21,15,043,23,1*6B
$GPGSV,4,3,13,24,11,310,19,30,41,131,36,44,39,174,35,46,39,191,38,1*69
$GPGSV,4,4,13,51,37,160,37,1*55
$GPGSV,2,1,05,01,25,069,37,14,66,049,38,15,32,280,38,17,73,154,31,6*6F
$GPGSV,2,2,05,30,41,131,29,6*58
$GLGSV,2,1,08,69,14,237,20,70,23,298,18,78,30,090,41,79,66,019,41,1*72
$GLGSV,2,2,08,81,55,121,36,82,21,172,31,87,01,017,08,88,35,042,35,1*77
{"class":"TPV","status":2,"mode":3,"time":"2021-12-23T01:45:05.000Z","ept":0.005,"lat":44.068843322,"lon":-121.314079010,"altHAE":1108.7470,"altMSL":1130.0970,"alt":1130.0970,"epx":1.393,"epy":1.597,"epv":4.830,"magvar":14.4,"speed":0.007,"climb":0.037,"eps":3.16,"epc":9.66,"geoidSep":-21.350,"eph":2.328,"sep":4.655}
{"class":"SKY","gdop":1.22,"hdop":0.49,"pdop":0.98,"tdop":0.59,"xdop":0.37,"ydop":0.43,"vdop":0.84,"nSat":26,"uSat":24,"satellites":[{"PRN":1,"gnssid":0,"svid":1,"az":69.0,"el":25.0,"ss":31.0,"used":true},{"PRN":7,"gnssid":0,"svid":7,"az":130.0,"el":13.0,"ss":22.0,"used":true},{"PRN":13,"gnssid":0,"svid":13,"az":243.0,"el":48.0,"ss":30.0,"used":true},{"PRN":14,"gnssid":0,"svid":14,"az":49.0,"el":66.0,"ss":34.0,"used":true},{"PRN":15,"gnssid":0,"svid":15,"az":280.0,"el":32.0,"ss":36.0,"used":true},{"PRN":17,"gnssid":0,"svid":17,"az":154.0,"el":73.0,"ss":34.0,"used":true},{"PRN":19,"gnssid":0,"svid":19,"az":193.0,"el":49.0,"ss":38.0,"used":true},{"PRN":21,"gnssid":0,"svid":21,"az":43.0,"el":15.0,"ss":23.0,"used":true},{"PRN":24,"gnssid":0,"svid":24,"az":310.0,"el":11.0,"ss":19.0,"used":false},{"PRN":30,"gnssid":0,"svid":30,"az":131.0,"el":41.0,"ss":36.0,"used":true},{"PRN":44,"gnssid":1,"svid":131,"az":174.0,"el":39.0,"ss":35.0,"used":true},{"PRN":46,"gnssid":1,"svid":133,"az":191.0,"el":39.0,"ss":38.0,"used":true},{"PRN":51,"gnssid":1,"svid":138,"az":160.0,"el":37.0,"ss":37.0,"used":true},{"PRN":1,"gnssid":0,"svid":1,"sigid":3,"az":69.0,"el":25.0,"ss":37.0,"used":true},{"PRN":14,"gnssid":0,"svid":14,"sigid":3,"az":49.0,"el":66.0,"ss":38.0,"used":true},{"PRN":15,"gnssid":0,"svid":15,"sigid":3,"az":280.0,"el":32.0,"ss":38.0,"used":true},{"PRN":17,"gnssid":0,"svid":17,"sigid":3,"az":154.0,"el":73.0,"ss":31.0,"used":true},{"PRN":30,"gnssid":0,"svid":30,"sigid":3,"az":131.0,"el":41.0,"ss":29.0,"used":true},{"PRN":69,"gnssid":6,"svid":5,"az":237.0,"el":14.0,"ss":20.0,"used":true},{"PRN":70,"gnssid":6,"svid":6,"az":298.0,"el":23.0,"ss":18.0,"used":true},{"PRN":78,"gnssid":6,"svid":14,"az":90.0,"el":30.0,"ss":41.0,"used":true},{"PRN":79,"gnssid":6,"svid":15,"az":19.0,"el":66.0,"ss":41.0,"used":true},{"PRN":81,"gnssid":6,"svid":17,"az":121.0,"el":55.0,"ss":36.0,"used":true},{"PRN":82,"gnssid":6,"svid":18,"az":172.0,"el":21.0,"ss":31.0,"used":true},{"PRN":87,"gnssid":6,"svid":23,"az":17.0,"el":1.0,"ss":8.0,"used":false},{"PRN":88,"gnssid":6,"svid":24,"az":42.0,"el":35.0,"ss":35.0,"used":true}]}
$GNTXT,01,01,00,txbuf alloc*61
$GNRMC,014506.00,A,4404.1306017,N,12118.8447518,W,0.013,,231221,,,D,V*08
$GNVTG,,T,,M,0.013,N,0.024,K,D*3C
$GNGGA,014506.00,4404.1306017,N,12118.8447518,W,2,12,0.49,1130.138,M,-21.350,M,,0278*49
{"class":"TPV","status":2,"mode":3,"time":"2021-12-23T01:45:06.000Z","ept":0.005,"lat":44.068843362,"lon":-121.314079197,"altHAE":1108.7880,"altMSL":1130.1380,"alt":1130.1380,"magvar":14.4,"speed":0.007,"climb":0.041,"geoidSep":-21.350,"eph":2.328}
{"class":"SKY","hdop":0.49}
$GNGSA,A,3,21,30,46,13,17,51,14,44,15,19,07,01,0.98,0.49,0.84,1*0C
{"class":"TPV","status":2,"mode":3,"time":"2021-12-23T01:45:06.000Z","ept":0.005,"lat":44.068843362,"lon":-121.314079197,"altHAE":1108.7880,"altMSL":1130.1380,"alt":1130.1380,"epv":4.830,"magvar":14.4,"speed":0.007,"climb":0.041,"epc":9.66,"geoidSep":-21.350,"eph":2.328,"sep":4.655}
$GNGSA,A,3,70,78,82,79,88,81,69,,,,,,0.98,0.49,0.84,2*08
{"class":"TPV","status":2,"mode":3,"time":"2021-12-23T01:45:06.000Z","ept":0.005,"lat":44.068843362,"lon":-121.314079197,"altHAE":1108.7880,"altMSL":1130.1380,"alt":1130.1380,"epv":4.830,"magvar":14.4,"speed":0.007,"climb":0.041,"epc":9.66,"geoidSep":-21.350,"eph":2.328,"sep":4.655}
{"class":"SKY","hdop":0.49,"pdop":0.98,"vdop":0.84}
$GNGSA,A,3,13,31,01,09,04,26,21,,,,,,0.98,0.49,0.84,3*08
{"class":"TPV","status":2,"mode":3,"time":"2021-12-23T01:45:06.000Z","ept":0.005,"lat":44.068843362,"lon":-121.314079197,"altHAE":1108.7880,"altMSL":1130.1380,"alt":1130.1380,"epv":4.830,"magvar":14.4,"speed":0.007,"climb":0.041,"epc":9.66,"geoidSep":-21.350,"eph":2.328,"sep":4.655}
{"class":"SKY","hdop":0.49,"pdop":0.98,"vdop":0.84}
$GNGSA,A,3,23,34,25,11,12,,,,,,,,0.98,0.49,0.84,4*06
{"class":"TPV","status":2,"mode":3,"time":"2021-12-23T01:45:06.000Z","ept":0.005,"lat":44.068843362,"lon":-121.314079197,"altHAE":1108.7880,"altMSL":1130.1380,"alt":1130.1380,"epv":4.830,"magvar":14.4,"speed":0.007,"climb":0.041,"epc":9.66,"geoidSep":-21.350,"eph":2.328,"sep":4.655}
{"class":"SKY","hdop":0.49,"pdop":0.98,"vdop":0.84}
$GPGSV,4,1,13,01,25,069,31,07,13,130,22,13,48,243,31,14,66,049,34,1*69
$GPGSV,4,2,13,15,32,280,36,17,73,154,34,19,49,193,38,21,15,043,24,1*6C
$GPGSV,4,3,13,24,11,310,20,30,41,131,36,44,39,174,36,46,39,191,38,1*60
$GPGSV,4,4,13,51,37,160,37,1*55
$GPGSV,2,1,05,01,25,069,37,14,66,049,38,15,32,280,38,17,73,154,31,6*6F
$GPGSV,2,2,05,30,41,131,29,6*58
$GLGSV,2,1,08,69,14,237,20,70,23,298,17,78,30,090,41,79,66,019,41,1*7D
$GLGSV,2,2,08,81,55,121,35,82,21,172,32,87,01,017,11,88,35,042,35,1*7F
{"class":"TPV","status":2,"mode":3,"time":"2021-12-23T01:45:06.000Z","ept":0.005,"lat":44.068843362,"lon":-121.314079197,"altHAE":1108.7880,"altMSL":1130.1380,"alt":1130.1380,"epx":1.393,"epy":1.597,"epv":4.830,"magvar":14.4,"speed":0.007,"climb":0.041,"eps":3.19,"epc":9.66,"geoidSep":-21.350,"eph":2.328,"sep":4.655}
{"class":"SKY","gdop":1.22,"hdop":0.49,"pdop":0.98,"tdop":0.59,"xdop":0.37,"ydop":0.43,"vdop":0.84,"nSat":26,"uSat":24,"satellites":[{"PRN":1,"gnssid":0,"svid":1,"az":69.0,"el":25.0,"ss":31.0,"used":true},{"PRN":7,"gnssid":0,"svid":7,"az":130.0,"el":13.0,"ss":22.0,"used":true},{"PRN":13,"gnssid":0,"svid":13,"az":243.0,"el":48.0,"ss":31.0,"used":true},{"PRN":14,"gnssid":0,"svid":14,"az":49.0,"el":66.0,"ss":34.0,"used":true},{"PRN":15,"gnssid":0,"svid":15,"az":280.0,"el":32.0,"ss":36.0,"used":true},{"PRN":17,"gnssid":0,"svid":17,"az":154.0,"el":73.0,"ss":34.0,"used":true},{"PRN":19,"gnssid":0,"svid":19,"az":193.0,"el":49.0,"ss":38.0,"used":true},{"PRN":21,"gnssid":0,"svid":21,"az":43.0,"el":15.0,"ss":24.0,"used":true},{"PRN":24,"gnssid":0,"svid":24,"az":310.0,"el":11.0,"ss":20.0,"used":false},{"PRN":30,"gnssid":0,"svid":30,"az":131.0,"el":41.0,"ss":36.0,"used":true},{"PRN":44,"gnssid":1,"svid":131,"az":174.0,"el":39.0,"ss":36.0,"used":true},{"PRN":46,"gnssid":1,"svid":133,"az":191.0,"el":39.0,"ss":38.0,"used":true},{"PRN":51,"gnssid":1,"svid":138,"az":160.0,"el":37.0,"ss":37.0,"used":true},{"PRN":1,"gnssid":0,"svid":1,"sigid":3,"az":69.0,"el":25.0,"ss":37.0,"used":true},{"PRN":14,"gnssid":0,"svid":14,"sigid":3,"az":49.0,"el":66.0,"ss":38.0,"used":true},{"PRN":15,"gnssid":0,"svid":15,"sigid":3,"az":280.0,"el":32.0,"ss":38.0,"used":true},{"PRN":17,"gnssid":0,"svid":17,"sigid":3,"az":154.0,"el":73.0,"ss":31.0,"used":true},{"PRN":30,"gnssid":0,"svid":30,"sigid":3,"az":131.0,"el":41.0,"ss":29.0,"used":true},{"PRN":69,"gnssid":6,"svid":5,"az":237.0,"el":14.0,"ss":20.0,"used":true},{"PRN":70,"gnssid":6,"svid":6,"az":298.0,"el":23.0,"ss":17.0,"used":true},{"PRN":78,"gnssid":6,"svid":14,"az":90.0,"el":30.0,"ss":41.0,"used":true},{"PRN":79,"gnssid":6,"svid":15,"az":19.0,"el":66.0,"ss":41.0,"used":true},{"PRN":81,"gnssid":6,"svid":17,"az":121.0,"el":55.0,"ss":35.0,"used":true},{"PRN":82,"gnssid":6,"svid":18,"az":172.0,"el":21.0,"ss":32.0,"used":true},{"PRN":87,"gnssid":6,"svid":23,"az":17.0,"el":1.0,"ss":11.0,"used":false},{"PRN":88,"gnssid":6,"svid":24,"az":42.0,"el":35.0,"ss":35.0,"used":true}]}
$GNRMC,014507.00,A,4404.1306033,N,12118.8447617,W,0.013,,231221,,,D,V*03
$GNVTG,,T,,M,0.013,N,0.024,K,D*3C
$GNGGA,014507.00,4404.1306033,N,12118.8447617,W,2,12,0.49,1130.179,M,-21.350,M,,0278*47
{"class":"TPV","status":2,"mode":3,"time":"2021-12-23T01:45:07.000Z","ept":0.005,"lat":44.068843388,"lon":-121.314079362,"altHAE":1108.8290,"altMSL":1130.1790,"alt":1130.1790,"magvar":14.4,"speed":0.007,"climb":0.041,"geoidSep":-21.350,"eph":2.328}
{"class":"SKY","hdop":0.49}
$GNGSA,A,3,21,30,46,13,17,51,14,44,15,19,07,01,0.98,0.49,0.84,1*0C
{"class":"TPV","status":2,"mode":3,"time":"2021-12-23T01:45:07.000Z","ept":0.005,"lat":44.068843388,"lon":-121.314079362,"altHAE":1108.8290,"altMSL":1130.1790,"alt":1130.1790,"epv":4.830,"magvar":14.4,"speed":0.007,"climb":0.041,"epc":9.66,"geoidSep":-21.350,"eph":2.328,"sep":4.655}
$GNGSA,A,3,70,78,82,79,88,81,69,,,,,,0.98,0.49,0.84,2*08
{"class":"TPV","status":2,"mode":3,"time":"2021-12-23T01:45:07.000Z","ept":0.005,"lat":44.068843388,"lon":-121.314079362,"altHAE":1108.8290,"altMSL":1130.1790,"alt":1130.1790,"epv":4.830,"magvar":14.4,"speed":0.007,"climb":0.041,"epc":9.66,"geoidSep":-21.350,"eph":2.328,"sep":4.655}
{"class":"SKY","hdop":0.49,"pdop":0.98,"vdop":0.84}
$GNGSA,A,3,13,31,01,09,04,26,21,,,,,,0.98,0.49,0.84,3*08
{"class":"TPV","status":2,"mode":3,"time":"2021-12-23T01:45:07.000Z","ept":0.005,"lat":44.068843388,"lon":-121.314079362,"altHAE":1108.8290,"altMSL":1130.1790,"alt":1130.1790,"epv":4.830,"magvar":14.4,"speed":0.007,"climb":0.041,"epc":9.66,"geoidSep":-21.350,"eph":2.328,"sep":4.655}
{"class":"SKY","hdop":0.49,"pdop":0.98,"vdop":0.84}
$GNGSA,A,3,23,34,25,11,12,,,,,,,,0.98,0.49,0.84,4*06
{"class":"TPV","status":2,"mode":3,"time":"2021-12-23T01:45:07.000Z","ept":0.005,"lat":44.068843388,"lon":-121.314079362,"altHAE":1108.8290,"altMSL":1130.1790,"alt":1130.1790,"epv":4.830,"magvar":14.4,"speed":0.007,"climb":0.041,"epc":9.66,"geoidSep":-21.350,"eph":2.328,"sep":4.655}
{"class":"SKY","hdop":0.49,"pdop":0.98,"vdop":0.84}
$GPGSV,4,1,13,01,25,069,31,07,13,130,23,13,48,243,31,14,66,049,34,1*68
$GPGSV,4,2,13,15,32,280,36,17,73,154,34,19,49,193,38,21,15,043,24,1*6C
$GPGSV,4,3,13,24,11,310,20,30,41,131,36,44,39,174,36,46,39,191,38,1*60
$GPGSV,4,4,13,51,37,160,37,1*55
$GPGSV,2,1,05,01,25,069,37,14,66,049,38,15,32,280,37,17,73,154,31,6*60
$GPGSV,2,2,05,30,41,131,28,6*59
$GLGSV,2,1,08,69,14,237,20,70,23,298,16,78,30,090,41,79,66,019,41,1*7C
$GLGSV,2,2,08,81,55,121,35,82,21,172,32,87,01,017,10,88,35,042,34,1*7F
{"class":"TPV","status":2,"mode":3,"time":"2021-12-23T01:45:07.000Z","ept":0.005,"lat":44.068843388,"lon":-121.314079362,"altHAE":1108.8290,"altMSL":1130.1790,"alt":1130.1790,"epx":1.393,"epy":1.597,"epv":4.830,"magvar":14.4,"speed":0.007,"climb":0.041,"eps":3.19,"epc":9.66,"geoidSep":-21.350,"eph":2.328,"sep":4.655}
{"class":"SKY","gdop":1.22,"hdop":0.49,"pdop":0.98,"tdop":0.59,"xdop":0.37,"ydop":0.43,"vdop":0.84,"nSat":26,"uSat":24,"satellites":[{"PRN":1,"gnssid":0,"svid":1,"az":69.0,"el":25.0,"ss":31.0,"used":true},{"PRN":7,"gnssid":0,"svid":7,"az":130.0,"el":13.0,"ss":23.0,"used":true},{"PRN":13,"gnssid":0,"svid":13,"az":243.0,"el":48.0,"ss":31.0,"used":true},{"PRN":14,"gnssid":0,"svid":14,"az":49.0,"el":66.0,"ss":34.0,"used":true},{"PRN":15,"gnssid":0,"svid":15,"az":280.0,"el":32.0,"ss":36.0,"used":true},{"PRN":17,"gnssid":0,"svid":17,"az":154.0,"el":73.0,"ss":34.0,"used":true},{"PRN":19,"gnssid":0,"svid":19,"az":193.0,"el":49.0,"ss":38.0,"used":true},{"PRN":21,"gnssid":0,"svid":21,"az":43.0,"el":15.0,"ss":24.0,"used":true},{"PRN":24,"gnssid":0,"svid":24,"az":310.0,"el":11.0,"ss":20.0,"used":false},{"PRN":30,"gnssid":0,"svid":30,"az":131.0,"el":41.0,"ss":36.0,"used":true},{"PRN":44,"gnssid":1,"svid":131,"az":174.0,"el":39.0,"ss":36.0,"used":true},{"PRN":46,"gnssid":1,"svid":133,"az":191.0,"el":39.0,"ss":38.0,"used":true},{"PRN":51,"gnssid":1,"svid":138,"az":160.0,"el":37.0,"ss":37.0,"used":true},{"PRN":1,"gnssid":0,"svid":1,"sigid":3,"az":69.0,"el":25.0,"ss":37.0,"used":true},{"PRN":14,"gnssid":0,"svid":14,"sigid":3,"az":49.0,"el":66.0,"ss":38.0,"used":true},{"PRN":15,"gnssid":0,"svid":15,"sigid":3,"az":280.0,"el":32.0,"ss":37.0,"used":true},{"PRN":17,"gnssid":0,"svid":17,"sigid":3,"az":154.0,"el":73.0,"ss":31.0,"used":true},{"PRN":30,"gnssid":0,"svid":30,"sigid":3,"az":131.0,"el":41.0,"ss":28.0,"used":true},{"PRN":69,"gnssid":6,"svid":5,"az":237.0,"el":14.0,"ss":20.0,"used":true},{"PRN":70,"gnssid":6,"svid":6,"az":298.0,"el":23.0,"ss":16.0,"used":true},{"PRN":78,"gnssid":6,"svid":14,"az":90.0,"el":30.0,"ss":41.0,"used":true},{"PRN":79,"gnssid":6,"svid":15,"az":19.0,"el":66.0,"ss":41.0,"used":true},{"PRN":81,"gnssid":6,"svid":17,"az":121.0,"el":55.0,"ss":35.0,"used":true},{"PRN":82,"gnssid":6,"svid":18,"az":172.0,"el":21.0,"ss":32.0,"used":true},{"PRN":87,"gnssid":6,"svid":23,"az":17.0,"el":1.0,"ss":10.0,"used":false},{"PRN":88,"gnssid":6,"svid":24,"az":42.0,"el":35.0,"ss":34.0,"used":true}]}
$GNRMC,014508.00,A,4404.1306036,N,12118.8447714,W,0.013,,231221,,,D,V*0B
$GNVTG,,T,,M,0.013,N,0.024,K,D*3C
$GNGGA,014508.00,4404.1306036,N,12118.8447714,W,2,12,0.49,1130.215,M,-21.350,M,,0278*46
{"class":"TPV","status":2,"mode":3,"time":"2021-12-23T01:45:08.000Z","ept":0.005,"lat":44.068843393,"lon":-121.314079523,"altHAE":1108.8650,"altMSL":1130.2150,"alt":1130.2150,"magvar":14.4,"speed":0.007,"climb":0.036,"geoidSep":-21.350,"eph":2.328}
{"class":"SKY","hdop":0.49}
$GNGSA,A,3,21,30,46,13,17,51,14,44,15,19,07,01,0.98,0.49,0.84,1*0C
{"class":"TPV","status":2,"mode":3,"time":"2021-12-23T01:45:08.000Z","ept":0.005,"lat":44.068843393,"lon":-121.314079523,"altHAE":1108.8650,"altMSL":1130.2150,"alt":1130.2150,"epv":4.830,"magvar":14.4,"speed":0.007,"climb":0.036,"epc":9.66,"geoidSep":-21.350,"eph":2.328,"sep":4.655}
$GNGSA,A,3,70,78,82,79,88,81,69,,,,,,0.98,0.49,0.84,2*08
{"class":"TPV","status":2,"mode":3,"time":"2021-12-23T01:45:08.000Z","ept":0.005,"lat":44.068843393,"lon":-121.314079523,"altHAE":1108.8650,"altMSL":1130.2150,"alt":1130.2150,"epv":4.830,"magvar":14.4,"speed":0.007,"climb":0.036,"epc":9.66,"geoidSep":-21.350,"eph":2.328,"sep":4.655}
{"class":"SKY","hdop":0.49,"pdop":0.98,"vdop":0.84}
$GNGSA,A,3,13,31,01,09,04,26,21,,,,,,0.98,0.49,0.84,3*08
{"class":"TPV","status":2,"mode":3,"time":"2021-12-23T01:45:08.000Z","ept":0.005,"lat":44.068843393,"lon":-121.314079523,"altHAE":1108.8650,"altMSL":1130.2150,"alt":1130.2150,"epv":4.830,"magvar":14.4,"speed":0.007,"climb":0.036,"epc":9.66,"geoidSep":-21.350,"eph":2.328,"sep":4.655}
{"class":"SKY","hdop":0.49,"pdop":0.98,"vdop":0.84}
$GNGSA,A,3,23,34,25,11,12,,,,,,,,0.98,0.49,0.84,4*06
{"class":"TPV","status":2,"mode":3,"time":"2021-12-23T01:45:08.000Z","ept":0.005,"lat":44.068843393,"lon":-121.314079523,"altHAE":1108.8650,"altMSL":1130.2150,"alt":1130.2150,"epv":4.830,"magvar":14.4,"speed":0.007,"climb":0.036,"epc":9.66,"geoidSep":-21.350,"eph":2.328,"sep":4.655}
{"class":"SKY","hdop":0.49,"pdop":0.98,"vdop":0.84}
$GPGSV,4,1,13,01,25,069,31,07,13,130,22,13,48,243,31,14,66,049,34,1*69
$GPGSV,4,2,13,15,32,280,35,17,73,154,34,19,49,193,38,21,15,043,24,1*6F
$GPGSV,4,3,13,24,11,310,20,30,41,131,36,44,39,174,36,46,39,191,38,1*60
$GPGSV,4,4,13,51,37,160,37,1*55
$GPGSV,2,1,05,01,25,069,37,14,66,049,38,15,32,280,37,17,73,154,31,6*60
$GPGSV,2,2,05,30,41,131,28,6*59
$GLGSV,2,1,08,69,14,237,20,70,23,298,15,78,30,090,41,79,66,019,41,1*7F
$GLGSV,2,2,08,81,55,121,35,82,21,172,31,87,01,017,13,88,35,042,34,1*7F
{"class":"TPV","status":2,"mode":3,"time":"2021-12-23T01:45:08.000Z","ept":0.005,"lat":44.068843393,"lon":-121.314079523,"altHAE":1108.8650,"altMSL":1130.2150,"alt":1130.2150,"epx":1.393,"epy":1.597,"epv":4.830,"magvar":14.4,"speed":0.007,"climb":0.036,"eps":3.19,"epc":9.66,"geoidSep":-21.350,"eph":2.328,"sep":4.655}
{"class":"SKY","gdop":1.22,"hdop":0.49,"pdop":0.98,"tdop":0.59,"xdop":0.37,"ydop":0.43,"vdop":0.84,"nSat":26,"uSat":24,"satellites":[{"PRN":1,"gnssid":0,"svid":1,"az":69.0,"el":25.0,"ss":31.0,"used":true},{"PRN":7,"gnssid":0,"svid":7,"az":130.0,"el":13.0,"ss":22.0,"used":true},{"PRN":13,"gnssid":0,"svid":13,"az":243.0,"el":48.0,"ss":31.0,"used":true},{"PRN":14,"gnssid":0,"svid":14,"az":49.0,"el":66.0,"ss":34.0,"used":true},{"PRN":15,"gnssid":0,"svid":15,"az":280.0,"el":32.0,"ss":35.0,"used":true},{"PRN":17,"gnssid":0,"svid":17,"az":154.0,"el":73.0,"ss":34.0,"used":true},{"PRN":19,"gnssid":0,"svid":19,"az":193.0,"el":49.0,"ss":38.0,"used":true},{"PRN":21,"gnssid":0,"svid":21,"az":43.0,"el":15.0,"ss":24.0,"used":true},{"PRN":24,"gnssid":0,"svid":24,"az":310.0,"el":11.0,"ss":20.0,"used":false},{"PRN":30,"gnssid":0,"svid":30,"az":131.0,"el":41.0,"ss":36.0,"used":true},{"PRN":44,"gnssid":1,"svid":131,"az":174.0,"el":39.0,"ss":36.0,"used":true},{"PRN":46,"gnssid":1,"svid":133,"az":191.0,"el":39.0,"ss":38.0,"used":true},{"PRN":51,"gnssid":1,"svid":138,"az":160.0,"el":37.0,"ss":37.0,"used":true},{"PRN":1,"gnssid":0,"svid":1,"sigid":3,"az":69.0,"el":25.0,"ss":37.0,"used":true},{"PRN":14,"gnssid":0,"svid":14,"sigid":3,"az":49.0,"el":66.0,"ss":38.0,"used":true},{"PRN":15,"gnssid":0,"svid":15,"sigid":3,"az":280.0,"el":32.0,"ss":37.0,"used":true},{"PRN":17,"gnssid":0,"svid":17,"sigid":3,"az":154.0,"el":73.0,"ss":31.0,"used":true},{"PRN":30,"gnssid":0,"svid":30,"sigid":3,"az":131.0,"el":41.0,"ss":28.0,"used":true},{"PRN":69,"gnssid":6,"svid":5,"az":237.0,"el":14.0,"ss":20.0,"used":true},{"PRN":70,"gnssid":6,"svid":6,"az":298.0,"el":23.0,"ss":15.0,"used":true},{"PRN":78,"gnssid":6,"svid":14,"az":90.0,"el":30.0,"ss":41.0,"used":true},{"PRN":79,"gnssid":6,"svid":15,"az":19.0,"el":66.0,"ss":41.0,"used":true},{"PRN":81,"gnssid":6,"svid":17,"az":121.0,"el":55.0,"ss":35.0,"used":true},{"PRN":82,"gnssid":6,"svid":18,"az":172.0,"el":21.0,"ss":31.0,"used":true},{"PRN":87,"gnssid":6,"svid":23,"az":17.0,"el":1.0,"ss":13.0,"used":false},{"PRN":88,"gnssid":6,"svid":24,"az":42.0,"el":35.0,"ss":34.0,"used":true}]}
