$GNTXT,01,01,02,HW UBX-M8030 00080000*60
$GNTXT,01,01,02,EXT CORE 3.01 (86c0ce)*67
$GNTXT,01,01,02,ROM BASE 3.01 (107888)*25
$GNTXT,01,01,02,FWVER=ADR 4.50*56
$GNTXT,01,01,02,PROTVER=19.20*12
$GNTXT,01,01,02,MOD=NEO-M8L-0*65
$GNTXT,01,01,02,FIS=0xEF4015 (200061)*5D
$GNTXT,01,01,02,GPS;GLO;GAL;BDS*77
$GNTXT,01,01,02,SBAS;IMES;QZSS*49
$GNTXT,01,01,02,GNSS OTP=GPS;GLO*37
$GNTXT,01,01,02,LLC=FFFFFFFF-FFFFFFFF-FFFFFFFF-4FFFFF7E-FFFFFF49*20
$GNTXT,01,01,02,ANTSUPERV=AC *00
$GNTXT,01,01,02,ANTSTATUS=OK*25
$GNTXT,01,01,02,PF=3F7*3A
{"class":"IMU","msg":"UBX-ESF-MEAS","timeTag":1138255,"acc_x":0.68555,"acc_y":0.21973,"acc_z":11.77539}
{"class":"IMU","msg":"UBX-ESF-MEAS","timeTag":1138250,"gyro_temp":31.21,"gyro_x":-0.02539,"gyro_y":11.27661,"gyro_z":-1.91357}
$GPZDA,153152.10,30,01,2024,00,00*60
$GPGGA,153152.10,4844.4576300,N,00918.7039680,E,1,00,,263.61,M,46.091,M,,*74
$GPRMC,153152.10,A,4844.4576300,N,0918.7039680,E,1.6173,250.909,300124,2.8,E*5F
$GPGSA,A,3,,,,,,,,,,,,,,,*1C
{"class":"TPV","mode":3,"time":"2024-01-30T15:31:52.100Z","ept":0.005,"lat":48.740960500,"lon":9.311732800,"altHAE":311.2210,"altMSL":263.6100,"alt":263.6100,"epv":11.285,"track":250.9091,"magtrack":253.7031,"magvar":2.8,"speed":0.832,"epd":4.8486,"eps":0.28,"geoidSep":46.091,"eph":5.099}
{"class":"IMU","msg":"UBX-ESF-MEAS","timeTag":1138319}
{"class":"IMU","msg":"UBX-ESF-MEAS","timeTag":1138345,"acc_x":0.85449,"acc_y":0.39453,"acc_z":9.69434}
{"class":"IMU","msg":"UBX-ESF-MEAS","timeTag":1138340,"gyro_temp":31.21,"gyro_x":-0.10938,"gyro_y":-17.54639,"gyro_z":-10.92529}
$GPZDA,153152.20,30,01,2024,00,00*63
$GPGGA,153152.20,4844.4576120,N,00918.7039140,E,1,00,,263.69,M,46.091,M,,*74
$GPRMC,153152.20,A,4844.4576120,N,0918.7039140,E,1.4870,251.537,300124,2.8,E*5F
$GPGSA,A,3,,,,,,,,,,,,,,,*1C
{"class":"TPV","mode":3,"time":"2024-01-30T15:31:52.200Z","ept":0.005,"lat":48.740960200,"lon":9.311731900,"altHAE":311.2970,"altMSL":263.6860,"alt":263.6860,"epv":11.285,"track":251.5373,"magtrack":253.7031,"magvar":2.8,"speed":0.765,"climb":0.760,"epd":4.8486,"eps":0.28,"epc":225.70,"geoidSep":46.091,"eph":5.099}
{"class":"ATT","time":"2019-04-09T15:31:52.100Z","heading":250.909,"pitch":8.748,"roll":-0.591,"acc_x":1.62000,"acc_y":-0.43000,"acc_z":-10.82000,"gyro_x":-5.95300,"gyro_y":-3.94500,"gyro_z":0.99900}
{"class":"IMU","msg":"UBX-ESF-MEAS","timeTag":1138412}
{"class":"IMU","msg":"UBX-ESF-MEAS","timeTag":1138435,"acc_x":0.65234,"acc_y":-0.00391,"acc_z":9.42383}
{"class":"IMU","msg":"UBX-ESF-MEAS","timeTag":1138430,"gyro_temp":31.22,"gyro_x":7.79761,"gyro_y":-5.71460,"gyro_z":7.77246}
$GPZDA,153152.30,30,01,2024,00,00*62
$GPGGA,153152.30,4844.4575880,N,00918.7038660,E,1,00,,263.76,M,46.091,M,,*7F
$GPRMC,153152.30,A,4844.4575880,N,0918.7038660,E,1.3238,251.673,300124,2.8,E*58
$GPGSA,A,3,,,,,,,,,,,,,,,*1C
{"class":"TPV","mode":3,"time":"2024-01-30T15:31:52.300Z","ept":0.005,"lat":48.740959800,"lon":9.311731100,"altHAE":311.3710,"altMSL":263.7600,"alt":263.7600,"epv":11.285,"track":251.6733,"magtrack":253.7031,"magvar":2.8,"speed":0.681,"climb":0.760,"epd":4.8486,"eps":0.28,"epc":225.70,"geoidSep":46.091,"eph":5.099}
{"class":"ATT","time":"2019-04-09T15:31:52.200Z","heading":251.537,"pitch":9.039,"roll":-0.421,"acc_x":0.83000,"acc_y":-0.33000,"acc_z":-10.60000,"gyro_x":0.72900,"gyro_y":2.85100,"gyro_z":6.23200}
{"class":"IMU","msg":"UBX-ESF-MEAS","timeTag":1138509}
{"class":"IMU","msg":"UBX-ESF-MEAS","timeTag":1138525,"acc_x":0.85059,"acc_y":-0.16504,"acc_z":9.39160}
{"class":"IMU","msg":"UBX-ESF-MEAS","timeTag":1138520,"gyro_temp":31.21,"gyro_x":-0.39014,"gyro_y":-2.67578,"gyro_z":16.56519}
{"class":"IMU","msg":"UBX-ESF-MEAS","timeTag":1138616,"acc_x":1.66406,"acc_y":-0.10254,"acc_z":9.04785}
$GPZDA,153152.40,30,01,2024,00,00*65
$GPGGA,153152.40,4844.4575700,N,00918.7038300,E,1,00,,263.83,M,46.091,M,,*76
$GPRMC,153152.40,A,4844.4575700,N,0918.7038300,E,1.1430,250.413,300124,2.8,E*52
$GPGSA,A,3,,,,,,,,,,,,,,,*1C
{"class":"TPV","mode":3,"time":"2024-01-30T15:31:52.400Z","ept":0.005,"lat":48.740959500,"lon":9.311730500,"altHAE":311.4440,"altMSL":263.8330,"alt":263.8330,"epv":11.285,"track":250.4130,"magtrack":253.7031,"magvar":2.8,"speed":0.588,"climb":0.760,"epd":4.8486,"eps":0.28,"epc":225.70,"geoidSep":46.091,"eph":5.099}
{"class":"ATT","time":"2019-04-09T15:31:52.300Z","heading":251.673,"pitch":10.177,"roll":0.067,"acc_x":0.82000,"acc_y":-0.22000,"acc_z":-9.46000,"gyro_x":4.65200,"gyro_y":11.37100,"gyro_z":1.37600}
{"class":"IMU","msg":"UBX-ESF-MEAS","timeTag":1138616,"acc_x":1.66406,"acc_y":-0.10254,"acc_z":9.04785}
{"class":"IMU","msg":"UBX-ESF-MEAS","timeTag":1138611,"gyro_temp":31.21,"gyro_x":5.11597,"gyro_y":4.79297,"gyro_z":12.63647}
{"class":"IMU","msg":"UBX-ESF-MEAS","timeTag":1138706,"acc_x":1.66016,"acc_y":0.26465,"acc_z":9.59473}
{"class":"IMU","msg":"UBX-ESF-MEAS","timeTag":1138701,"gyro_temp":31.21,"gyro_x":0.88696,"gyro_y":8.94214,"gyro_z":21.73193}
$GPGSV,9,1,34,04,08,317,00,05,19,085,00,09,00,351,00,11,02,034,00*74
$GPGSV,9,2,34,12,04,116,00,16,14,297,00,18,43,176,38,20,16,047,13*7B
$GPGSV,9,3,34,25,35,121,22,26,43,298,28,28,46,221,20,29,69,055,41*77
$GPGSV,9,4,34,31,52,263,25,33,29,212,00,36,32,161,33,49,34,186,00*7B
$GPGSV,9,5,34,303,09,319,00,305,07,271,00,310,20,194,20,312,42,180,32*75
$GPGSV,9,6,34,324,58,300,24,325,06,299,00,326,20,041,00,331,67,117,33*7B
$GPGSV,9,7,34,333,60,082,25,69,06,322,00,70,08,019,00,76,18,142,20*48
$GPGSV,9,8,34,77,65,147,29,78,49,318,21,79,00,321,00,86,23,038,18*7D
$GPGSV,9,9,34,87,78,046,36,88,42,215,34*7E
{"class":"SKY","time":"2019-04-09T15:31:52.000Z","gdop":2.67,"hdop":1.05,"pdop":2.18,"tdop":1.55,"xdop":0.62,"ydop":0.85,"vdop":1.91,"nSat":34,"uSat":14,"satellites":[{"PRN":4,"gnssid":0,"svid":4,"az":317.0,"el":8.0,"prRes":31.7,"qual":0,"ss":0.0,"used":false,"health":1},{"PRN":5,"gnssid":0,"svid":5,"az":85.0,"el":19.0,"prRes":8.5,"qual":1,"ss":0.0,"used":false,"health":1},{"PRN":9,"gnssid":0,"svid":9,"az":351.0,"el":0.0,"prRes":35.1,"qual":1,"ss":0.0,"used":false,"health":1},{"PRN":11,"gnssid":0,"svid":11,"az":34.0,"el":2.0,"prRes":3.4,"qual":0,"ss":0.0,"used":false,"health":1},{"PRN":12,"gnssid":0,"svid":12,"az":116.0,"el":4.0,"prRes":11.6,"qual":0,"ss":0.0,"used":false,"health":1},{"PRN":16,"gnssid":0,"svid":16,"az":297.0,"el":14.0,"prRes":29.7,"qual":1,"ss":0.0,"used":false,"health":1},{"PRN":18,"gnssid":0,"svid":18,"az":176.0,"el":43.0,"prRes":17.6,"qual":6,"ss":38.0,"used":true,"health":1},{"PRN":20,"gnssid":0,"svid":20,"az":47.0,"el":16.0,"prRes":4.7,"qual":4,"ss":13.0,"used":false,"health":1},{"PRN":25,"gnssid":0,"svid":25,"az":121.0,"el":35.0,"prRes":12.1,"qual":4,"ss":22.0,"used":true,"health":1},{"PRN":26,"gnssid":0,"svid":26,"az":298.0,"el":43.0,"prRes":29.8,"qual":4,"ss":28.0,"used":true,"health":1},{"PRN":28,"gnssid":0,"svid":28,"az":221.0,"el":46.0,"prRes":22.1,"qual":4,"ss":20.0,"used":true,"health":1},{"PRN":29,"gnssid":0,"svid":29,"az":55.0,"el":69.0,"prRes":5.5,"qual":6,"ss":41.0,"used":true,"health":1},{"PRN":31,"gnssid":0,"svid":31,"az":263.0,"el":52.0,"prRes":26.3,"qual":4,"ss":25.0,"used":true,"health":1},{"PRN":33,"gnssid":1,"svid":120,"az":212.0,"el":29.0,"prRes":21.2,"qual":1,"ss":0.0,"used":false},{"PRN":36,"gnssid":1,"svid":123,"az":161.0,"el":32.0,"prRes":16.1,"qual":3,"ss":33.0,"used":false,"health":1},{"PRN":49,"gnssid":1,"svid":136,"az":186.0,"el":34.0,"prRes":18.6,"qual":1,"ss":0.0,"used":false,"health":1},{"PRN":303,"gnssid":2,"svid":3,"az":319.0,"el":9.0,"prRes":31.9,"qual":0,"ss":0.0,"used":false,"health":1},{"PRN":305,"gnssid":2,"svid":5,"az":271.0,"el":7.0,"prRes":27.1,"qual":1,"ss":0.0,"used":false,"health":1},{"PRN":310,"gnssid":2,"svid":10,"az":194.0,"el":20.0,"prRes":19.4,"qual":4,"ss":20.0,"used":false,"health":1},{"PRN":312,"gnssid":2,"svid":12,"az":180.0,"el":42.0,"prRes":18.0,"qual":5,"ss":32.0,"used":false,"health":1},{"PRN":324,"gnssid":2,"svid":24,"az":300.0,"el":58.0,"prRes":30.0,"qual":4,"ss":24.0,"used":true,"health":1},{"PRN":325,"gnssid":2,"svid":25,"az":299.0,"el":6.0,"prRes":29.9,"qual":0,"ss":0.0,"used":false,"health":1},{"PRN":326,"gnssid":2,"svid":26,"az":41.0,"el":20.0,"prRes":4.1,"qual":1,"ss":0.0,"used":false,"health":1},{"PRN":331,"gnssid":2,"svid":31,"az":117.0,"el":67.0,"prRes":11.7,"qual":7,"ss":33.0,"used":true,"health":1},{"PRN":333,"gnssid":2,"svid":33,"az":82.0,"el":60.0,"prRes":8.2,"qual":4,"ss":25.0,"used":true,"health":1},{"PRN":69,"gnssid":6,"svid":5,"az":322.0,"el":6.0,"prRes":32.2,"qual":1,"ss":0.0,"used":false,"health":1},{"PRN":70,"gnssid":6,"svid":6,"az":19.0,"el":8.0,"prRes":1.9,"qual":1,"ss":0.0,"used":false,"health":1},{"PRN":76,"gnssid":6,"svid":12,"az":142.0,"el":18.0,"prRes":14.2,"qual":4,"ss":20.0,"used":true,"health":1},{"PRN":77,"gnssid":6,"svid":13,"az":147.0,"el":65.0,"prRes":14.7,"qual":6,"ss":29.0,"used":true,"health":1},{"PRN":78,"gnssid":6,"svid":14,"az":318.0,"el":49.0,"prRes":31.8,"qual":4,"ss":21.0,"used":true,"health":1},{"PRN":79,"gnssid":6,"svid":15,"az":321.0,"el":0.0,"prRes":32.1,"qual":0,"ss":0.0,"used":false,"health":1},{"PRN":86,"gnssid":6,"svid":22,"az":38.0,"el":23.0,"prRes":3.8,"qual":4,"ss":18.0,"used":false,"health":1},{"PRN":87,"gnssid":6,"svid":23,"az":46.0,"el":78.0,"prRes":4.6,"qual":5,"ss":36.0,"used":true,"health":1},{"PRN":88,"gnssid":6,"svid":24,"az":215.0,"el":42.0,"prRes":21.5,"qual":5,"ss":34.0,"used":true,"health":1}]}
{"class":"SKY","time":"2019-04-09T15:31:52.000Z","gdop":2.67,"hdop":1.05,"pdop":2.18,"tdop":1.55,"xdop":0.61,"ydop":0.85,"vdop":1.91}
$GPZDA,153152.50,30,01,2024,00,00*64
$GPGGA,153152.50,4844.4577800,N,00918.7041300,E,2,14,1.05,264.18,M,46.091,M,,*6D
$GPRMC,153152.50,A,4844.4577800,N,0918.7041300,E,0.7911,249.194,300124,2.8,E*5B
$GPGSA,A,3,18,25,26,28,29,,,,,,,,2.2,1.1,1.9*31
$GPGBS,153152.50,2.288,3.188,11.540,,,,*76
{"class":"TPV","status":2,"mode":3,"time":"2024-01-30T15:31:52.500Z","leapseconds":18,"ept":0.005,"lat":48.740963000,"lon":9.311735500,"altHAE":311.7930,"altMSL":264.1820,"alt":264.1820,"epx":2.288,"epy":3.188,"epv":11.540,"track":249.1937,"magtrack":255.7546,"magvar":2.8,"speed":0.407,"climb":1.029,"epd":4.8409,"eps":0.31,"epc":46.12,"ecefx":4158803.99,"ecefy":681905.07,"ecefz":4771844.83,"ecefvx":0.95,"ecefvy":-0.13,"ecefvz":0.56,"ecefpAcc":12.63,"ecefvAcc":0.31,"geoidSep":46.091,"eph":5.124,"sep":10.335}
{"class":"ATT"}
{"class":"SKY","time":"2019-04-09T15:31:52.000Z","gdop":2.67,"hdop":1.05,"pdop":2.18,"tdop":1.55,"xdop":0.61,"ydop":0.85,"vdop":1.91}
{"class":"IMU","msg":"UBX-ESF-MEAS","timeTag":1138701,"gyro_temp":31.21,"gyro_x":0.88696,"gyro_y":8.94214,"gyro_z":21.73193}
{"class":"IMU","msg":"UBX-ESF-MEAS","timeTag":1138796,"acc_x":1.65527,"acc_y":0.40820,"acc_z":9.78418}
{"class":"IMU","msg":"UBX-ESF-MEAS","timeTag":1138791,"gyro_temp":31.22,"gyro_x":6.91138,"gyro_y":8.02271,"gyro_z":27.01709}
$GPZDA,153152.60,30,01,2024,00,00*67
$GPGGA,153152.60,4844.4577620,N,00918.7041120,E,2,14,1.05,264.29,M,46.091,M,,*60
$GPRMC,153152.60,A,4844.4577620,N,0918.7041120,E,0.7717,246.676,300124,2.8,E*58
$GPGSA,A,3,18,25,26,28,29,,,,,,,,2.2,1.1,1.9*31
$GPGBS,153152.60,2.288,3.188,11.540,,,,*75
{"class":"TPV","status":2,"mode":3,"time":"2024-01-30T15:31:52.600Z","leapseconds":18,"ept":0.005,"lat":48.740962700,"lon":9.311735200,"altHAE":311.8960,"altMSL":264.2850,"alt":264.2850,"epx":2.288,"epy":3.188,"epv":11.540,"track":246.6762,"magtrack":255.7546,"magvar":2.8,"speed":0.397,"climb":1.029,"epd":4.8409,"eps":0.31,"epc":230.80,"ecefx":4158803.99,"ecefy":681905.07,"ecefz":4771844.83,"ecefvx":0.95,"ecefvy":-0.13,"ecefvz":0.56,"ecefpAcc":12.63,"ecefvAcc":0.31,"geoidSep":46.091,"eph":5.124,"sep":10.335}
{"class":"ATT","time":"2024-01-30T15:31:52.000Z","heading":249.194,"pitch":0.000,"yaw":0.00,"roll":0.000,"acc_x":-0.78000,"acc_y":-0.29000,"acc_z":-1.44000,"gyro_x":0.74600,"gyro_y":-2.93100,"gyro_z":4.42600}
{"class":"IMU","msg":"UBX-ESF-MEAS","timeTag":1138791,"gyro_temp":31.22,"gyro_x":6.91138,"gyro_y":8.02271,"gyro_z":27.01709}
{"class":"IMU","msg":"UBX-ESF-MEAS","timeTag":1138886,"acc_x":1.34570,"acc_y":0.36914,"acc_z":10.37598}
{"class":"IMU","msg":"UBX-ESF-MEAS","timeTag":1138881,"gyro_temp":31.22,"gyro_x":13.47217,"gyro_y":6.59277,"gyro_z":33.29688}
$GPZDA,153152.70,30,01,2024,00,00*66
$GPGGA,153152.70,4844.4577440,N,00918.7041000,E,2,14,1.05,264.39,M,46.091,M,,*67
$GPRMC,153152.70,A,4844.4577440,N,0918.7041000,E,0.7406,243.575,300124,2.8,E*58
$GPGSA,A,3,18,25,26,28,29,,,,,,,,2.2,1.1,1.9*31
$GPGBS,153152.70,2.288,3.188,11.540,,,,*74
{"class":"TPV","status":2,"mode":3,"time":"2024-01-30T15:31:52.700Z","leapseconds":18,"ept":0.005,"lat":48.740962400,"lon":9.311735000,"altHAE":312.0010,"altMSL":264.3900,"alt":264.3900,"epx":2.288,"epy":3.188,"epv":11.540,"track":243.5753,"magtrack":255.7546,"magvar":2.8,"speed":0.381,"climb":1.029,"epd":4.8409,"eps":0.31,"epc":230.80,"ecefx":4158803.99,"ecefy":681905.07,"ecefz":4771844.83,"ecefvx":0.95,"ecefvy":-0.13,"ecefvz":0.56,"ecefpAcc":12.63,"ecefvAcc":0.31,"geoidSep":46.091,"eph":5.124,"sep":10.335}
{"class":"ATT","time":"2024-01-30T15:31:52.600Z","heading":246.676,"pitch":9.359,"yaw":0.00,"roll":1.042,"acc_x":1.69000,"acc_y":-0.35000,"acc_z":-9.59000,"gyro_x":4.70800,"gyro_y":-8.80200,"gyro_z":-24.65600}
{"class":"IMU","msg":"UBX-ESF-MEAS","timeTag":1138881,"gyro_temp":31.22,"gyro_x":13.47217,"gyro_y":6.59277,"gyro_z":33.29688}
{"class":"IMU","msg":"UBX-ESF-MEAS","timeTag":1138976,"acc_x":1.39844,"acc_y":0.73340,"acc_z":11.09766}
{"class":"IMU","msg":"UBX-ESF-MEAS","timeTag":1138971,"gyro_temp":31.21,"gyro_x":18.92847,"gyro_y":8.69629,"gyro_z":42.94287}
$GPZDA,153152.80,30,01,2024,00,00*69
$GPGGA,153152.80,4844.4577260,N,00918.7040880,E,2,14,1.05,264.50,M,46.091,M,,*62
$GPRMC,153152.80,A,4844.4577260,N,0918.7040880,E,0.6978,239.662,300124,2.8,E*5F
$GPGSA,A,3,18,25,26,28,29,,,,,,,,2.2,1.1,1.9*31
$GPGBS,153152.80,2.288,3.188,11.540,,,,*7B
{"class":"TPV","status":2,"mode":3,"time":"2024-01-30T15:31:52.800Z","leapseconds":18,"ept":0.005,"lat":48.740962100,"lon":9.311734800,"altHAE":312.1070,"altMSL":264.4960,"alt":264.4960,"epx":2.288,"epy":3.188,"epv":11.540,"track":239.6615,"magtrack":255.7546,"magvar":2.8,"speed":0.359,"climb":1.029,"epd":4.8409,"eps":0.31,"epc":230.80,"ecefx":4158803.99,"ecefy":681905.07,"ecefz":4771844.83,"ecefvx":0.95,"ecefvy":-0.13,"ecefvz":0.56,"ecefpAcc":12.63,"ecefvAcc":0.31,"geoidSep":46.091,"eph":5.124,"sep":10.335}
{"class":"ATT","time":"2024-01-30T15:31:52.700Z","heading":243.575,"pitch":8.668,"yaw":0.00,"roll":1.659,"acc_x":1.54000,"acc_y":-0.41000,"acc_z":-9.97000,"gyro_x":11.02000,"gyro_y":-7.62300,"gyro_z":-30.45700}
{"class":"IMU","msg":"UBX-ESF-MEAS","timeTag":1138971,"gyro_temp":31.21,"gyro_x":18.92847,"gyro_y":8.69629,"gyro_z":42.94287}
{"class":"IMU","msg":"UBX-ESF-MEAS","timeTag":1139066,"acc_x":0.38281,"acc_y":0.60449,"acc_z":10.78711}
{"class":"IMU","msg":"UBX-ESF-MEAS","timeTag":1139061,"gyro_temp":31.21,"gyro_x":8.57031,"gyro_y":5.54028,"gyro_z":58.62012}
$GPZDA,153152.90,30,01,2024,00,00*68
$GPGGA,153152.90,4844.4577080,N,00918.7040880,E,2,14,1.05,264.60,M,46.091,M,,*6C
$GPRMC,153152.90,A,4844.4577080,N,0918.7040880,E,0.6123,234.466,300124,2.8,E*5F
$GPGSA,A,3,18,25,26,28,29,,,,,,,,2.2,1.1,1.9*31
$GPGBS,153152.90,2.288,3.188,11.540,,,,*7A
{"class":"TPV","status":2,"mode":3,"time":"2024-01-30T15:31:52.900Z","leapseconds":18,"ept":0.005,"lat":48.740961800,"lon":9.311734800,"altHAE":312.2130,"altMSL":264.6020,"alt":264.6020,"epx":2.288,"epy":3.188,"epv":11.540,"track":234.4658,"magtrack":255.7546,"magvar":2.8,"speed":0.315,"climb":1.029,"epd":4.8409,"eps":0.31,"epc":230.80,"ecefx":4158803.99,"ecefy":681905.07,"ecefz":4771844.83,"ecefvx":0.95,"ecefvy":-0.13,"ecefvz":0.56,"ecefpAcc":12.63,"ecefvAcc":0.31,"geoidSep":46.091,"eph":5.124,"sep":10.335}
{"class":"ATT","time":"2024-01-30T15:31:52.800Z","heading":239.662,"pitch":8.022,"yaw":0.00,"roll":2.796,"acc_x":1.42000,"acc_y":-0.56000,"acc_z":-10.61000,"gyro_x":17.04800,"gyro_y":-7.96100,"gyro_z":-38.44400}
{"class":"IMU","msg":"UBX-ESF-MEAS","timeTag":1139061,"gyro_temp":31.21,"gyro_x":8.57031,"gyro_y":5.54028,"gyro_z":58.62012}
{"class":"IMU","msg":"UBX-ESF-MEAS","timeTag":1139156,"acc_x":0.94043,"acc_y":0.95117,"acc_z":9.13672}
{"class":"IMU","msg":"UBX-ESF-MEAS","timeTag":1139151,"gyro_temp":31.24,"gyro_x":-4.78198,"gyro_y":-19.09668,"gyro_z":45.33936}
$GPZDA,153153.00,30,01,2024,00,00*60
$GPGGA,153153.00,4844.4576900,N,00918.7040940,E,2,14,1.05,264.71,M,46.091,M,,*69
$GPRMC,153153.00,A,4844.4576900,N,0918.7040940,E,0.5559,229.226,300124,2.8,E*5E
$GPGSA,A,3,18,25,26,28,29,,,,,,,,2.2,1.1,1.9*31
$GPGBS,153153.00,2.288,3.188,11.540,,,,*72
{"class":"TPV","status":2,"mode":3,"time":"2024-01-30T15:31:53.000Z","leapseconds":18,"ept":0.005,"lat":48.740961500,"lon":9.311734900,"altHAE":312.3170,"altMSL":264.7060,"alt":264.7060,"epx":2.288,"epy":3.188,"epv":11.540,"track":229.2261,"magtrack":255.7546,"magvar":2.8,"speed":0.286,"climb":1.029,"epd":4.8409,"eps":0.31,"epc":230.80,"ecefx":4158803.99,"ecefy":681905.07,"ecefz":4771844.83,"ecefvx":0.95,"ecefvy":-0.13,"ecefvz":0.56,"ecefpAcc":12.63,"ecefvAcc":0.31,"geoidSep":46.091,"eph":5.124,"sep":10.335}
{"class":"ATT","time":"2024-01-30T15:31:52.900Z","heading":234.466,"pitch":7.563,"yaw":0.00,"roll":3.551,"acc_x":0.95000,"acc_y":-0.68000,"acc_z":-10.81000,"gyro_x":14.58900,"gyro_y":-7.43300,"gyro_z":-51.14500}
{"class":"IMU","msg":"UBX-ESF-MEAS","timeTag":1139151,"gyro_temp":31.24,"gyro_x":-4.78198,"gyro_y":-19.09668,"gyro_z":45.33936}
{"class":"IMU","msg":"UBX-ESF-MEAS","timeTag":1139246,"acc_x":1.42773,"acc_y":1.08008,"acc_z":9.29492}
{"class":"IMU","msg":"UBX-ESF-MEAS","timeTag":1139241,"gyro_temp":31.22,"gyro_x":1.23096,"gyro_y":-7.70703,"gyro_z":47.05347}
$GPZDA,153153.10,30,01,2024,00,00*61
$GPGGA,153153.10,4844.4576780,N,00918.7041000,E,2,14,1.05,264.81,M,46.091,M,,*6D
$GPRMC,153153.10,A,4844.4576780,N,0918.7041000,E,0.5579,224.577,300124,2.8,E*59
$GPGSA,A,3,18,25,26,28,29,,,,,,,,2.2,1.1,1.9*31
$GPGBS,153153.10,2.288,3.188,11.540,,,,*73
{"class":"TPV","status":2,"mode":3,"time":"2024-01-30T15:31:53.100Z","leapseconds":18,"ept":0.005,"lat":48.740961300,"lon":9.311735000,"altHAE":312.4200,"altMSL":264.8090,"alt":264.8090,"epx":2.288,"epy":3.188,"epv":11.540,"track":224.5769,"magtrack":255.7546,"magvar":2.8,"speed":0.287,"climb":1.029,"epd":4.8409,"eps":0.31,"epc":230.80,"ecefx":4158803.99,"ecefy":681905.07,"ecefz":4771844.83,"ecefvx":0.95,"ecefvy":-0.13,"ecefvz":0.56,"ecefpAcc":12.63,"ecefvAcc":0.31,"geoidSep":46.091,"eph":5.124,"sep":10.335}
{"class":"ATT","time":"2024-01-30T15:31:53.000Z","heading":229.226,"pitch":8.516,"yaw":0.00,"roll":3.088,"acc_x":0.73000,"acc_y":-0.78000,"acc_z":-9.85000,"gyro_x":2.69700,"gyro_y":6.50700,"gyro_z":-52.34700}
{"class":"IMU","msg":"UBX-ESF-MEAS","timeTag":1139311}
{"class":"IMU","msg":"UBX-ESF-MEAS","timeTag":1139336,"acc_x":1.62402,"acc_y":0.66016,"acc_z":8.73242}
{"class":"IMU","msg":"UBX-ESF-MEAS","timeTag":1139331,"gyro_temp":31.22,"gyro_x":-1.31860,"gyro_y":-8.94946,"gyro_z":48.49634}
$GPZDA,153153.20,30,01,2024,00,00*62
$GPGGA,153153.20,4844.4576660,N,00918.7041120,E,2,14,1.05,264.91,M,46.091,M,,*63
$GPRMC,153153.20,A,4844.4576660,N,0918.7041120,E,0.5637,219.710,300124,2.8,E*52
$GPGSA,A,3,18,25,26,28,29,,,,,,,,2.2,1.1,1.9*31
$GPGBS,153153.20,2.288,3.188,11.540,,,,*70
{"class":"TPV","status":2,"mode":3,"time":"2024-01-30T15:31:53.200Z","leapseconds":18,"ept":0.005,"lat":48.740961100,"lon":9.311735200,"altHAE":312.5220,"altMSL":264.9110,"alt":264.9110,"epx":2.288,"epy":3.188,"epv":11.540,"track":219.7102,"magtrack":255.7546,"magvar":2.8,"speed":0.290,"climb":1.029,"epd":4.8409,"eps":0.31,"epc":230.80,"ecefx":4158803.99,"ecefy":681905.07,"ecefz":4771844.83,"ecefvx":0.95,"ecefvy":-0.13,"ecefvz":0.56,"ecefpAcc":12.63,"ecefvAcc":0.31,"geoidSep":46.091,"eph":5.124,"sep":10.335}
{"class":"ATT","time":"2024-01-30T15:31:53.100Z","heading":224.577,"pitch":10.047,"yaw":0.00,"roll":2.239,"acc_x":1.23000,"acc_y":-1.01000,"acc_z":-9.13000,"gyro_x":-0.98400,"gyro_y":13.15100,"gyro_z":-46.54600}
{"class":"IMU","msg":"UBX-ESF-MEAS","timeTag":1139408}
{"class":"IMU","msg":"UBX-ESF-MEAS","timeTag":1139426,"acc_x":1.76562,"acc_y":1.07910,"acc_z":8.94043}
{"class":"IMU","msg":"UBX-ESF-MEAS","timeTag":1139421,"gyro_temp":31.23,"gyro_x":1.29565,"gyro_y":0.02612,"gyro_z":42.27515}
$GPZDA,153153.30,30,01,2024,00,00*63
$GPGGA,153153.30,4844.4576540,N,00918.7041300,E,2,14,1.05,265.01,M,46.091,M,,*6B
$GPRMC,153153.30,A,4844.4576540,N,0918.7041300,E,0.5657,215.055,300124,2.8,E*5E
$GPGSA,A,3,18,25,26,28,29,,,,,,,,2.2,1.1,1.9*31
$GPGBS,153153.30,2.288,3.188,11.540,,,,*71
{"class":"TPV","status":2,"mode":3,"time":"2024-01-30T15:31:53.300Z","leapseconds":18,"ept":0.005,"lat":48.740960900,"lon":9.311735500,"altHAE":312.6230,"altMSL":265.0120,"alt":265.0120,"epx":2.288,"epy":3.188,"epv":11.540,"track":215.0555,"magtrack":255.7546,"magvar":2.8,"speed":0.291,"climb":1.029,"epd":4.8409,"eps":0.31,"epc":230.80,"ecefx":4158803.99,"ecefy":681905.07,"ecefz":4771844.83,"ecefvx":0.95,"ecefvy":-0.13,"ecefvz":0.56,"ecefpAcc":12.63,"ecefvAcc":0.31,"geoidSep":46.091,"eph":5.124,"sep":10.335}
{"class":"ATT","time":"2024-01-30T15:31:53.200Z","heading":219.710,"pitch":11.007,"yaw":0.00,"roll":1.424,"acc_x":1.57000,"acc_y":-0.87000,"acc_z":-8.93000,"gyro_x":0.75300,"gyro_y":8.06100,"gyro_z":-48.12900}
{"class":"IMU","msg":"UBX-ESF-MEAS","timeTag":1139509}
{"class":"IMU","msg":"UBX-ESF-MEAS","timeTag":1139517,"acc_x":2.44531,"acc_y":0.86621,"acc_z":8.94531}
{"class":"IMU","msg":"UBX-ESF-MEAS","timeTag":1139512,"gyro_temp":31.21,"gyro_x":2.87061,"gyro_y":3.32471,"gyro_z":37.35254}
{"class":"IMU","msg":"UBX-ESF-MEAS","timeTag":1139607,"acc_x":2.27734,"acc_y":0.50098,"acc_z":10.09375}
{"class":"IMU","msg":"UBX-ESF-MEAS","timeTag":1139602,"gyro_temp":31.22,"gyro_x":0.01025,"gyro_y":9.27124,"gyro_z":32.49097}
$GPZDA,153153.40,30,01,2024,00,00*64
$GPGGA,153153.40,4844.4576420,N,00918.7041420,E,2,14,1.05,265.11,M,46.091,M,,*6F
$GPRMC,153153.40,A,4844.4576420,N,0918.7041420,E,0.5793,211.208,300124,2.8,E*5C
$GPGSA,A,3,18,25,26,28,29,,,,,,,,2.2,1.1,1.9*31
$GPGBS,153153.40,2.288,3.188,11.540,,,,*76
{"class":"TPV","status":2,"mode":3,"time":"2024-01-30T15:31:53.400Z","leapseconds":18,"ept":0.005,"lat":48.740960700,"lon":9.311735700,"altHAE":312.7250,"altMSL":265.1140,"alt":265.1140,"epx":2.288,"epy":3.188,"epv":11.540,"track":211.2080,"magtrack":255.7546,"magvar":2.8,"speed":0.298,"climb":1.029,"epd":4.8409,"eps":0.31,"epc":230.80,"ecefx":4158803.99,"ecefy":681905.07,"ecefz":4771844.83,"ecefvx":0.95,"ecefvy":-0.13,"ecefvz":0.56,"ecefpAcc":12.63,"ecefvAcc":0.31,"geoidSep":46.091,"eph":5.124,"sep":10.335}
{"class":"ATT","time":"2024-01-30T15:31:53.300Z","heading":215.055,"pitch":11.506,"yaw":0.00,"roll":0.594,"acc_x":1.73000,"acc_y":-0.87000,"acc_z":-8.76000,"gyro_x":0.78500,"gyro_y":4.18300,"gyro_z":-45.73300}
{"class":"IMU","msg":"UBX-ESF-MEAS","timeTag":1139602,"gyro_temp":31.22,"gyro_x":0.01025,"gyro_y":9.27124,"gyro_z":32.49097}
{"class":"IMU","msg":"UBX-ESF-MEAS","timeTag":1139697,"acc_x":2.58301,"acc_y":0.13477,"acc_z":10.75781}
{"class":"IMU","msg":"UBX-ESF-MEAS","timeTag":1139692,"gyro_temp":31.21,"gyro_x":-4.77051,"gyro_y":6.20532,"gyro_z":18.93896}
$GPGSV,9,1,34,04,08,317,00,05,19,085,00,09,00,351,00,11,02,034,00*74
$GPGSV,9,2,34,12,04,116,00,16,14,297,00,18,43,176,40,20,16,047,10*77
$GPGSV,9,3,34,25,35,121,22,26,43,298,26,28,46,221,28,29,69,055,32*75
$GPGSV,9,4,34,31,52,263,30,33,29,212,00,36,32,161,40,49,34,186,00*7B
$GPGSV,9,5,34,303,09,319,00,305,07,271,00,310,20,194,18,312,42,180,32*7E
$GPGSV,9,6,34,324,58,300,30,325,06,299,00,326,20,041,00,331,67,117,33*7E
$GPGSV,9,7,34,333,60,082,23,69,06,322,00,70,08,019,00,76,18,142,20*4E
$GPGSV,9,8,34,77,65,147,29,78,49,318,23,79,00,321,00,86,23,038,17*70
$GPGSV,9,9,34,87,78,046,38,88,42,215,29*7C
{"class":"SKY","time":"2024-01-30T15:31:53.000Z","gdop":2.67,"hdop":1.05,"pdop":2.18,"tdop":1.55,"xdop":0.62,"ydop":0.85,"vdop":1.91,"nSat":34,"uSat":14,"satellites":[{"PRN":4,"gnssid":0,"svid":4,"az":317.0,"el":8.0,"prRes":31.7,"qual":0,"ss":0.0,"used":false,"health":1},{"PRN":5,"gnssid":0,"svid":5,"az":85.0,"el":19.0,"prRes":8.5,"qual":1,"ss":0.0,"used":false,"health":1},{"PRN":9,"gnssid":0,"svid":9,"az":351.0,"el":0.0,"prRes":35.1,"qual":0,"ss":0.0,"used":false,"health":1},{"PRN":11,"gnssid":0,"svid":11,"az":34.0,"el":2.0,"prRes":3.4,"qual":0,"ss":0.0,"used":false,"health":1},{"PRN":12,"gnssid":0,"svid":12,"az":116.0,"el":4.0,"prRes":11.6,"qual":0,"ss":0.0,"used":false,"health":1},{"PRN":16,"gnssid":0,"svid":16,"az":297.0,"el":14.0,"prRes":29.7,"qual":1,"ss":0.0,"used":false,"health":1},{"PRN":18,"gnssid":0,"svid":18,"az":176.0,"el":43.0,"prRes":17.6,"qual":6,"ss":40.0,"used":true,"health":1},{"PRN":20,"gnssid":0,"svid":20,"az":47.0,"el":16.0,"prRes":4.7,"qual":3,"ss":10.0,"used":false,"health":1},{"PRN":25,"gnssid":0,"svid":25,"az":121.0,"el":35.0,"prRes":12.1,"qual":4,"ss":22.0,"used":true,"health":1},{"PRN":26,"gnssid":0,"svid":26,"az":298.0,"el":43.0,"prRes":29.8,"qual":4,"ss":26.0,"used":true,"health":1},{"PRN":28,"gnssid":0,"svid":28,"az":221.0,"el":46.0,"prRes":22.1,"qual":4,"ss":28.0,"used":true,"health":1},{"PRN":29,"gnssid":0,"svid":29,"az":55.0,"el":69.0,"prRes":5.5,"qual":6,"ss":32.0,"used":true,"health":1},{"PRN":31,"gnssid":0,"svid":31,"az":263.0,"el":52.0,"prRes":26.3,"qual":5,"ss":30.0,"used":true,"health":1},{"PRN":33,"gnssid":1,"svid":120,"az":212.0,"el":29.0,"prRes":21.2,"qual":1,"ss":0.0,"used":false},{"PRN":36,"gnssid":1,"svid":123,"az":161.0,"el":32.0,"prRes":16.1,"qual":3,"ss":40.0,"used":false,"health":1},{"PRN":49,"gnssid":1,"svid":136,"az":186.0,"el":34.0,"prRes":18.6,"qual":1,"ss":0.0,"used":false,"health":1},{"PRN":303,"gnssid":2,"svid":3,"az":319.0,"el":9.0,"prRes":31.9,"qual":0,"ss":0.0,"used":false,"health":1},{"PRN":305,"gnssid":2,"svid":5,"az":271.0,"el":7.0,"prRes":27.1,"qual":1,"ss":0.0,"used":false,"health":1},{"PRN":310,"gnssid":2,"svid":10,"az":194.0,"el":20.0,"prRes":19.4,"qual":4,"ss":18.0,"used":false,"health":1},{"PRN":312,"gnssid":2,"svid":12,"az":180.0,"el":42.0,"prRes":18.0,"qual":7,"ss":32.0,"used":false,"health":1},{"PRN":324,"gnssid":2,"svid":24,"az":300.0,"el":58.0,"prRes":30.0,"qual":4,"ss":30.0,"used":true,"health":1},{"PRN":325,"gnssid":2,"svid":25,"az":299.0,"el":6.0,"prRes":29.9,"qual":0,"ss":0.0,"used":false,"health":1},{"PRN":326,"gnssid":2,"svid":26,"az":41.0,"el":20.0,"prRes":4.1,"qual":1,"ss":0.0,"used":false,"health":1},{"PRN":331,"gnssid":2,"svid":31,"az":117.0,"el":67.0,"prRes":11.7,"qual":7,"ss":33.0,"used":true,"health":1},{"PRN":333,"gnssid":2,"svid":33,"az":82.0,"el":60.0,"prRes":8.2,"qual":4,"ss":23.0,"used":true,"health":1},{"PRN":69,"gnssid":6,"svid":5,"az":322.0,"el":6.0,"prRes":32.2,"qual":1,"ss":0.0,"used":false,"health":1},{"PRN":70,"gnssid":6,"svid":6,"az":19.0,"el":8.0,"prRes":1.9,"qual":1,"ss":0.0,"used":false,"health":1},{"PRN":76,"gnssid":6,"svid":12,"az":142.0,"el":18.0,"prRes":14.2,"qual":4,"ss":20.0,"used":true,"health":1},{"PRN":77,"gnssid":6,"svid":13,"az":147.0,"el":65.0,"prRes":14.7,"qual":5,"ss":29.0,"used":true,"health":1},{"PRN":78,"gnssid":6,"svid":14,"az":318.0,"el":49.0,"prRes":31.8,"qual":4,"ss":23.0,"used":true,"health":1},{"PRN":79,"gnssid":6,"svid":15,"az":321.0,"el":0.0,"prRes":32.1,"qual":0,"ss":0.0,"used":false,"health":1},{"PRN":86,"gnssid":6,"svid":22,"az":38.0,"el":23.0,"prRes":3.8,"qual":4,"ss":17.0,"used":false,"health":1},{"PRN":87,"gnssid":6,"svid":23,"az":46.0,"el":78.0,"prRes":4.6,"qual":5,"ss":38.0,"used":true,"health":1},{"PRN":88,"gnssid":6,"svid":24,"az":215.0,"el":42.0,"prRes":21.5,"qual":4,"ss":29.0,"used":true,"health":1}]}
{"class":"SKY","time":"2024-01-30T15:31:53.000Z","gdop":2.67,"hdop":1.05,"pdop":2.18,"tdop":1.55,"xdop":0.61,"ydop":0.85,"vdop":1.91}
$GPZDA,153153.00,30,01,2024,00,00*60
$GPGGA,153153.00,4844.4577380,N,00918.7039140,E,2,14,1.05,264.96,M,46.091,M,,*65
$GPRMC,153153.00,A,4844.4577380,N,0918.7039140,E,0.1205,222.745,300124,2.8,E*5A
$GPGSA,A,3,18,25,26,28,29,,,,,,,,2.2,1.1,1.9*31
$GPGBS,153153.00,2.288,3.188,11.750,,,,*71
{"class":"TPV","status":2,"mode":3,"time":"2024-01-30T15:31:53.000Z","leapseconds":18,"ept":0.005,"lat":48.740962300,"lon":9.311731900,"altHAE":312.5700,"altMSL":264.9590,"alt":264.9590,"epx":2.288,"epy":3.188,"epv":11.750,"track":222.7451,"magtrack":225.5391,"magvar":2.8,"speed":0.062,"eps":0.33,"ecefx":4158805.08,"ecefy":681904.87,"ecefz":4771845.63,"ecefvx":0.68,"ecefvy":0.14,"ecefvz":0.71,"ecefpAcc":12.82,"ecefvAcc":0.33,"geoidSep":46.091,"eph":5.129,"sep":10.335}
{"class":"ATT","time":"2024-01-30T15:31:53.000Z","pitch":0.000,"yaw":0.00,"roll":0.000,"acc_x":-0.28000,"acc_y":-0.71000,"acc_z":0.62000,"gyro_x":1.00900,"gyro_y":7.93700,"gyro_z":-47.98800}
{"class":"SKY","time":"2024-01-30T15:31:53.000Z","gdop":2.67,"hdop":1.05,"pdop":2.18,"tdop":1.55,"xdop":0.61,"ydop":0.85,"vdop":1.91}
{"class":"IMU","msg":"UBX-ESF-MEAS","timeTag":1139692,"gyro_temp":31.21,"gyro_x":-4.77051,"gyro_y":6.20532,"gyro_z":18.93896}
$GPZDA,153153.50,30,01,2024,00,00*65
$GPGGA,153153.50,4844.4576240,N,00918.7038660,E,2,14,1.05,265.49,M,46.091,M,,*6B
$GPRMC,153153.50,A,4844.4576240,N,0918.7038660,E,0.8533,202.874,300124,2.8,E*53
$GPGSA,A,3,18,25,26,28,29,,,,,,,,2.2,1.1,1.9*31
$GPGBS,153153.50,2.288,3.188,11.750,,,,*74
{"class":"TPV","status":2,"mode":3,"time":"2024-01-30T15:31:53.500Z","leapseconds":18,"ept":0.005,"lat":48.740960400,"lon":9.311731100,"altHAE":313.1040,"altMSL":265.4930,"alt":265.4930,"epx":2.288,"epy":3.188,"epv":11.750,"track":202.8737,"magtrack":225.5391,"magvar":2.8,"speed":0.439,"climb":1.067,"epd":4.8158,"eps":0.33,"epc":46.96,"ecefx":4158805.08,"ecefy":681904.87,"ecefz":4771845.63,"ecefvx":0.68,"ecefvy":0.14,"ecefvz":0.71,"ecefpAcc":12.82,"ecefvAcc":0.33,"geoidSep":46.091,"eph":5.129,"sep":10.335}
{"class":"IMU","msg":"UBX-ESF-MEAS","timeTag":1139787,"acc_x":0.69727,"acc_y":0.85059,"acc_z":11.53223}
{"class":"IMU","msg":"UBX-ESF-MEAS","timeTag":1139782,"gyro_temp":31.22,"gyro_x":15.80835,"gyro_y":5.89014,"gyro_z":17.30029}
$GPZDA,153153.60,30,01,2024,00,00*66
$GPGGA,153153.60,4844.4576000,N,00918.7038600,E,2,14,1.05,265.60,M,46.091,M,,*63
$GPRMC,153153.60,A,4844.4576000,N,0918.7038600,E,0.8378,201.027,300124,2.8,E*54
$GPGSA,A,3,18,25,26,28,29,,,,,,,,2.2,1.1,1.9*31
$GPGBS,153153.60,2.288,3.188,11.750,,,,*77
{"class":"TPV","status":2,"mode":3,"time":"2024-01-30T15:31:53.600Z","leapseconds":18,"ept":0.005,"lat":48.740960000,"lon":9.311731000,"altHAE":313.2110,"altMSL":265.6000,"alt":265.6000,"epx":2.288,"epy":3.188,"epv":11.750,"track":201.0268,"magtrack":225.5391,"magvar":2.8,"speed":0.431,"climb":1.067,"epd":4.8158,"eps":0.33,"epc":235.00,"ecefx":4158805.08,"ecefy":681904.87,"ecefz":4771845.63,"ecefvx":0.68,"ecefvy":0.14,"ecefvz":0.71,"ecefpAcc":12.82,"ecefvAcc":0.33,"geoidSep":46.091,"eph":5.129,"sep":10.335}
{"class":"ATT","time":"2024-01-30T15:31:53.500Z","heading":202.874,"pitch":10.144,"yaw":0.00,"roll":-1.754,"acc_x":2.59000,"acc_y":-0.16000,"acc_z":-10.63000,"gyro_x":-3.98900,"gyro_y":-6.51800,"gyro_z":-19.20500}
{"class":"IMU","msg":"UBX-ESF-MEAS","timeTag":1139782,"gyro_temp":31.22,"gyro_x":15.80835,"gyro_y":5.89014,"gyro_z":17.30029}
{"class":"IMU","msg":"UBX-ESF-MEAS","timeTag":1139877,"acc_x":0.72266,"acc_y":0.21484,"acc_z":9.69141}
{"class":"IMU","msg":"UBX-ESF-MEAS","timeTag":1139872,"gyro_temp":31.23,"gyro_x":4.38525,"gyro_y":-14.25903,"gyro_z":13.14209}
$GPZDA,153153.70,30,01,2024,00,00*67
$GPGGA,153153.70,4844.4575820,N,00918.7038600,E,2,14,1.05,265.71,M,46.091,M,,*6B
$GPRMC,153153.70,A,4844.4575820,N,0918.7038600,E,0.6784,199.450,300124,2.8,E*53
$GPGSA,A,3,18,25,26,28,29,,,,,,,,2.2,1.1,1.9*31
$GPGBS,153153.70,2.288,3.188,11.750,,,,*76
{"class":"TPV","status":2,"mode":3,"time":"2024-01-30T15:31:53.700Z","leapseconds":18,"ept":0.005,"lat":48.740959700,"lon":9.311731000,"altHAE":313.3170,"altMSL":265.7060,"alt":265.7060,"epx":2.288,"epy":3.188,"epv":11.750,"track":199.4503,"magtrack":225.5391,"magvar":2.8,"speed":0.349,"climb":1.067,"epd":4.8158,"eps":0.33,"epc":235.00,"ecefx":4158805.08,"ecefy":681904.87,"ecefz":4771845.63,"ecefvx":0.68,"ecefvy":0.14,"ecefvz":0.71,"ecefpAcc":12.82,"ecefvAcc":0.33,"geoidSep":46.091,"eph":5.129,"sep":10.335}
{"class":"ATT","time":"2024-01-30T15:31:53.600Z","heading":201.027,"pitch":9.457,"yaw":0.00,"roll":-1.435,"acc_x":1.68000,"acc_y":-0.50000,"acc_z":-11.00000,"gyro_x":6.33300,"gyro_y":-6.36000,"gyro_z":-18.38300}
{"class":"IMU","msg":"UBX-ESF-MEAS","timeTag":1139872,"gyro_temp":31.23,"gyro_x":4.38525,"gyro_y":-14.25903,"gyro_z":13.14209}
{"class":"IMU","msg":"UBX-ESF-MEAS","timeTag":1139967,"acc_x":0.52734,"acc_y":0.14844,"acc_z":9.62402}
{"class":"IMU","msg":"UBX-ESF-MEAS","timeTag":1139962,"gyro_temp":31.22,"gyro_x":11.53491,"gyro_y":-3.60425,"gyro_z":24.97046}
$GPZDA,153153.80,30,01,2024,00,00*68
$GPGGA,153153.80,4844.4575700,N,00918.7038600,E,2,14,1.05,265.81,M,46.091,M,,*66
$GPRMC,153153.80,A,4844.4575700,N,0918.7038600,E,0.5073,197.482,300124,2.8,E*5C
$GPGSA,A,3,18,25,26,28,29,,,,,,,,2.2,1.1,1.9*31
$GPGBS,153153.80,2.288,3.188,11.750,,,,*79
{"class":"TPV","status":2,"mode":3,"time":"2024-01-30T15:31:53.800Z","leapseconds":18,"ept":0.005,"lat":48.740959500,"lon":9.311731000,"altHAE":313.4200,"altMSL":265.8090,"alt":265.8090,"epx":2.288,"epy":3.188,"epv":11.750,"track":197.4815,"magtrack":225.5391,"magvar":2.8,"speed":0.261,"climb":1.067,"epd":4.8158,"eps":0.33,"epc":235.00,"ecefx":4158805.08,"ecefy":681904.87,"ecefz":4771845.63,"ecefvx":0.68,"ecefvy":0.14,"ecefvz":0.71,"ecefpAcc":12.82,"ecefvAcc":0.33,"geoidSep":46.091,"eph":5.129,"sep":10.335}
{"class":"ATT","time":"2024-01-30T15:31:53.700Z","heading":199.450,"pitch":9.820,"yaw":0.00,"roll":-0.606,"acc_x":0.77000,"acc_y":-0.54000,"acc_z":-10.48000,"gyro_x":10.92600,"gyro_y":3.90500,"gyro_z":-15.47600}
{"class":"IMU","msg":"UBX-ESF-MEAS","timeTag":1139962,"gyro_temp":31.22,"gyro_x":11.53491,"gyro_y":-3.60425,"gyro_z":24.97046}
{"class":"IMU","msg":"UBX-ESF-MEAS","timeTag":1140057,"acc_x":1.36328,"acc_y":0.18945,"acc_z":9.00391}
{"class":"IMU","msg":"UBX-ESF-MEAS","timeTag":1140052,"gyro_temp":31.24,"gyro_x":3.86035,"gyro_y":-1.87158,"gyro_z":26.56201}
$GPZDA,153153.90,30,01,2024,00,00*69
$GPGGA,153153.90,4844.4575580,N,00918.7038660,E,2,14,1.05,265.91,M,46.091,M,,*6A
$GPRMC,153153.90,A,4844.4575580,N,0918.7038660,E,0.3829,194.830,300124,2.8,E*56
$GPGSA,A,3,18,25,26,28,29,,,,,,,,2.2,1.1,1.9*31
$GPGBS,153153.90,2.288,3.188,11.750,,,,*78
{"class":"TPV","status":2,"mode":3,"time":"2024-01-30T15:31:53.900Z","leapseconds":18,"ept":0.005,"lat":48.740959300,"lon":9.311731100,"altHAE":313.5210,"altMSL":265.9100,"alt":265.9100,"epx":2.288,"epy":3.188,"epv":11.750,"track":194.8296,"magtrack":225.5391,"magvar":2.8,"speed":0.197,"climb":1.067,"epd":4.8158,"eps":0.33,"epc":235.00,"ecefx":4158805.08,"ecefy":681904.87,"ecefz":4771845.63,"ecefvx":0.68,"ecefvy":0.14,"ecefvz":0.71,"ecefpAcc":12.82,"ecefvAcc":0.33,"geoidSep":46.091,"eph":5.129,"sep":10.335}
{"class":"ATT","time":"2024-01-30T15:31:53.800Z","heading":197.482,"pitch":10.675,"yaw":0.00,"roll":-0.078,"acc_x":0.69000,"acc_y":-0.20000,"acc_z":-9.56000,"gyro_x":8.78200,"gyro_y":8.66700,"gyro_z":-19.32300}
{"class":"IMU","msg":"UBX-ESF-MEAS","timeTag":1140052,"gyro_temp":31.24,"gyro_x":3.86035,"gyro_y":-1.87158,"gyro_z":26.56201}
{"class":"IMU","msg":"UBX-ESF-MEAS","timeTag":1140147,"acc_x":1.66406,"acc_y":0.36719,"acc_z":9.30273}
{"class":"IMU","msg":"UBX-ESF-MEAS","timeTag":1140142,"gyro_temp":31.22,"gyro_x":5.10547,"gyro_y":5.97266,"gyro_z":30.57568}
$GPZDA,153154.00,30,01,2024,00,00*67
$GPGGA,153154.00,4844.4575520,N,00918.7038780,E,2,14,1.05,266.01,M,46.091,M,,*6B
$GPRMC,153154.00,A,4844.4575520,N,0918.7038780,E,0.3479,191.890,300124,2.8,E*5B
$GPGSA,A,3,18,25,26,28,29,,,,,,,,2.2,1.1,1.9*31
$GPGBS,153154.00,2.288,3.188,11.750,,,,*76
{"class":"TPV","status":2,"mode":3,"time":"2024-01-30T15:31:54.000Z","leapseconds":18,"ept":0.005,"lat":48.740959200,"lon":9.311731300,"altHAE":313.6220,"altMSL":266.0110,"alt":266.0110,"epx":2.288,"epy":3.188,"epv":11.750,"track":191.8898,"magtrack":225.5391,"magvar":2.8,"speed":0.179,"climb":1.067,"epd":4.8158,"eps":0.33,"epc":235.00,"ecefx":4158805.08,"ecefy":681904.87,"ecefz":4771845.63,"ecefvx":0.68,"ecefvy":0.14,"ecefvz":0.71,"ecefpAcc":12.82,"ecefvAcc":0.33,"geoidSep":46.091,"eph":5.129,"sep":10.335}
{"class":"ATT","time":"2024-01-30T15:31:53.900Z","heading":194.830,"pitch":10.925,"yaw":0.00,"roll":0.277,"acc_x":1.00000,"acc_y":-0.19000,"acc_z":-9.22000,"gyro_x":8.51900,"gyro_y":2.45400,"gyro_z":-26.05400}
{"class":"IMU","msg":"UBX-ESF-MEAS","timeTag":1140219}
{"class":"IMU","msg":"UBX-ESF-MEAS","timeTag":1140237,"acc_x":1.91797,"acc_y":0.31055,"acc_z":9.37207}
{"class":"IMU","msg":"UBX-ESF-MEAS","timeTag":1140232,"gyro_temp":31.21,"gyro_x":0.79077,"gyro_y":4.80786,"gyro_z":34.82812}
$GPZDA,153154.10,30,01,2024,00,00*66
$GPGGA,153154.10,4844.4575460,N,00918.7038900,E,2,14,1.05,266.11,M,46.091,M,,*68
$GPRMC,153154.10,A,4844.4575460,N,0918.7038900,E,0.3538,188.532,300124,2.8,E*50
$GPGSA,A,3,18,25,26,28,29,,,,,,,,2.2,1.1,1.9*31
$GPGBS,153154.10,2.288,3.188,11.750,,,,*77
{"class":"TPV","status":2,"mode":3,"time":"2024-01-30T15:31:54.100Z","leapseconds":18,"ept":0.005,"lat":48.740959100,"lon":9.311731500,"altHAE":313.7230,"altMSL":266.1120,"alt":266.1120,"epx":2.288,"epy":3.188,"epv":11.750,"track":188.5318,"magtrack":225.5391,"magvar":2.8,"speed":0.182,"climb":1.067,"epd":4.8158,"eps":0.33,"epc":235.00,"ecefx":4158805.08,"ecefy":681904.87,"ecefz":4771845.63,"ecefvx":0.68,"ecefvy":0.14,"ecefvz":0.71,"ecefpAcc":12.82,"ecefvAcc":0.33,"geoidSep":46.091,"eph":5.129,"sep":10.335}
{"class":"ATT","time":"2024-01-30T15:31:54.000Z","heading":191.890,"pitch":10.703,"yaw":0.00,"roll":0.254,"acc_x":1.55000,"acc_y":-0.30000,"acc_z":-9.07000,"gyro_x":5.29400,"gyro_y":-2.35000,"gyro_z":-28.86600}
{"class":"IMU","msg":"UBX-ESF-MEAS","timeTag":1140316}
{"class":"IMU","msg":"UBX-ESF-MEAS","timeTag":1140327,"acc_x":2.03027,"acc_y":0.12988,"acc_z":9.68457}
{"class":"IMU","msg":"UBX-ESF-MEAS","timeTag":1140322,"gyro_temp":31.22,"gyro_x":9.10596,"gyro_y":1.62207,"gyro_z":35.06689}
$GPZDA,153154.20,30,01,2024,00,00*65
$GPGGA,153154.20,4844.4575340,N,00918.7038960,E,2,14,1.05,266.21,M,46.091,M,,*6B
$GPRMC,153154.20,A,4844.4575340,N,0918.7038960,E,0.4004,184.951,300124,2.8,E*58
$GPGSA,A,3,18,25,26,28,29,,,,,,,,2.2,1.1,1.9*31
$GPGBS,153154.20,2.288,3.188,11.750,,,,*74
{"class":"TPV","status":2,"mode":3,"time":"2024-01-30T15:31:54.200Z","leapseconds":18,"ept":0.005,"lat":48.740958900,"lon":9.311731600,"altHAE":313.8250,"altMSL":266.2140,"alt":266.2140,"epx":2.288,"epy":3.188,"epv":11.750,"track":184.9513,"magtrack":225.5391,"magvar":2.8,"speed":0.206,"climb":1.067,"epd":4.8158,"eps":0.33,"epc":235.00,"ecefx":4158805.08,"ecefy":681904.87,"ecefz":4771845.63,"ecefvx":0.68,"ecefvy":0.14,"ecefvz":0.71,"ecefpAcc":12.82,"ecefvAcc":0.33,"geoidSep":46.091,"eph":5.129,"sep":10.335}
{"class":"ATT","time":"2024-01-30T15:31:54.100Z","heading":188.532,"pitch":10.141,"yaw":0.00,"roll":0.022,"acc_x":1.82000,"acc_y":-0.35000,"acc_z":-9.25000,"gyro_x":3.75400,"gyro_y":-5.70000,"gyro_z":-33.01200}
{"class":"IMU","msg":"UBX-ESF-MEAS","timeTag":1140401}
{"class":"IMU","msg":"UBX-ESF-MEAS","timeTag":1140418,"acc_x":2.02930,"acc_y":0.13574,"acc_z":10.59766}
{"class":"IMU","msg":"UBX-ESF-MEAS","timeTag":1140413,"gyro_temp":31.21,"gyro_x":10.54077,"gyro_y":1.53809,"gyro_z":41.44385}
{"class":"IMU","msg":"UBX-ESF-MEAS","timeTag":1140508,"acc_x":1.27148,"acc_y":0.63672,"acc_z":11.63281}
{"class":"IMU","msg":"UBX-ESF-MEAS","timeTag":1140503,"gyro_temp":31.21,"gyro_x":14.79956,"gyro_y":16.86621,"gyro_z":43.66040}
$GPZDA,153154.30,30,01,2024,00,00*64
$GPGGA,153154.30,4844.4575280,N,00918.7039140,E,2,14,1.05,266.31,M,46.091,M,,*6D
$GPRMC,153154.30,A,4844.4575280,N,0918.7039140,E,0.4549,180.820,300124,2.8,E*50
$GPGSA,A,3,18,25,26,28,29,,,,,,,,2.2,1.1,1.9*31
$GPGBS,153154.30,2.288,3.188,11.750,,,,*75
{"class":"TPV","status":2,"mode":3,"time":"2024-01-30T15:31:54.300Z","leapseconds":18,"ept":0.005,"lat":48.740958800,"lon":9.311731900,"altHAE":313.9270,"altMSL":266.3150,"alt":266.3150,"epx":2.288,"epy":3.188,"epv":11.750,"track":180.8196,"magtrack":225.5391,"magvar":2.8,"speed":0.234,"climb":1.067,"epd":4.8158,"eps":0.33,"epc":235.00,"ecefx":4158805.08,"ecefy":681904.87,"ecefz":4771845.63,"ecefvx":0.68,"ecefvy":0.14,"ecefvz":0.71,"ecefpAcc":12.82,"ecefvAcc":0.33,"geoidSep":46.091,"eph":5.129,"sep":10.335}
{"class":"ATT","time":"2024-01-30T15:31:54.200Z","heading":184.951,"pitch":9.789,"yaw":0.00,"roll":-0.021,"acc_x":2.00000,"acc_y":-0.24000,"acc_z":-9.43000,"gyro_x":5.76100,"gyro_y":-3.51800,"gyro_z":-35.26500}
{"class":"IMU","msg":"UBX-ESF-MEAS","timeTag":1140503,"gyro_temp":31.21,"gyro_x":14.79956,"gyro_y":16.86621,"gyro_z":43.66040}
{"class":"IMU","msg":"UBX-ESF-MEAS","timeTag":1140598,"acc_x":1.09863,"acc_y":0.47949,"acc_z":8.93164}
{"class":"IMU","msg":"UBX-ESF-MEAS","timeTag":1140593,"gyro_temp":31.21,"gyro_x":7.98755,"gyro_y":-21.33154,"gyro_z":19.71680}
$GPZDA,153154.40,30,01,2024,00,00*63
$GPGGA,153154.40,4844.4575220,N,00918.7039260,E,2,14,1.05,266.42,M,46.091,M,,*65
$GPRMC,153154.40,A,4844.4575220,N,0918.7039260,E,0.4451,177.580,300124,2.8,E*5B
$GPGSA,A,3,18,25,26,28,29,,,,,,,,2.2,1.1,1.9*31
$GPGBS,153154.40,2.288,3.188,11.750,,,,*72
{"class":"TPV","status":2,"mode":3,"time":"2024-01-30T15:31:54.400Z","leapseconds":18,"ept":0.005,"lat":48.740958700,"lon":9.311732100,"altHAE":314.0270,"altMSL":266.4160,"alt":266.4160,"epx":2.288,"epy":3.188,"epv":11.750,"track":177.5802,"magtrack":225.5391,"magvar":2.8,"speed":0.229,"climb":1.067,"epd":4.8158,"eps":0.33,"epc":235.00,"ecefx":4158805.08,"ecefy":681904.87,"ecefz":4771845.63,"ecefvx":0.68,"ecefvy":0.14,"ecefvz":0.71,"ecefpAcc":12.82,"ecefvAcc":0.33,"geoidSep":46.091,"eph":5.129,"sep":10.335}
{"class":"ATT","time":"2024-01-30T15:31:54.300Z","heading":180.820,"pitch":9.238,"yaw":0.00,"roll":0.503,"acc_x":1.87000,"acc_y":-0.28000,"acc_z":-10.50000,"gyro_x":12.07200,"gyro_y":-5.68000,"gyro_z":-40.72600}
{"class":"IMU","msg":"UBX-ESF-MEAS","timeTag":1140593,"gyro_temp":31.21,"gyro_x":7.98755,"gyro_y":-21.33154,"gyro_z":19.71680}
{"class":"IMU","msg":"UBX-ESF-MEAS","timeTag":1140688,"acc_x":0.92773,"acc_y":1.23047,"acc_z":9.49902}
{"class":"IMU","msg":"UBX-ESF-MEAS","timeTag":1140683,"gyro_temp":31.23,"gyro_x":-0.88281,"gyro_y":0.35229,"gyro_z":40.65381}
$GPGSV,9,1,34,04,08,317,00,05,19,085,00,09,00,351,00,11,02,034,00*74
$GPGSV,9,2,34,12,04,116,00,16,14,297,00,18,43,176,35,20,16,047,09*7D
$GPGSV,9,3,34,25,35,121,22,26,43,298,32,28,46,221,27,29,69,055,38*75
$GPGSV,9,4,34,31,52,263,29,33,29,212,00,36,32,161,28,49,34,186,00*7D
$GPGSV,9,5,34,303,09,319,00,305,07,271,00,310,20,194,16,312,42,180,31*73
$GPGSV,9,6,34,324,58,300,36,325,06,299,00,326,20,041,00,331,67,117,28*72
$GPGSV,9,7,34,333,60,082,35,69,06,322,00,70,08,019,00,76,18,142,24*4D
$GPGSV,9,8,34,77,65,147,33,78,49,318,23,79,00,321,00,86,23,038,19*75
$GPGSV,9,9,34,87,78,046,41,88,42,215,40*7D
{"class":"SKY","time":"2024-01-30T15:31:54.000Z","gdop":2.67,"hdop":1.05,"pdop":2.18,"tdop":1.55,"xdop":0.62,"ydop":0.85,"vdop":1.91,"nSat":34,"uSat":14,"satellites":[{"PRN":4,"gnssid":0,"svid":4,"az":317.0,"el":8.0,"prRes":31.7,"qual":0,"ss":0.0,"used":false,"health":1},{"PRN":5,"gnssid":0,"svid":5,"az":85.0,"el":19.0,"prRes":8.5,"qual":0,"ss":0.0,"used":false,"health":1},{"PRN":9,"gnssid":0,"svid":9,"az":351.0,"el":0.0,"prRes":35.1,"qual":1,"ss":0.0,"used":false,"health":1},{"PRN":11,"gnssid":0,"svid":11,"az":34.0,"el":2.0,"prRes":3.4,"qual":0,"ss":0.0,"used":false,"health":1},{"PRN":12,"gnssid":0,"svid":12,"az":116.0,"el":4.0,"prRes":11.6,"qual":0,"ss":0.0,"used":false,"health":1},{"PRN":16,"gnssid":0,"svid":16,"az":297.0,"el":14.0,"prRes":29.7,"qual":1,"ss":0.0,"used":false,"health":1},{"PRN":18,"gnssid":0,"svid":18,"az":176.0,"el":43.0,"prRes":17.6,"qual":6,"ss":35.0,"used":true,"health":1},{"PRN":20,"gnssid":0,"svid":20,"az":47.0,"el":16.0,"prRes":4.7,"qual":3,"ss":9.0,"used":false,"health":1},{"PRN":25,"gnssid":0,"svid":25,"az":121.0,"el":35.0,"prRes":12.1,"qual":4,"ss":22.0,"used":true,"health":1},{"PRN":26,"gnssid":0,"svid":26,"az":298.0,"el":43.0,"prRes":29.8,"qual":5,"ss":32.0,"used":true,"health":1},{"PRN":28,"gnssid":0,"svid":28,"az":221.0,"el":46.0,"prRes":22.1,"qual":4,"ss":27.0,"used":true,"health":1},{"PRN":29,"gnssid":0,"svid":29,"az":55.0,"el":69.0,"prRes":5.5,"qual":6,"ss":38.0,"used":true,"health":1},{"PRN":31,"gnssid":0,"svid":31,"az":263.0,"el":52.0,"prRes":26.3,"qual":5,"ss":29.0,"used":true,"health":1},{"PRN":33,"gnssid":1,"svid":120,"az":212.0,"el":29.0,"prRes":21.2,"qual":1,"ss":0.0,"used":false},{"PRN":36,"gnssid":1,"svid":123,"az":161.0,"el":32.0,"prRes":16.1,"qual":3,"ss":28.0,"used":false,"health":1},{"PRN":49,"gnssid":1,"svid":136,"az":186.0,"el":34.0,"prRes":18.6,"qual":1,"ss":0.0,"used":false,"health":1},{"PRN":303,"gnssid":2,"svid":3,"az":319.0,"el":9.0,"prRes":31.9,"qual":0,"ss":0.0,"used":false,"health":1},{"PRN":305,"gnssid":2,"svid":5,"az":271.0,"el":7.0,"prRes":27.1,"qual":1,"ss":0.0,"used":false,"health":1},{"PRN":310,"gnssid":2,"svid":10,"az":194.0,"el":20.0,"prRes":19.4,"qual":4,"ss":16.0,"used":false,"health":1},{"PRN":312,"gnssid":2,"svid":12,"az":180.0,"el":42.0,"prRes":18.0,"qual":7,"ss":31.0,"used":false,"health":1},{"PRN":324,"gnssid":2,"svid":24,"az":300.0,"el":58.0,"prRes":30.0,"qual":5,"ss":36.0,"used":true,"health":1},{"PRN":325,"gnssid":2,"svid":25,"az":299.0,"el":6.0,"prRes":29.9,"qual":0,"ss":0.0,"used":false,"health":1},{"PRN":326,"gnssid":2,"svid":26,"az":41.0,"el":20.0,"prRes":4.1,"qual":1,"ss":0.0,"used":false,"health":1},{"PRN":331,"gnssid":2,"svid":31,"az":117.0,"el":67.0,"prRes":11.7,"qual":4,"ss":28.0,"used":true,"health":1},{"PRN":333,"gnssid":2,"svid":33,"az":82.0,"el":60.0,"prRes":8.2,"qual":5,"ss":35.0,"used":true,"health":1},{"PRN":69,"gnssid":6,"svid":5,"az":322.0,"el":6.0,"prRes":32.2,"qual":1,"ss":0.0,"used":false,"health":1},{"PRN":70,"gnssid":6,"svid":6,"az":19.0,"el":8.0,"prRes":1.9,"qual":1,"ss":0.0,"used":false,"health":1},{"PRN":76,"gnssid":6,"svid":12,"az":142.0,"el":18.0,"prRes":14.2,"qual":4,"ss":24.0,"used":true,"health":1},{"PRN":77,"gnssid":6,"svid":13,"az":147.0,"el":65.0,"prRes":14.7,"qual":6,"ss":33.0,"used":true,"health":1},{"PRN":78,"gnssid":6,"svid":14,"az":318.0,"el":49.0,"prRes":31.8,"qual":4,"ss":23.0,"used":true,"health":1},{"PRN":79,"gnssid":6,"svid":15,"az":321.0,"el":0.0,"prRes":32.1,"qual":0,"ss":0.0,"used":false,"health":1},{"PRN":86,"gnssid":6,"svid":22,"az":38.0,"el":23.0,"prRes":3.8,"qual":4,"ss":19.0,"used":false,"health":1},{"PRN":87,"gnssid":6,"svid":23,"az":46.0,"el":78.0,"prRes":4.6,"qual":6,"ss":41.0,"used":true,"health":1},{"PRN":88,"gnssid":6,"svid":24,"az":215.0,"el":42.0,"prRes":21.5,"qual":5,"ss":40.0,"used":true,"health":1}]}
{"class":"SKY","time":"2024-01-30T15:31:54.000Z","gdop":2.67,"hdop":1.05,"pdop":2.18,"tdop":1.55,"xdop":0.61,"ydop":0.85,"vdop":1.91}
$GPZDA,153154.00,30,01,2024,00,00*67
$GPGGA,153154.00,4844.4579720,N,00918.7037100,E,2,14,1.05,265.35,M,46.091,M,,*60
$GPRMC,153154.00,A,4844.4579720,N,0918.7037100,E,0.4607,191.926,300124,2.8,E*54
$GPGSA,A,3,18,25,26,28,29,,,,,,,,2.2,1.1,1.9*31
$GPGBS,153154.00,2.288,3.188,11.834,,,,*7B
{"class":"TPV","status":2,"mode":3,"time":"2024-01-30T15:31:54.000Z","leapseconds":18,"ept":0.005,"lat":48.740966200,"lon":9.311728500,"altHAE":312.9560,"altMSL":265.3450,"alt":265.3450,"epx":2.288,"epy":3.188,"epv":11.834,"track":191.9264,"magtrack":194.7204,"magvar":2.8,"speed":0.237,"eps":0.32,"ecefx":4158805.05,"ecefy":681904.62,"ecefz":4771846.21,"ecefvx":0.46,"ecefvy":0.30,"ecefvz":0.70,"ecefpAcc":12.90,"ecefvAcc":0.32,"geoidSep":46.091,"eph":5.126,"sep":10.335}
{"class":"ATT","time":"2024-01-30T15:31:54.000Z","pitch":0.000,"yaw":0.00,"roll":0.000,"acc_x":0.34000,"acc_y":-0.08000,"acc_z":0.25000,"gyro_x":5.76100,"gyro_y":-3.51800,"gyro_z":-35.26700}
{"class":"SKY","time":"2024-01-30T15:31:54.000Z","gdop":2.67,"hdop":1.05,"pdop":2.18,"tdop":1.55,"xdop":0.61,"ydop":0.85,"vdop":1.91}
{"class":"IMU","msg":"UBX-ESF-MEAS","timeTag":1140683,"gyro_temp":31.23,"gyro_x":-0.88281,"gyro_y":0.35229,"gyro_z":40.65381}
$GPZDA,153154.50,30,01,2024,00,00*62
$GPGGA,153154.50,4844.4581100,N,00918.7038000,E,2,14,1.05,265.73,M,46.091,M,,*6A
$GPRMC,153154.50,A,4844.4581100,N,0918.7038000,E,1.0788,173.719,300124,2.8,E*51
$GPGSA,A,3,18,25,26,28,29,,,,,,,,2.2,1.1,1.9*31
$GPGBS,153154.50,2.288,3.188,11.834,,,,*7E
{"class":"TPV","status":2,"mode":3,"time":"2024-01-30T15:31:54.500Z","leapseconds":18,"ept":0.005,"lat":48.740968500,"lon":9.311730000,"altHAE":313.3430,"altMSL":265.7320,"alt":265.7320,"epx":2.288,"epy":3.188,"epv":11.834,"track":173.7188,"magtrack":194.7204,"magvar":2.8,"speed":0.555,"climb":0.773,"epd":4.7215,"eps":0.32,"epc":47.30,"ecefx":4158805.05,"ecefy":681904.62,"ecefz":4771846.21,"ecefvx":0.46,"ecefvy":0.30,"ecefvz":0.70,"ecefpAcc":12.90,"ecefvAcc":0.32,"geoidSep":46.091,"eph":5.126,"sep":10.335}
{"class":"IMU","msg":"UBX-ESF-MEAS","timeTag":1140778,"acc_x":1.91895,"acc_y":1.03906,"acc_z":8.82910}
{"class":"IMU","msg":"UBX-ESF-MEAS","timeTag":1140773,"gyro_temp":31.21,"gyro_x":-0.17505,"gyro_y":-7.69116,"gyro_z":23.92139}
$GPZDA,153154.60,30,01,2024,00,00*61
$GPGGA,153154.60,4844.4581400,N,00918.7038180,E,2,14,1.05,265.81,M,46.091,M,,*68
$GPRMC,153154.60,A,4844.4581400,N,0918.7038180,E,1.1235,170.422,300124,2.8,E*54
$GPGSA,A,3,18,25,26,28,29,,,,,,,,2.2,1.1,1.9*31
$GPGBS,153154.60,2.288,3.188,11.834,,,,*7D
{"class":"TPV","status":2,"mode":3,"time":"2024-01-30T15:31:54.600Z","leapseconds":18,"ept":0.005,"lat":48.740969000,"lon":9.311730300,"altHAE":313.4200,"altMSL":265.8090,"alt":265.8090,"epx":2.288,"epy":3.188,"epv":11.834,"track":170.4223,"magtrack":194.7204,"magvar":2.8,"speed":0.578,"climb":0.773,"epd":4.7215,"eps":0.32,"epc":236.68,"ecefx":4158805.05,"ecefy":681904.62,"ecefz":4771846.21,"ecefvx":0.46,"ecefvy":0.30,"ecefvz":0.70,"ecefpAcc":12.90,"ecefvAcc":0.32,"geoidSep":46.091,"eph":5.126,"sep":10.335}
{"class":"ATT","time":"2024-01-30T15:31:54.500Z","heading":173.719,"pitch":9.992,"yaw":0.00,"roll":2.517,"acc_x":0.98000,"acc_y":-1.22000,"acc_z":-9.40000,"gyro_x":-0.08900,"gyro_y":-0.64600,"gyro_z":-40.99100}
{"class":"IMU","msg":"UBX-ESF-MEAS","timeTag":1140773,"gyro_temp":31.21,"gyro_x":-0.17505,"gyro_y":-7.69116,"gyro_z":23.92139}
{"class":"IMU","msg":"UBX-ESF-MEAS","timeTag":1140868,"acc_x":2.29590,"acc_y":0.91113,"acc_z":8.90918}
{"class":"IMU","msg":"UBX-ESF-MEAS","timeTag":1140863,"gyro_temp":31.20,"gyro_x":-1.73608,"gyro_y":-3.14478,"gyro_z":25.44116}
$GPZDA,153154.70,30,01,2024,00,00*60
$GPGGA,153154.70,4844.4581700,N,00918.7038300,E,2,14,1.05,265.89,M,46.091,M,,*68
$GPRMC,153154.70,A,4844.4581700,N,0918.7038300,E,1.0691,167.898,300124,2.8,E*5C
$GPGSA,A,3,18,25,26,28,29,,,,,,,,2.2,1.1,1.9*31
$GPGBS,153154.70,2.288,3.188,11.834,,,,*7C
{"class":"TPV","status":2,"mode":3,"time":"2024-01-30T15:31:54.700Z","leapseconds":18,"ept":0.005,"lat":48.740969500,"lon":9.311730500,"altHAE":313.4980,"altMSL":265.8870,"alt":265.8870,"epx":2.288,"epy":3.188,"epv":11.834,"track":167.8978,"magtrack":194.7204,"magvar":2.8,"speed":0.550,"climb":0.773,"epd":4.7215,"eps":0.32,"epc":236.68,"ecefx":4158805.05,"ecefy":681904.62,"ecefz":4771846.21,"ecefvx":0.46,"ecefvy":0.30,"ecefvz":0.70,"ecefpAcc":12.90,"ecefvAcc":0.32,"geoidSep":46.091,"eph":5.126,"sep":10.335}
{"class":"ATT","time":"2024-01-30T15:31:54.600Z","heading":170.422,"pitch":10.458,"yaw":0.00,"roll":1.958,"acc_x":1.46000,"acc_y":-1.12000,"acc_z":-9.08000,"gyro_x":0.26600,"gyro_y":3.38900,"gyro_z":-32.59800}
{"class":"IMU","msg":"UBX-ESF-MEAS","timeTag":1140863,"gyro_temp":31.20,"gyro_x":-1.73608,"gyro_y":-3.14478,"gyro_z":25.44116}
{"class":"IMU","msg":"UBX-ESF-MEAS","timeTag":1140958,"acc_x":2.44727,"acc_y":1.03320,"acc_z":9.23828}
{"class":"IMU","msg":"UBX-ESF-MEAS","timeTag":1140953,"gyro_temp":31.22,"gyro_x":-1.86548,"gyro_y":-3.60400,"gyro_z":19.80615}
$GPZDA,153154.80,30,01,2024,00,00*6F
$GPGGA,153154.80,4844.4581940,N,00918.7038420,E,2,14,1.05,265.97,M,46.091,M,,*67
$GPRMC,153154.80,A,4844.4581940,N,0918.7038420,E,0.9875,165.570,300124,2.8,E*59
$GPGSA,A,3,18,25,26,28,29,,,,,,,,2.2,1.1,1.9*31
$GPGBS,153154.80,2.288,3.188,11.834,,,,*73
{"class":"TPV","status":2,"mode":3,"time":"2024-01-30T15:31:54.800Z","leapseconds":18,"ept":0.005,"lat":48.740969900,"lon":9.311730700,"altHAE":313.5770,"altMSL":265.9660,"alt":265.9660,"epx":2.288,"epy":3.188,"epv":11.834,"track":165.5699,"magtrack":194.7204,"magvar":2.8,"speed":0.508,"climb":0.773,"epd":4.7215,"eps":0.32,"epc":236.68,"ecefx":4158805.05,"ecefy":681904.62,"ecefz":4771846.21,"ecefvx":0.46,"ecefvy":0.30,"ecefvz":0.70,"ecefpAcc":12.90,"ecefvAcc":0.32,"geoidSep":46.091,"eph":5.126,"sep":10.335}
{"class":"ATT","time":"2024-01-30T15:31:54.700Z","heading":167.898,"pitch":11.047,"yaw":0.00,"roll":1.471,"acc_x":2.13000,"acc_y":-0.97000,"acc_z":-8.79000,"gyro_x":-0.16200,"gyro_y":5.14300,"gyro_z":-24.96700}
{"class":"IMU","msg":"UBX-ESF-MEAS","timeTag":1141018}
{"class":"IMU","msg":"UBX-ESF-MEAS","timeTag":1141048,"acc_x":2.50098,"acc_y":0.71289,"acc_z":9.89160}
{"class":"IMU","msg":"UBX-ESF-MEAS","timeTag":1141043,"gyro_temp":31.21,"gyro_x":-3.42480,"gyro_y":-6.11353,"gyro_z":12.41943}
$GPZDA,153154.90,30,01,2024,00,00*6E
$GPGGA,153154.90,4844.4582180,N,00918.7038540,E,2,14,1.05,266.05,M,46.091,M,,*6E
$GPRMC,153154.90,A,4844.4582180,N,0918.7038540,E,0.9000,163.904,300124,2.8,E*5B
$GPGSA,A,3,18,25,26,28,29,,,,,,,,2.2,1.1,1.9*31
$GPGBS,153154.90,2.288,3.188,11.834,,,,*72
{"class":"TPV","status":2,"mode":3,"time":"2024-01-30T15:31:54.900Z","leapseconds":18,"ept":0.005,"lat":48.740970300,"lon":9.311730900,"altHAE":313.6580,"altMSL":266.0470,"alt":266.0470,"epx":2.288,"epy":3.188,"epv":11.834,"track":163.9039,"magtrack":194.7204,"magvar":2.8,"speed":0.463,"climb":0.773,"epd":4.7215,"eps":0.32,"epc":236.68,"ecefx":4158805.05,"ecefy":681904.62,"ecefz":4771846.21,"ecefvx":0.46,"ecefvy":0.30,"ecefvz":0.70,"ecefpAcc":12.90,"ecefvAcc":0.32,"geoidSep":46.091,"eph":5.126,"sep":10.335}
{"class":"ATT","time":"2024-01-30T15:31:54.800Z","heading":165.570,"pitch":11.404,"yaw":0.00,"roll":0.917,"acc_x":2.39000,"acc_y":-0.97000,"acc_z":-8.99000,"gyro_x":-1.01000,"gyro_y":3.09300,"gyro_z":-22.90300}
{"class":"IMU","msg":"UBX-ESF-MEAS","timeTag":1141107}
{"class":"IMU","msg":"UBX-ESF-MEAS","timeTag":1141138,"acc_x":3.01367,"acc_y":0.08691,"acc_z":10.47070}
{"class":"IMU","msg":"UBX-ESF-MEAS","timeTag":1141133,"gyro_temp":31.21,"gyro_x":-9.06860,"gyro_y":-5.40063,"gyro_z":-5.25952}
$GPZDA,153155.00,30,01,2024,00,00*66
$GPGGA,153155.00,4844.4582360,N,00918.7038660,E,2,14,1.05,266.13,M,46.091,M,,*6C
$GPRMC,153155.00,A,4844.4582360,N,0918.7038660,E,0.7814,163.516,300124,2.8,E*52
$GPGSA,A,3,18,25,26,28,29,,,,,,,,2.2,1.1,1.9*31
$GPGBS,153155.00,2.288,3.188,11.834,,,,*7A
{"class":"TPV","status":2,"mode":3,"time":"2024-01-30T15:31:55.000Z","leapseconds":18,"ept":0.005,"lat":48.740970600,"lon":9.311731100,"altHAE":313.7410,"altMSL":266.1290,"alt":266.1290,"epx":2.288,"epy":3.188,"epv":11.834,"track":163.5162,"magtrack":194.7204,"magvar":2.8,"speed":0.402,"climb":0.773,"epd":4.7215,"eps":0.32,"epc":236.68,"ecefx":4158805.05,"ecefy":681904.62,"ecefz":4771846.21,"ecefvx":0.46,"ecefvy":0.30,"ecefvz":0.70,"ecefpAcc":12.90,"ecefvAcc":0.32,"geoidSep":46.091,"eph":5.126,"sep":10.335}
{"class":"ATT","time":"2024-01-30T15:31:54.900Z","heading":163.904,"pitch":11.881,"yaw":0.00,"roll":0.395,"acc_x":2.48000,"acc_y":-0.87000,"acc_z":-9.47000,"gyro_x":-1.85700,"gyro_y":4.58200,"gyro_z":-16.37100}
{"class":"IMU","msg":"UBX-ESF-MEAS","timeTag":1141214}
{"class":"IMU","msg":"UBX-ESF-MEAS","timeTag":1141228,"acc_x":1.06641,"acc_y":0.22656,"acc_z":11.64355}
{"class":"IMU","msg":"UBX-ESF-MEAS","timeTag":1141223,"gyro_temp":31.21,"gyro_x":10.35889,"gyro_y":9.34302,"gyro_z":-7.14795}
{"class":"IMU","msg":"UBX-ESF-MEAS","timeTag":1141319,"acc_x":1.29785,"acc_y":-0.17871,"acc_z":9.58301}
{"class":"IMU","msg":"UBX-ESF-MEAS","timeTag":1141314,"gyro_temp":31.21,"gyro_x":5.97778,"gyro_y":-6.63599,"gyro_z":-4.56055}
$GPZDA,153155.10,30,01,2024,00,00*67
$GPGGA,153155.10,4844.4582600,N,00918.7038780,E,2,14,1.05,266.21,M,46.091,M,,*60
$GPRMC,153155.10,A,4844.4582600,N,0918.7038780,E,0.8572,164.114,300124,2.8,E*5C
$GPGSA,A,3,18,25,26,28,29,,,,,,,,2.2,1.1,1.9*31
$GPGBS,153155.10,2.288,3.188,11.834,,,,*7B
{"class":"TPV","status":2,"mode":3,"time":"2024-01-30T15:31:55.100Z","leapseconds":18,"ept":0.005,"lat":48.740971000,"lon":9.311731300,"altHAE":313.8220,"altMSL":266.2110,"alt":266.2110,"epx":2.288,"epy":3.188,"epv":11.834,"track":164.1138,"magtrack":194.7204,"magvar":2.8,"speed":0.441,"climb":0.773,"epd":4.7215,"eps":0.32,"epc":236.68,"ecefx":4158805.05,"ecefy":681904.62,"ecefz":4771846.21,"ecefvx":0.46,"ecefvy":0.30,"ecefvz":0.70,"ecefpAcc":12.90,"ecefvAcc":0.32,"geoidSep":46.091,"eph":5.126,"sep":10.335}
{"class":"ATT","time":"2024-01-30T15:31:55.000Z","heading":163.516,"pitch":12.429,"yaw":0.00,"roll":-0.234,"acc_x":2.76000,"acc_y":-0.41000,"acc_z":-10.07000,"gyro_x":-5.47000,"gyro_y":5.48300,"gyro_z":-3.79800}
{"class":"IMU","msg":"UBX-ESF-MEAS","timeTag":1141314,"gyro_temp":31.21,"gyro_x":5.97778,"gyro_y":-6.63599,"gyro_z":-4.56055}
$GPZDA,153155.20,30,01,2024,00,00*64
$GPGGA,153155.20,4844.4582840,N,00918.7038900,E,2,14,1.05,266.29,M,46.091,M,,*67
$GPRMC,153155.20,A,4844.4582840,N,0918.7038900,E,0.9778,164.571,300124,2.8,E*5D
$GPGSA,A,3,18,25,26,28,29,,,,,,,,2.2,1.1,1.9*31
$GPGBS,153155.20,2.288,3.188,11.834,,,,*78
{"class":"TPV","status":2,"mode":3,"time":"2024-01-30T15:31:55.200Z","leapseconds":18,"ept":0.005,"lat":48.740971400,"lon":9.311731500,"altHAE":313.9020,"altMSL":266.2910,"alt":266.2910,"epx":2.288,"epy":3.188,"epv":11.834,"track":164.5705,"magtrack":194.7204,"magvar":2.8,"speed":0.503,"climb":0.773,"epd":4.7215,"eps":0.32,"epc":236.68,"ecefx":4158805.05,"ecefy":681904.62,"ecefz":4771846.21,"ecefvx":0.46,"ecefvy":0.30,"ecefvz":0.70,"ecefpAcc":12.90,"ecefvAcc":0.32,"geoidSep":46.091,"eph":5.126,"sep":10.335}
{"class":"ATT","time":"2024-01-30T15:31:55.100Z","heading":164.114,"pitch":12.233,"yaw":0.00,"roll":0.418,"acc_x":1.64000,"acc_y":-0.11000,"acc_z":-10.70000,"gyro_x":5.23900,"gyro_y":-1.95900,"gyro_z":5.84100}
{"class":"IMU","msg":"UBX-ESF-MEAS","timeTag":1141409,"acc_x":1.30469,"acc_y":-0.01660,"acc_z":9.14355}
{"class":"IMU","msg":"UBX-ESF-MEAS","timeTag":1141404,"gyro_temp":31.22,"gyro_x":4.74487,"gyro_y":-3.41431,"gyro_z":3.73169}
{"class":"IMU","msg":"UBX-ESF-MEAS","timeTag":1141499,"acc_x":1.92480,"acc_y":0.04980,"acc_z":8.90820}
{"class":"IMU","msg":"UBX-ESF-MEAS","timeTag":1141494,"gyro_temp":31.22,"gyro_x":1.32446,"gyro_y":1.97388,"gyro_z":8.71216}
$GPZDA,153155.30,30,01,2024,00,00*65
$GPGGA,153155.30,4844.4583140,N,00918.7039020,E,2,14,1.05,266.37,M,46.091,M,,*6B
$GPRMC,153155.30,A,4844.4583140,N,0918.7039020,E,1.0944,164.257,300124,2.8,E*54
$GPGSA,A,3,18,25,26,28,29,,,,,,,,2.2,1.1,1.9*31
$GPGBS,153155.30,2.288,3.188,11.834,,,,*79
{"class":"TPV","status":2,"mode":3,"time":"2024-01-30T15:31:55.300Z","leapseconds":18,"ept":0.005,"lat":48.740971900,"lon":9.311731700,"altHAE":313.9800,"altMSL":266.3690,"alt":266.3690,"epx":2.288,"epy":3.188,"epv":11.834,"track":164.2570,"magtrack":194.7204,"magvar":2.8,"speed":0.563,"climb":0.773,"epd":4.7215,"eps":0.32,"epc":236.68,"ecefx":4158805.05,"ecefy":681904.62,"ecefz":4771846.21,"ecefvx":0.46,"ecefvy":0.30,"ecefvz":0.70,"ecefpAcc":12.90,"ecefvAcc":0.32,"geoidSep":46.091,"eph":5.126,"sep":10.335}
{"class":"ATT","time":"2024-01-30T15:31:55.200Z","heading":164.571,"pitch":12.863,"yaw":0.00,"roll":1.197,"acc_x":1.34000,"acc_y":0.15000,"acc_z":-9.49000,"gyro_x":6.79400,"gyro_y":6.36500,"gyro_z":4.36900}
