$GPGSV,12,1,48,02,07,091,00,05,16,278,00,07,60,087,42,08,31,053,37*45
$GPGSV,12,2,48,09,17,161,27,13,32,312,36,14,57,242,40,15,05,324,00*4D
$GPGSV,12,3,48,17,14,180,30,21,16,246,19,22,40,236,26,27,06,034,00*43
$GPGSV,12,4,48,30,78,343,30,44,39,174,34,46,39,191,30,51,37,160,00*43
$GPGSV,12,5,48,302,26,233,25,303,70,269,44,305,43,161,32,308,24,315,32*44
$GPGSV,12,6,48,312,00,079,00,316,72,052,38,324,44,053,38,325,82,234,29*4B
$GPGSV,12,7,48,333,02,031,00,404,01,264,00,408,16,335,00,413,09,343,00*46
$GPGSV,12,8,48,414,28,203,28,424,74,032,42,425,38,274,00,426,28,075,35*4F
$GPGSV,12,9,48,433,41,231,33,434,06,163,00,435,23,063,37,438,18,319,29*4B
$GPGSV,12,10,48,441,35,298,39,442,10,183,28,444,27,114,00,65,57,264,47*4D
$GPGSV,12,11,48,66,28,326,28,72,29,190,35,74,34,052,28,75,65,330,11*79
$GPGSV,12,12,48,76,22,265,24,83,11,023,21,84,22,077,28,85,10,124,00*77
{"class":"SKY","time":"2019-04-07T02:40:13.000Z","gdop":1.10,"hdop":0.49,"pdop":0.96,"tdop":0.54,"xdop":0.34,"ydop":0.34,"vdop":0.83,"nSat":48,"uSat":30,"satellites":[{"PRN":2,"gnssid":0,"svid":2,"az":91.0,"el":7.0,"prRes":0.0,"qual":0,"ss":0.0,"used":false,"health":1},{"PRN":5,"gnssid":0,"svid":5,"az":278.0,"el":16.0,"prRes":0.0,"qual":1,"ss":0.0,"used":false,"health":1},{"PRN":7,"gnssid":0,"svid":7,"az":87.0,"el":60.0,"prRes":1.3,"qual":7,"ss":42.0,"used":true,"health":1},{"PRN":8,"gnssid":0,"svid":8,"az":53.0,"el":31.0,"prRes":1.6,"qual":7,"ss":37.0,"used":true,"health":1},{"PRN":9,"gnssid":0,"svid":9,"az":161.0,"el":17.0,"prRes":-5.2,"qual":7,"ss":27.0,"used":true,"health":1},{"PRN":13,"gnssid":0,"svid":13,"az":312.0,"el":32.0,"prRes":1.4,"qual":7,"ss":36.0,"used":true,"health":1},{"PRN":14,"gnssid":0,"svid":14,"az":242.0,"el":57.0,"prRes":-1.3,"qual":7,"ss":40.0,"used":true,"health":1},{"PRN":15,"gnssid":0,"svid":15,"az":324.0,"el":5.0,"prRes":0.0,"qual":0,"ss":0.0,"used":false,"health":1},{"PRN":17,"gnssid":0,"svid":17,"az":180.0,"el":14.0,"prRes":-4.7,"qual":7,"ss":30.0,"used":true,"health":1},{"PRN":21,"gnssid":0,"svid":21,"az":246.0,"el":16.0,"prRes":0.0,"qual":3,"ss":19.0,"used":false,"health":1},{"PRN":22,"gnssid":0,"svid":22,"az":236.0,"el":40.0,"prRes":-12.5,"qual":7,"ss":26.0,"used":true,"health":1},{"PRN":27,"gnssid":0,"svid":27,"az":34.0,"el":6.0,"prRes":0.0,"qual":1,"ss":0.0,"used":false,"health":1},{"PRN":30,"gnssid":0,"svid":30,"az":343.0,"el":78.0,"prRes":4.1,"qual":7,"ss":30.0,"used":true,"health":1},{"PRN":44,"gnssid":1,"svid":131,"az":174.0,"el":39.0,"prRes":3.8,"qual":7,"ss":34.0,"used":true,"health":1},{"PRN":46,"gnssid":1,"svid":133,"az":191.0,"el":39.0,"prRes":-7.5,"qual":6,"ss":30.0,"used":true,"health":1},{"PRN":51,"gnssid":1,"svid":138,"az":160.0,"el":37.0,"prRes":0.0,"qual":1,"ss":0.0,"used":false},{"PRN":302,"gnssid":2,"svid":2,"az":233.0,"el":26.0,"prRes":-10.0,"qual":4,"ss":25.0,"used":true,"health":1},{"PRN":303,"gnssid":2,"svid":3,"az":269.0,"el":70.0,"prRes":-0.2,"qual":7,"ss":44.0,"used":true,"health":1},{"PRN":305,"gnssid":2,"svid":5,"az":161.0,"el":43.0,"prRes":-2.0,"qual":7,"ss":32.0,"used":true,"health":1},{"PRN":308,"gnssid":2,"svid":8,"az":315.0,"el":24.0,"prRes":1.0,"qual":7,"ss":32.0,"used":true,"health":1},{"PRN":312,"gnssid":2,"svid":12,"az":79.0,"el":0.0,"prRes":0.0,"qual":1,"ss":0.0,"used":false,"health":1},{"PRN":316,"gnssid":2,"svid":16,"az":52.0,"el":72.0,"prRes":2.9,"qual":7,"ss":38.0,"used":true,"health":1},{"PRN":324,"gnssid":2,"svid":24,"az":53.0,"el":44.0,"prRes":-2.1,"qual":7,"ss":38.0,"used":true,"health":1},{"PRN":325,"gnssid":2,"svid":25,"az":234.0,"el":82.0,"prRes":4.4,"qual":7,"ss":29.0,"used":true,"health":1},{"PRN":333,"gnssid":2,"svid":33,"az":31.0,"el":2.0,"prRes":0.0,"qual":0,"ss":0.0,"used":false,"health":1},{"PRN":404,"gnssid":3,"svid":4,"az":264.0,"el":1.0,"prRes":0.0,"qual":0,"ss":0.0,"used":false,"health":1},{"PRN":408,"gnssid":3,"svid":8,"az":335.0,"el":16.0,"prRes":0.0,"qual":0,"ss":0.0,"used":false,"health":1},{"PRN":413,"gnssid":3,"svid":13,"az":343.0,"el":9.0,"prRes":0.0,"qual":0,"ss":0.0,"used":false,"health":1},{"PRN":414,"gnssid":3,"svid":14,"az":203.0,"el":28.0,"prRes":-4.9,"qual":7,"ss":28.0,"used":true,"health":1},{"PRN":424,"gnssid":3,"svid":24,"az":32.0,"el":74.0,"prRes":-2.6,"qual":7,"ss":42.0,"used":true,"health":1},{"PRN":425,"gnssid":3,"svid":25,"az":274.0,"el":38.0,"prRes":0.0,"qual":0,"ss":0.0,"used":false,"health":1},{"PRN":426,"gnssid":3,"svid":26,"az":75.0,"el":28.0,"prRes":-4.1,"qual":7,"ss":35.0,"used":true,"health":1},{"PRN":433,"gnssid":3,"svid":33,"az":231.0,"el":41.0,"prRes":2.1,"qual":7,"ss":33.0,"used":true,"health":1},{"PRN":434,"gnssid":3,"svid":34,"az":163.0,"el":6.0,"prRes":0.0,"qual":0,"ss":0.0,"used":false,"health":1},{"PRN":435,"gnssid":3,"svid":35,"az":63.0,"el":23.0,"prRes":-1.2,"qual":7,"ss":37.0,"used":true,"health":1},{"PRN":438,"gnssid":3,"svid":38,"az":319.0,"el":18.0,"prRes":-0.3,"qual":7,"ss":29.0,"used":true,"health":1},{"PRN":441,"gnssid":3,"svid":41,"az":298.0,"el":35.0,"prRes":1.0,"qual":7,"ss":39.0,"used":true,"health":1},{"PRN":442,"gnssid":3,"svid":42,"az":183.0,"el":10.0,"prRes":-14.4,"qual":7,"ss":28.0,"used":false,"health":1},{"PRN":444,"gnssid":3,"svid":44,"az":114.0,"el":27.0,"prRes":0.0,"qual":0,"ss":0.0,"used":false,"health":1},{"PRN":65,"gnssid":6,"svid":1,"az":264.0,"el":57.0,"prRes":2.6,"qual":7,"ss":47.0,"used":true,"health":1},{"PRN":66,"gnssid":6,"svid":2,"az":326.0,"el":28.0,"prRes":-10.9,"qual":7,"ss":28.0,"used":true,"health":1},{"PRN":72,"gnssid":6,"svid":8,"az":190.0,"el":29.0,"prRes":-8.7,"qual":7,"ss":35.0,"used":true,"health":1},{"PRN":74,"gnssid":6,"svid":10,"az":52.0,"el":34.0,"prRes":4.7,"qual":7,"ss":28.0,"used":true,"health":1},{"PRN":75,"gnssid":6,"svid":11,"az":330.0,"el":65.0,"prRes":0.0,"qual":4,"ss":11.0,"used":false,"health":1},{"PRN":76,"gnssid":6,"svid":12,"az":265.0,"el":22.0,"prRes":9.3,"qual":4,"ss":24.0,"used":true,"health":1},{"PRN":83,"gnssid":6,"svid":19,"az":23.0,"el":11.0,"prRes":0.0,"qual":4,"ss":21.0,"used":false,"health":1},{"PRN":84,"gnssid":6,"svid":20,"az":77.0,"el":22.0,"prRes":-5.9,"qual":7,"ss":28.0,"used":true,"health":1},{"PRN":85,"gnssid":6,"svid":21,"az":124.0,"el":10.0,"prRes":0.0,"qual":0,"ss":0.0,"used":false,"health":1}]}
$GPGSV,10,1,38,05,16,278,00,07,60,087,42,08,31,053,37,09,17,161,27*41
$GPGSV,10,2,38,13,32,312,36,14,57,242,40,17,14,180,30,21,16,246,19*45
$GPGSV,10,3,38,22,40,236,26,27,06,034,00,30,78,343,30,44,39,174,34*47
$GPGSV,10,4,38,46,39,191,30,51,37,160,00,302,26,233,25,303,70,269,44*48
$GPGSV,10,5,38,305,43,161,32,308,24,315,32,312,00,079,00,316,72,052,38*48
$GPGSV,10,6,38,324,44,053,38,325,82,234,29,414,28,203,28,424,74,032,42*4B
$GPGSV,10,7,38,426,28,075,35,433,41,231,33,435,23,063,37,438,18,319,29*4F
$GPGSV,10,8,38,441,35,298,39,442,10,183,28,65,57,264,47,66,28,326,28*43
$GPGSV,10,9,38,72,29,190,35,74,34,052,28,75,65,330,11,76,22,265,24*44
$GPGSV,10,10,38,83,11,023,21,84,22,077,28*7D
{"class":"SKY","time":"2019-04-07T02:40:13.000Z","gdop":1.10,"hdop":0.49,"pdop":0.96,"tdop":0.54,"xdop":0.34,"ydop":0.34,"vdop":0.83,"nSat":38,"uSat":33,"satellites":[{"PRN":5,"gnssid":0,"svid":5,"az":278.0,"el":16.0,"prRes":0.0,"qual":1,"ss":0.0,"used":false,"health":1},{"PRN":7,"gnssid":0,"svid":7,"az":87.0,"el":60.0,"prRes":1.3,"qual":7,"ss":42.0,"used":true,"health":1},{"PRN":8,"gnssid":0,"svid":8,"az":53.0,"el":31.0,"prRes":1.6,"qual":7,"ss":37.0,"used":true,"health":1},{"PRN":9,"gnssid":0,"svid":9,"az":161.0,"el":17.0,"prRes":-5.2,"qual":7,"ss":27.0,"used":true,"health":1},{"PRN":13,"gnssid":0,"svid":13,"az":312.0,"el":32.0,"prRes":1.4,"qual":7,"ss":36.0,"used":true,"health":1},{"PRN":14,"gnssid":0,"svid":14,"az":242.0,"el":57.0,"prRes":-1.3,"qual":7,"ss":40.0,"used":true,"health":1},{"PRN":17,"gnssid":0,"svid":17,"az":180.0,"el":14.0,"prRes":-4.7,"qual":7,"ss":30.0,"used":true,"health":1},{"PRN":21,"gnssid":0,"svid":21,"az":246.0,"el":16.0,"prRes":0.0,"qual":3,"ss":19.0,"used":false,"health":1},{"PRN":22,"gnssid":0,"svid":22,"az":236.0,"el":40.0,"prRes":-12.5,"qual":7,"ss":26.0,"used":true,"health":1},{"PRN":27,"gnssid":0,"svid":27,"az":34.0,"el":6.0,"prRes":0.0,"qual":1,"ss":0.0,"used":false,"health":1},{"PRN":30,"gnssid":0,"svid":30,"az":343.0,"el":78.0,"prRes":4.1,"qual":7,"ss":30.0,"used":true,"health":1},{"PRN":44,"gnssid":1,"svid":131,"az":174.0,"el":39.0,"prRes":3.8,"qual":7,"ss":34.0,"used":true,"health":1},{"PRN":46,"gnssid":1,"svid":133,"az":191.0,"el":39.0,"prRes":-7.5,"qual":6,"ss":30.0,"used":true,"health":1},{"PRN":51,"gnssid":1,"svid":138,"az":160.0,"el":37.0,"prRes":0.0,"qual":1,"ss":0.0,"used":false},{"PRN":302,"gnssid":2,"svid":2,"az":233.0,"el":26.0,"prRes":-10.0,"qual":4,"ss":25.0,"used":true,"health":1},{"PRN":303,"gnssid":2,"svid":3,"az":269.0,"el":70.0,"prRes":-0.2,"qual":7,"ss":44.0,"used":true,"health":1},{"PRN":305,"gnssid":2,"svid":5,"az":161.0,"el":43.0,"prRes":-2.0,"qual":7,"ss":32.0,"used":true,"health":1},{"PRN":308,"gnssid":2,"svid":8,"az":315.0,"el":24.0,"prRes":1.0,"qual":7,"ss":32.0,"used":true,"health":1},{"PRN":312,"gnssid":2,"svid":12,"az":79.0,"el":0.0,"prRes":0.0,"qual":1,"ss":0.0,"used":false,"health":1},{"PRN":316,"gnssid":2,"svid":16,"az":52.0,"el":72.0,"prRes":2.9,"qual":7,"ss":38.0,"used":true,"health":1},{"PRN":324,"gnssid":2,"svid":24,"az":53.0,"el":44.0,"prRes":-2.1,"qual":7,"ss":38.0,"used":true,"health":1},{"PRN":325,"gnssid":2,"svid":25,"az":234.0,"el":82.0,"prRes":4.4,"qual":7,"ss":29.0,"used":true,"health":1},{"PRN":414,"gnssid":3,"svid":14,"az":203.0,"el":28.0,"prRes":-4.9,"qual":7,"ss":28.0,"used":true,"health":1},{"PRN":424,"gnssid":3,"svid":24,"az":32.0,"el":74.0,"prRes":-2.6,"qual":7,"ss":42.0,"used":true,"health":1},{"PRN":426,"gnssid":3,"svid":26,"az":75.0,"el":28.0,"prRes":-4.1,"qual":7,"ss":35.0,"used":true,"health":1},{"PRN":433,"gnssid":3,"svid":33,"az":231.0,"el":41.0,"prRes":2.1,"qual":7,"ss":33.0,"used":true,"health":1},{"PRN":435,"gnssid":3,"svid":35,"az":63.0,"el":23.0,"prRes":-1.2,"qual":7,"ss":37.0,"used":true,"health":1},{"PRN":438,"gnssid":3,"svid":38,"az":319.0,"el":18.0,"prRes":-0.3,"qual":7,"ss":29.0,"used":true,"health":1},{"PRN":441,"gnssid":3,"svid":41,"az":298.0,"el":35.0,"prRes":1.0,"qual":7,"ss":39.0,"used":true,"health":1},{"PRN":442,"gnssid":3,"svid":42,"az":183.0,"el":10.0,"prRes":-14.4,"qual":7,"ss":28.0,"used":true,"health":1},{"PRN":65,"gnssid":6,"svid":1,"freqid":8,"az":264.0,"el":57.0,"prRes":2.6,"qual":7,"ss":47.0,"used":true,"health":1},{"PRN":66,"gnssid":6,"svid":2,"freqid":3,"az":326.0,"el":28.0,"prRes":-10.9,"qual":7,"ss":28.0,"used":true,"health":1},{"PRN":72,"gnssid":6,"svid":8,"freqid":13,"az":190.0,"el":29.0,"prRes":-8.7,"qual":7,"ss":35.0,"used":true,"health":1},{"PRN":74,"gnssid":6,"svid":10,"freqid":0,"az":52.0,"el":34.0,"prRes":4.7,"qual":7,"ss":28.0,"used":true,"health":1},{"PRN":75,"gnssid":6,"svid":11,"freqid":7,"az":330.0,"el":65.0,"prRes":0.0,"qual":4,"ss":11.0,"used":true,"health":1},{"PRN":76,"gnssid":6,"svid":12,"freqid":6,"az":265.0,"el":22.0,"prRes":9.3,"qual":4,"ss":24.0,"used":true,"health":1},{"PRN":83,"gnssid":6,"svid":19,"freqid":10,"az":23.0,"el":11.0,"prRes":0.0,"qual":4,"ss":21.0,"used":true,"health":1},{"PRN":84,"gnssid":6,"svid":20,"freqid":9,"az":77.0,"el":22.0,"prRes":-5.9,"qual":7,"ss":28.0,"used":true,"health":1}]}
{"class":"SKY","time":"2019-04-07T02:40:13.000Z","gdop":1.11,"hdop":0.49,"pdop":0.97,"tdop":0.54,"xdop":0.34,"ydop":0.35,"vdop":0.83}
$GPGSV,12,1,48,02,07,091,00,05,16,278,00,07,60,087,42,08,31,053,37*45
$GPGSV,12,2,48,09,17,161,27,13,32,312,36,14,57,242,40,15,05,324,00*4D
$GPGSV,12,3,48,17,14,180,31,21,16,246,20,22,40,236,26,27,06,034,00*48
$GPGSV,12,4,48,30,78,343,30,44,39,174,34,46,39,191,30,51,37,160,00*43
$GPGSV,12,5,48,302,26,233,25,303,70,269,44,305,43,161,32,308,24,315,32*44
$GPGSV,12,6,48,312,00,079,00,316,72,052,38,324,44,053,38,325,82,234,29*4B
$GPGSV,12,7,48,333,02,031,00,404,01,264,00,408,16,335,00,413,09,343,00*46
$GPGSV,12,8,48,414,28,203,28,424,74,032,42,425,38,274,00,426,28,075,35*4F
$GPGSV,12,9,48,433,41,231,34,434,06,163,00,435,23,063,37,438,18,319,29*4C
$GPGSV,12,10,48,441,35,298,39,442,10,183,28,444,27,114,00,65,57,264,47*4D
$GPGSV,12,11,48,66,28,326,28,72,29,190,35,74,34,052,28,75,65,330,13*7B
$GPGSV,12,12,48,76,22,265,23,83,11,023,21,84,22,077,29,85,10,124,00*71
{"class":"SKY","time":"2025-09-14T02:40:14.000Z","gdop":1.10,"hdop":0.49,"pdop":0.96,"tdop":0.54,"xdop":0.34,"ydop":0.34,"vdop":0.83,"nSat":48,"uSat":30,"satellites":[{"PRN":2,"gnssid":0,"svid":2,"az":91.0,"el":7.0,"prRes":0.0,"qual":0,"ss":0.0,"used":false,"health":1},{"PRN":5,"gnssid":0,"svid":5,"az":278.0,"el":16.0,"prRes":0.0,"qual":1,"ss":0.0,"used":false,"health":1},{"PRN":7,"gnssid":0,"svid":7,"az":87.0,"el":60.0,"prRes":1.5,"qual":7,"ss":42.0,"used":true,"health":1},{"PRN":8,"gnssid":0,"svid":8,"az":53.0,"el":31.0,"prRes":1.6,"qual":7,"ss":37.0,"used":true,"health":1},{"PRN":9,"gnssid":0,"svid":9,"az":161.0,"el":17.0,"prRes":-5.4,"qual":7,"ss":27.0,"used":true,"health":1},{"PRN":13,"gnssid":0,"svid":13,"az":312.0,"el":32.0,"prRes":1.3,"qual":7,"ss":36.0,"used":true,"health":1},{"PRN":14,"gnssid":0,"svid":14,"az":242.0,"el":57.0,"prRes":-1.5,"qual":7,"ss":40.0,"used":true,"health":1},{"PRN":15,"gnssid":0,"svid":15,"az":324.0,"el":5.0,"prRes":0.0,"qual":0,"ss":0.0,"used":false,"health":1},{"PRN":17,"gnssid":0,"svid":17,"az":180.0,"el":14.0,"prRes":-4.9,"qual":7,"ss":31.0,"used":true,"health":1},{"PRN":21,"gnssid":0,"svid":21,"az":246.0,"el":16.0,"prRes":0.0,"qual":3,"ss":20.0,"used":false,"health":1},{"PRN":22,"gnssid":0,"svid":22,"az":236.0,"el":40.0,"prRes":-13.3,"qual":7,"ss":26.0,"used":true,"health":1},{"PRN":27,"gnssid":0,"svid":27,"az":34.0,"el":6.0,"prRes":0.0,"qual":1,"ss":0.0,"used":false,"health":1},{"PRN":30,"gnssid":0,"svid":30,"az":343.0,"el":78.0,"prRes":4.2,"qual":7,"ss":30.0,"used":true,"health":1},{"PRN":44,"gnssid":1,"svid":131,"az":174.0,"el":39.0,"prRes":3.9,"qual":7,"ss":34.0,"used":true,"health":1},{"PRN":46,"gnssid":1,"svid":133,"az":191.0,"el":39.0,"prRes":-7.8,"qual":6,"ss":30.0,"used":true,"health":1},{"PRN":51,"gnssid":1,"svid":138,"az":160.0,"el":37.0,"prRes":0.0,"qual":1,"ss":0.0,"used":false},{"PRN":302,"gnssid":2,"svid":2,"az":233.0,"el":26.0,"prRes":-9.4,"qual":4,"ss":25.0,"used":true,"health":1},{"PRN":303,"gnssid":2,"svid":3,"az":269.0,"el":70.0,"prRes":-0.4,"qual":7,"ss":44.0,"used":true,"health":1},{"PRN":305,"gnssid":2,"svid":5,"az":161.0,"el":43.0,"prRes":-2.2,"qual":7,"ss":32.0,"used":true,"health":1},{"PRN":308,"gnssid":2,"svid":8,"az":315.0,"el":24.0,"prRes":1.3,"qual":7,"ss":32.0,"used":true,"health":1},{"PRN":312,"gnssid":2,"svid":12,"az":79.0,"el":0.0,"prRes":0.0,"qual":1,"ss":0.0,"used":false,"health":1},{"PRN":316,"gnssid":2,"svid":16,"az":52.0,"el":72.0,"prRes":3.2,"qual":7,"ss":38.0,"used":true,"health":1},{"PRN":324,"gnssid":2,"svid":24,"az":53.0,"el":44.0,"prRes":-2.0,"qual":7,"ss":38.0,"used":true,"health":1},{"PRN":325,"gnssid":2,"svid":25,"az":234.0,"el":82.0,"prRes":4.9,"qual":7,"ss":29.0,"used":true,"health":1},{"PRN":333,"gnssid":2,"svid":33,"az":31.0,"el":2.0,"prRes":0.0,"qual":0,"ss":0.0,"used":false,"health":1},{"PRN":404,"gnssid":3,"svid":4,"az":264.0,"el":1.0,"prRes":0.0,"qual":0,"ss":0.0,"used":false,"health":1},{"PRN":408,"gnssid":3,"svid":8,"az":335.0,"el":16.0,"prRes":0.0,"qual":0,"ss":0.0,"used":false,"health":1},{"PRN":413,"gnssid":3,"svid":13,"az":343.0,"el":9.0,"prRes":0.0,"qual":0,"ss":0.0,"used":false,"health":1},{"PRN":414,"gnssid":3,"svid":14,"az":203.0,"el":28.0,"prRes":-5.0,"qual":7,"ss":28.0,"used":true,"health":1},{"PRN":424,"gnssid":3,"svid":24,"az":32.0,"el":74.0,"prRes":-2.8,"qual":7,"ss":42.0,"used":true,"health":1},{"PRN":425,"gnssid":3,"svid":25,"az":274.0,"el":38.0,"prRes":0.0,"qual":0,"ss":0.0,"used":false,"health":1},{"PRN":426,"gnssid":3,"svid":26,"az":75.0,"el":28.0,"prRes":-4.1,"qual":7,"ss":35.0,"used":true,"health":1},{"PRN":433,"gnssid":3,"svid":33,"az":231.0,"el":41.0,"prRes":2.0,"qual":7,"ss":34.0,"used":true,"health":1},{"PRN":434,"gnssid":3,"svid":34,"az":163.0,"el":6.0,"prRes":0.0,"qual":0,"ss":0.0,"used":false,"health":1},{"PRN":435,"gnssid":3,"svid":35,"az":63.0,"el":23.0,"prRes":-1.2,"qual":7,"ss":37.0,"used":true,"health":1},{"PRN":438,"gnssid":3,"svid":38,"az":319.0,"el":18.0,"prRes":-0.3,"qual":7,"ss":29.0,"used":true,"health":1},{"PRN":441,"gnssid":3,"svid":41,"az":298.0,"el":35.0,"prRes":1.2,"qual":7,"ss":39.0,"used":true,"health":1},{"PRN":442,"gnssid":3,"svid":42,"az":183.0,"el":10.0,"prRes":-14.3,"qual":7,"ss":28.0,"used":false,"health":1},{"PRN":444,"gnssid":3,"svid":44,"az":114.0,"el":27.0,"prRes":0.0,"qual":0,"ss":0.0,"used":false,"health":1},{"PRN":65,"gnssid":6,"svid":1,"az":264.0,"el":57.0,"prRes":2.5,"qual":7,"ss":47.0,"used":true,"health":1},{"PRN":66,"gnssid":6,"svid":2,"az":326.0,"el":28.0,"prRes":-9.3,"qual":7,"ss":28.0,"used":true,"health":1},{"PRN":72,"gnssid":6,"svid":8,"az":190.0,"el":29.0,"prRes":-8.9,"qual":7,"ss":35.0,"used":true,"health":1},{"PRN":74,"gnssid":6,"svid":10,"az":52.0,"el":34.0,"prRes":4.7,"qual":7,"ss":28.0,"used":true,"health":1},{"PRN":75,"gnssid":6,"svid":11,"az":330.0,"el":65.0,"prRes":0.0,"qual":4,"ss":13.0,"used":false,"health":1},{"PRN":76,"gnssid":6,"svid":12,"az":265.0,"el":22.0,"prRes":7.3,"qual":4,"ss":23.0,"used":true,"health":1},{"PRN":83,"gnssid":6,"svid":19,"az":23.0,"el":11.0,"prRes":0.0,"qual":4,"ss":21.0,"used":false,"health":1},{"PRN":84,"gnssid":6,"svid":20,"az":77.0,"el":22.0,"prRes":-7.5,"qual":7,"ss":29.0,"used":true,"health":1},{"PRN":85,"gnssid":6,"svid":21,"az":124.0,"el":10.0,"prRes":0.0,"qual":0,"ss":0.0,"used":false,"health":1}]}
$GPGSV,10,1,38,05,16,278,00,07,60,087,42,08,31,053,37,09,17,161,27*41
$GPGSV,10,2,38,13,32,312,36,14,57,242,40,17,14,180,31,21,16,246,20*4E
$GPGSV,10,3,38,22,40,236,26,27,06,034,00,30,78,343,30,44,39,174,34*47
$GPGSV,10,4,38,46,39,191,30,51,37,160,00,302,26,233,25,303,70,269,44*48
$GPGSV,10,5,38,305,43,161,32,308,24,315,32,312,00,079,00,316,72,052,38*48
$GPGSV,10,6,38,324,44,053,38,325,82,234,29,414,28,203,28,424,74,032,42*4B
$GPGSV,10,7,38,426,28,075,35,433,41,231,34,435,23,063,37,438,18,319,29*48
$GPGSV,10,8,38,441,35,298,39,442,10,183,28,65,57,264,47,66,28,326,28*43
$GPGSV,10,9,38,72,29,190,35,74,34,052,28,75,65,330,13,76,22,265,23*41
$GPGSV,10,10,38,83,11,023,21,84,22,077,29*7C
{"class":"SKY","time":"2025-09-14T02:40:14.000Z","gdop":1.10,"hdop":0.49,"pdop":0.96,"tdop":0.54,"xdop":0.34,"ydop":0.34,"vdop":0.83,"nSat":38,"uSat":33,"satellites":[{"PRN":5,"gnssid":0,"svid":5,"az":278.0,"el":16.0,"prRes":0.0,"qual":1,"ss":0.0,"used":false,"health":1},{"PRN":7,"gnssid":0,"svid":7,"az":87.0,"el":60.0,"prRes":1.5,"qual":7,"ss":42.0,"used":true,"health":1},{"PRN":8,"gnssid":0,"svid":8,"az":53.0,"el":31.0,"prRes":1.6,"qual":7,"ss":37.0,"used":true,"health":1},{"PRN":9,"gnssid":0,"svid":9,"az":161.0,"el":17.0,"prRes":-5.4,"qual":7,"ss":27.0,"used":true,"health":1},{"PRN":13,"gnssid":0,"svid":13,"az":312.0,"el":32.0,"prRes":1.3,"qual":7,"ss":36.0,"used":true,"health":1},{"PRN":14,"gnssid":0,"svid":14,"az":242.0,"el":57.0,"prRes":-1.5,"qual":7,"ss":40.0,"used":true,"health":1},{"PRN":17,"gnssid":0,"svid":17,"az":180.0,"el":14.0,"prRes":-4.9,"qual":7,"ss":31.0,"used":true,"health":1},{"PRN":21,"gnssid":0,"svid":21,"az":246.0,"el":16.0,"prRes":0.0,"qual":3,"ss":20.0,"used":false,"health":1},{"PRN":22,"gnssid":0,"svid":22,"az":236.0,"el":40.0,"prRes":-13.3,"qual":7,"ss":26.0,"used":true,"health":1},{"PRN":27,"gnssid":0,"svid":27,"az":34.0,"el":6.0,"prRes":0.0,"qual":1,"ss":0.0,"used":false,"health":1},{"PRN":30,"gnssid":0,"svid":30,"az":343.0,"el":78.0,"prRes":4.2,"qual":7,"ss":30.0,"used":true,"health":1},{"PRN":44,"gnssid":1,"svid":131,"az":174.0,"el":39.0,"prRes":3.9,"qual":7,"ss":34.0,"used":true,"health":1},{"PRN":46,"gnssid":1,"svid":133,"az":191.0,"el":39.0,"prRes":-7.8,"qual":6,"ss":30.0,"used":true,"health":1},{"PRN":51,"gnssid":1,"svid":138,"az":160.0,"el":37.0,"prRes":0.0,"qual":1,"ss":0.0,"used":false},{"PRN":302,"gnssid":2,"svid":2,"az":233.0,"el":26.0,"prRes":-9.4,"qual":4,"ss":25.0,"used":true,"health":1},{"PRN":303,"gnssid":2,"svid":3,"az":269.0,"el":70.0,"prRes":-0.4,"qual":7,"ss":44.0,"used":true,"health":1},{"PRN":305,"gnssid":2,"svid":5,"az":161.0,"el":43.0,"prRes":-2.2,"qual":7,"ss":32.0,"used":true,"health":1},{"PRN":308,"gnssid":2,"svid":8,"az":315.0,"el":24.0,"prRes":1.3,"qual":7,"ss":32.0,"used":true,"health":1},{"PRN":312,"gnssid":2,"svid":12,"az":79.0,"el":0.0,"prRes":0.0,"qual":1,"ss":0.0,"used":false,"health":1},{"PRN":316,"gnssid":2,"svid":16,"az":52.0,"el":72.0,"prRes":3.2,"qual":7,"ss":38.0,"used":true,"health":1},{"PRN":324,"gnssid":2,"svid":24,"az":53.0,"el":44.0,"prRes":-2.0,"qual":7,"ss":38.0,"used":true,"health":1},{"PRN":325,"gnssid":2,"svid":25,"az":234.0,"el":82.0,"prRes":4.9,"qual":7,"ss":29.0,"used":true,"health":1},{"PRN":414,"gnssid":3,"svid":14,"az":203.0,"el":28.0,"prRes":-5.0,"qual":7,"ss":28.0,"used":true,"health":1},{"PRN":424,"gnssid":3,"svid":24,"az":32.0,"el":74.0,"prRes":-2.8,"qual":7,"ss":42.0,"used":true,"health":1},{"PRN":426,"gnssid":3,"svid":26,"az":75.0,"el":28.0,"prRes":-4.1,"qual":7,"ss":35.0,"used":true,"health":1},{"PRN":433,"gnssid":3,"svid":33,"az":231.0,"el":41.0,"prRes":2.0,"qual":7,"ss":34.0,"used":true,"health":1},{"PRN":435,"gnssid":3,"svid":35,"az":63.0,"el":23.0,"prRes":-1.2,"qual":7,"ss":37.0,"used":true,"health":1},{"PRN":438,"gnssid":3,"svid":38,"az":319.0,"el":18.0,"prRes":-0.3,"qual":7,"ss":29.0,"used":true,"health":1},{"PRN":441,"gnssid":3,"svid":41,"az":298.0,"el":35.0,"prRes":1.2,"qual":7,"ss":39.0,"used":true,"health":1},{"PRN":442,"gnssid":3,"svid":42,"az":183.0,"el":10.0,"prRes":-14.3,"qual":7,"ss":28.0,"used":true,"health":1},{"PRN":65,"gnssid":6,"svid":1,"freqid":8,"az":264.0,"el":57.0,"prRes":2.5,"qual":7,"ss":47.0,"used":true,"health":1},{"PRN":66,"gnssid":6,"svid":2,"freqid":3,"az":326.0,"el":28.0,"prRes":-9.3,"qual":7,"ss":28.0,"used":true,"health":1},{"PRN":72,"gnssid":6,"svid":8,"freqid":13,"az":190.0,"el":29.0,"prRes":-8.9,"qual":7,"ss":35.0,"used":true,"health":1},{"PRN":74,"gnssid":6,"svid":10,"freqid":0,"az":52.0,"el":34.0,"prRes":4.7,"qual":7,"ss":28.0,"used":true,"health":1},{"PRN":75,"gnssid":6,"svid":11,"freqid":7,"az":330.0,"el":65.0,"prRes":0.0,"qual":4,"ss":13.0,"used":true,"health":1},{"PRN":76,"gnssid":6,"svid":12,"freqid":6,"az":265.0,"el":22.0,"prRes":7.3,"qual":4,"ss":23.0,"used":true,"health":1},{"PRN":83,"gnssid":6,"svid":19,"freqid":10,"az":23.0,"el":11.0,"prRes":0.0,"qual":4,"ss":21.0,"used":true,"health":1},{"PRN":84,"gnssid":6,"svid":20,"freqid":9,"az":77.0,"el":22.0,"prRes":-7.5,"qual":7,"ss":29.0,"used":true,"health":1}]}
{"class":"SKY","time":"2025-09-14T02:40:14.000Z","gdop":1.11,"hdop":0.49,"pdop":0.97,"tdop":0.54,"xdop":0.34,"ydop":0.35,"vdop":0.83}
$GPZDA,024014.00,14,09,2025,00,00*6C
$GPGGA,024014.00,4404.1291160,N,12118.8447160,W,2,33,0.49,1127.31,M,-22.154,M,,*62
$GPRMC,024014.00,A,4404.1291160,N,12118.8447160,W,0.0039,0.000,140925,14.4,E*42
$GPGSA,A,3,7,8,9,13,14,17,22,30,44,,,,1.0,0.5,0.8*0A
$GPGBS,024014.00,1.275,1.312,1.731,,,,*46
{"class":"TPV","status":2,"mode":3,"time":"2025-09-14T02:40:14.000Z","leapseconds":18,"ept":0.005,"lat":44.068818600,"lon":-121.314078600,"altHAE":1105.9570,"altMSL":1127.3070,"alt":1127.3070,"epx":1.275,"epy":1.312,"epv":1.731,"track":0.0000,"magtrack":14.4184,"magvar":14.4,"speed":0.002,"climb":-0.052,"eps":2.62,"epc":3.46,"ecefx":-2386053.1500,"ecefy":-3922196.6200,"ecefz":4414358.1700,"ecefvx":0.00,"ecefvy":0.01,"ecefvz":-0.01,"ecefpAcc":2.0600,"ecefvAcc":0.1700,"errEllOr":169.47,"errEllMaj":2.351,"errEllMin":1.410,"velN":0.000,"velE":0.000,"velD":0.010,"geoidSep":-22.154,"eph":1.120,"sep":4.560,"clockbias":-922047,"clockdrift":-176}
{"class":"ATT","time":"2025-09-14T02:40:14.000Z","heading":0.000,"pitch":0.000,"roll":0.000}
{"class":"SKY","time":"2025-09-14T02:40:14.000Z","gdop":1.11,"hdop":0.49,"pdop":0.97,"tdop":0.54,"xdop":0.34,"ydop":0.35,"vdop":0.83}
$GPZDA,024014.00,14,09,2025,00,00*6C
$GPGGA,024014.00,4404.1291160,N,12118.8447160,W,2,33,0.49,1127.31,M,-22.154,M,,*62
$GPRMC,024014.00,A,4404.1291160,N,12118.8447160,W,0.0039,0.000,140925,14.4,E*42
$GPGSA,A,3,7,8,9,13,14,17,22,30,44,,,,1.0,0.5,0.8*0A
$GPGBS,024014.00,1.275,1.312,1.731,,,,*46
{"class":"TPV","status":2,"mode":3,"time":"2025-09-14T02:40:14.000Z","leapseconds":18,"ept":0.005,"lat":44.068818600,"lon":-121.314078600,"altHAE":1105.9570,"altMSL":1127.3070,"alt":1127.3070,"epx":1.275,"epy":1.312,"epv":1.731,"track":0.0000,"magtrack":14.4184,"magvar":14.4,"speed":0.002,"climb":-0.052,"eps":2.62,"epc":3.46,"ecefx":-2386053.1500,"ecefy":-3922196.6200,"ecefz":4414358.1700,"ecefvx":0.00,"ecefvy":0.01,"ecefvz":-0.01,"ecefpAcc":2.0600,"ecefvAcc":0.1700,"errEllOr":169.47,"errEllMaj":2.351,"errEllMin":1.410,"velN":0.000,"velE":0.000,"velD":0.010,"geoidSep":-22.154,"eph":1.120,"sep":4.560,"antPwr":2,"jam":23,"clockbias":-922047,"clockdrift":-176}
$GPGSV,12,1,48,02,07,091,00,05,16,278,20,07,60,087,42,08,31,053,37*47
$GPGSV,12,2,48,09,17,161,27,13,32,312,36,14,57,242,40,15,05,324,00*4D
$GPGSV,12,3,48,17,14,180,31,21,16,246,20,22,40,236,26,27,06,034,00*48
$GPGSV,12,4,48,30,78,343,30,44,39,174,34,46,39,191,30,51,37,160,00*43
$GPGSV,12,5,48,302,26,233,25,303,70,269,44,305,43,161,32,308,24,315,32*44
$GPGSV,12,6,48,312,00,079,00,316,72,052,39,324,44,053,38,325,82,234,29*4A
$GPGSV,12,7,48,333,02,031,00,404,01,264,00,408,16,335,00,413,09,343,00*46
$GPGSV,12,8,48,414,28,203,28,424,74,032,42,425,38,274,00,426,28,075,35*4F
$GPGSV,12,9,48,433,41,231,34,434,06,163,00,435,23,063,37,438,18,319,29*4C
$GPGSV,12,10,48,441,35,298,39,442,10,183,28,444,27,114,00,65,57,264,47*4D
$GPGSV,12,11,48,66,28,326,28,72,29,190,35,74,34,052,28,75,65,330,15*7D
$GPGSV,12,12,48,76,22,265,23,83,11,023,22,84,22,077,29,85,10,124,00*72
{"class":"SKY","time":"2025-09-14T02:40:15.000Z","gdop":1.10,"hdop":0.49,"pdop":0.96,"tdop":0.54,"xdop":0.34,"ydop":0.34,"vdop":0.83,"nSat":48,"uSat":30,"satellites":[{"PRN":2,"gnssid":0,"svid":2,"az":91.0,"el":7.0,"prRes":0.0,"qual":0,"ss":0.0,"used":false,"health":1},{"PRN":5,"gnssid":0,"svid":5,"az":278.0,"el":16.0,"prRes":0.0,"qual":3,"ss":20.0,"used":false,"health":1},{"PRN":7,"gnssid":0,"svid":7,"az":87.0,"el":60.0,"prRes":1.3,"qual":7,"ss":42.0,"used":true,"health":1},{"PRN":8,"gnssid":0,"svid":8,"az":53.0,"el":31.0,"prRes":1.7,"qual":7,"ss":37.0,"used":true,"health":1},{"PRN":9,"gnssid":0,"svid":9,"az":161.0,"el":17.0,"prRes":-4.7,"qual":7,"ss":27.0,"used":true,"health":1},{"PRN":13,"gnssid":0,"svid":13,"az":312.0,"el":32.0,"prRes":1.0,"qual":7,"ss":36.0,"used":true,"health":1},{"PRN":14,"gnssid":0,"svid":14,"az":242.0,"el":57.0,"prRes":-1.3,"qual":7,"ss":40.0,"used":true,"health":1},{"PRN":15,"gnssid":0,"svid":15,"az":324.0,"el":5.0,"prRes":0.0,"qual":0,"ss":0.0,"used":false,"health":1},{"PRN":17,"gnssid":0,"svid":17,"az":180.0,"el":14.0,"prRes":-5.4,"qual":7,"ss":31.0,"used":true,"health":1},{"PRN":21,"gnssid":0,"svid":21,"az":246.0,"el":16.0,"prRes":0.0,"qual":3,"ss":20.0,"used":false,"health":1},{"PRN":22,"gnssid":0,"svid":22,"az":236.0,"el":40.0,"prRes":-10.9,"qual":7,"ss":26.0,"used":true,"health":1},{"PRN":27,"gnssid":0,"svid":27,"az":34.0,"el":6.0,"prRes":0.0,"qual":1,"ss":0.0,"used":false,"health":1},{"PRN":30,"gnssid":0,"svid":30,"az":343.0,"el":78.0,"prRes":4.0,"qual":7,"ss":30.0,"used":true,"health":1},{"PRN":44,"gnssid":1,"svid":131,"az":174.0,"el":39.0,"prRes":3.7,"qual":7,"ss":34.0,"used":true,"health":1},{"PRN":46,"gnssid":1,"svid":133,"az":191.0,"el":39.0,"prRes":-7.9,"qual":6,"ss":30.0,"used":true,"health":1},{"PRN":51,"gnssid":1,"svid":138,"az":160.0,"el":37.0,"prRes":0.0,"qual":1,"ss":0.0,"used":false},{"PRN":302,"gnssid":2,"svid":2,"az":233.0,"el":26.0,"prRes":-11.0,"qual":4,"ss":25.0,"used":true,"health":1},{"PRN":303,"gnssid":2,"svid":3,"az":269.0,"el":70.0,"prRes":0.0,"qual":7,"ss":44.0,"used":true,"health":1},{"PRN":305,"gnssid":2,"svid":5,"az":161.0,"el":43.0,"prRes":-2.8,"qual":7,"ss":32.0,"used":true,"health":1},{"PRN":308,"gnssid":2,"svid":8,"az":315.0,"el":24.0,"prRes":1.0,"qual":7,"ss":32.0,"used":true,"health":1},{"PRN":312,"gnssid":2,"svid":12,"az":79.0,"el":0.0,"prRes":0.0,"qual":1,"ss":0.0,"used":false,"health":1},{"PRN":316,"gnssid":2,"svid":16,"az":52.0,"el":72.0,"prRes":3.0,"qual":7,"ss":39.0,"used":true,"health":1},{"PRN":324,"gnssid":2,"svid":24,"az":53.0,"el":44.0,"prRes":-2.0,"qual":7,"ss":38.0,"used":true,"health":1},{"PRN":325,"gnssid":2,"svid":25,"az":234.0,"el":82.0,"prRes":4.8,"qual":7,"ss":29.0,"used":true,"health":1},{"PRN":333,"gnssid":2,"svid":33,"az":31.0,"el":2.0,"prRes":0.0,"qual":0,"ss":0.0,"used":false,"health":1},{"PRN":404,"gnssid":3,"svid":4,"az":264.0,"el":1.0,"prRes":0.0,"qual":0,"ss":0.0,"used":false,"health":1},{"PRN":408,"gnssid":3,"svid":8,"az":335.0,"el":16.0,"prRes":0.0,"qual":0,"ss":0.0,"used":false,"health":1},{"PRN":413,"gnssid":3,"svid":13,"az":343.0,"el":9.0,"prRes":0.0,"qual":0,"ss":0.0,"used":false,"health":1},{"PRN":414,"gnssid":3,"svid":14,"az":203.0,"el":28.0,"prRes":-4.8,"qual":7,"ss":28.0,"used":true,"health":1},{"PRN":424,"gnssid":3,"svid":24,"az":32.0,"el":74.0,"prRes":-2.6,"qual":7,"ss":42.0,"used":true,"health":1},{"PRN":425,"gnssid":3,"svid":25,"az":274.0,"el":38.0,"prRes":0.0,"qual":0,"ss":0.0,"used":false,"health":1},{"PRN":426,"gnssid":3,"svid":26,"az":75.0,"el":28.0,"prRes":-4.0,"qual":7,"ss":35.0,"used":true,"health":1},{"PRN":433,"gnssid":3,"svid":33,"az":231.0,"el":41.0,"prRes":1.9,"qual":7,"ss":34.0,"used":true,"health":1},{"PRN":434,"gnssid":3,"svid":34,"az":163.0,"el":6.0,"prRes":0.0,"qual":0,"ss":0.0,"used":false,"health":1},{"PRN":435,"gnssid":3,"svid":35,"az":63.0,"el":23.0,"prRes":-1.3,"qual":7,"ss":37.0,"used":true,"health":1},{"PRN":438,"gnssid":3,"svid":38,"az":319.0,"el":18.0,"prRes":-0.7,"qual":7,"ss":29.0,"used":true,"health":1},{"PRN":441,"gnssid":3,"svid":41,"az":298.0,"el":35.0,"prRes":1.2,"qual":7,"ss":39.0,"used":true,"health":1},{"PRN":442,"gnssid":3,"svid":42,"az":183.0,"el":10.0,"prRes":-14.3,"qual":7,"ss":28.0,"used":false,"health":1},{"PRN":444,"gnssid":3,"svid":44,"az":114.0,"el":27.0,"prRes":0.0,"qual":0,"ss":0.0,"used":false,"health":1},{"PRN":65,"gnssid":6,"svid":1,"az":264.0,"el":57.0,"prRes":2.6,"qual":7,"ss":47.0,"used":true,"health":1},{"PRN":66,"gnssid":6,"svid":2,"az":326.0,"el":28.0,"prRes":-9.2,"qual":7,"ss":28.0,"used":true,"health":1},{"PRN":72,"gnssid":6,"svid":8,"az":190.0,"el":29.0,"prRes":-8.8,"qual":7,"ss":35.0,"used":true,"health":1},{"PRN":74,"gnssid":6,"svid":10,"az":52.0,"el":34.0,"prRes":4.5,"qual":7,"ss":28.0,"used":true,"health":1},{"PRN":75,"gnssid":6,"svid":11,"az":330.0,"el":65.0,"prRes":0.0,"qual":4,"ss":15.0,"used":false,"health":1},{"PRN":76,"gnssid":6,"svid":12,"az":265.0,"el":22.0,"prRes":7.7,"qual":4,"ss":23.0,"used":true,"health":1},{"PRN":83,"gnssid":6,"svid":19,"az":23.0,"el":11.0,"prRes":0.0,"qual":4,"ss":22.0,"used":false,"health":1},{"PRN":84,"gnssid":6,"svid":20,"az":77.0,"el":22.0,"prRes":-8.0,"qual":7,"ss":29.0,"used":true,"health":1},{"PRN":85,"gnssid":6,"svid":21,"az":124.0,"el":10.0,"prRes":0.0,"qual":0,"ss":0.0,"used":false,"health":1}]}
$GPGSV,10,1,38,05,16,278,20,07,60,087,42,08,31,053,37,09,17,161,27*43
$GPGSV,10,2,38,13,32,312,36,14,57,242,40,17,14,180,31,21,16,246,20*4E
$GPGSV,10,3,38,22,40,236,26,27,06,034,00,30,78,343,30,44,39,174,34*47
$GPGSV,10,4,38,46,39,191,30,51,37,160,00,302,26,233,25,303,70,269,44*48
$GPGSV,10,5,38,305,43,161,32,308,24,315,32,312,00,079,00,316,72,052,39*49
$GPGSV,10,6,38,324,44,053,38,325,82,234,29,414,28,203,28,424,74,032,42*4B
$GPGSV,10,7,38,426,28,075,35,433,41,231,34,435,23,063,37,438,18,319,29*48
$GPGSV,10,8,38,441,35,298,39,442,10,183,28,65,57,264,47,66,28,326,28*43
$GPGSV,10,9,38,72,29,190,35,74,34,052,28,75,65,330,15,76,22,265,23*47
$GPGSV,10,10,38,83,11,023,22,84,22,077,29*7F
{"class":"SKY","time":"2025-09-14T02:40:15.000Z","gdop":1.10,"hdop":0.49,"pdop":0.96,"tdop":0.54,"xdop":0.34,"ydop":0.34,"vdop":0.83,"nSat":38,"uSat":33,"satellites":[{"PRN":5,"gnssid":0,"svid":5,"az":278.0,"el":16.0,"prRes":0.0,"qual":3,"ss":20.0,"used":false,"health":1},{"PRN":7,"gnssid":0,"svid":7,"az":87.0,"el":60.0,"prRes":1.3,"qual":7,"ss":42.0,"used":true,"health":1},{"PRN":8,"gnssid":0,"svid":8,"az":53.0,"el":31.0,"prRes":1.7,"qual":7,"ss":37.0,"used":true,"health":1},{"PRN":9,"gnssid":0,"svid":9,"az":161.0,"el":17.0,"prRes":-4.7,"qual":7,"ss":27.0,"used":true,"health":1},{"PRN":13,"gnssid":0,"svid":13,"az":312.0,"el":32.0,"prRes":1.0,"qual":7,"ss":36.0,"used":true,"health":1},{"PRN":14,"gnssid":0,"svid":14,"az":242.0,"el":57.0,"prRes":-1.3,"qual":7,"ss":40.0,"used":true,"health":1},{"PRN":17,"gnssid":0,"svid":17,"az":180.0,"el":14.0,"prRes":-5.4,"qual":7,"ss":31.0,"used":true,"health":1},{"PRN":21,"gnssid":0,"svid":21,"az":246.0,"el":16.0,"prRes":0.0,"qual":3,"ss":20.0,"used":false,"health":1},{"PRN":22,"gnssid":0,"svid":22,"az":236.0,"el":40.0,"prRes":-10.9,"qual":7,"ss":26.0,"used":true,"health":1},{"PRN":27,"gnssid":0,"svid":27,"az":34.0,"el":6.0,"prRes":0.0,"qual":1,"ss":0.0,"used":false,"health":1},{"PRN":30,"gnssid":0,"svid":30,"az":343.0,"el":78.0,"prRes":4.0,"qual":7,"ss":30.0,"used":true,"health":1},{"PRN":44,"gnssid":1,"svid":131,"az":174.0,"el":39.0,"prRes":3.7,"qual":7,"ss":34.0,"used":true,"health":1},{"PRN":46,"gnssid":1,"svid":133,"az":191.0,"el":39.0,"prRes":-7.9,"qual":6,"ss":30.0,"used":true,"health":1},{"PRN":51,"gnssid":1,"svid":138,"az":160.0,"el":37.0,"prRes":0.0,"qual":1,"ss":0.0,"used":false},{"PRN":302,"gnssid":2,"svid":2,"az":233.0,"el":26.0,"prRes":-11.0,"qual":4,"ss":25.0,"used":true,"health":1},{"PRN":303,"gnssid":2,"svid":3,"az":269.0,"el":70.0,"prRes":0.0,"qual":7,"ss":44.0,"used":true,"health":1},{"PRN":305,"gnssid":2,"svid":5,"az":161.0,"el":43.0,"prRes":-2.8,"qual":7,"ss":32.0,"used":true,"health":1},{"PRN":308,"gnssid":2,"svid":8,"az":315.0,"el":24.0,"prRes":1.0,"qual":7,"ss":32.0,"used":true,"health":1},{"PRN":312,"gnssid":2,"svid":12,"az":79.0,"el":0.0,"prRes":0.0,"qual":1,"ss":0.0,"used":false,"health":1},{"PRN":316,"gnssid":2,"svid":16,"az":52.0,"el":72.0,"prRes":3.0,"qual":7,"ss":39.0,"used":true,"health":1},{"PRN":324,"gnssid":2,"svid":24,"az":53.0,"el":44.0,"prRes":-2.0,"qual":7,"ss":38.0,"used":true,"health":1},{"PRN":325,"gnssid":2,"svid":25,"az":234.0,"el":82.0,"prRes":4.8,"qual":7,"ss":29.0,"used":true,"health":1},{"PRN":414,"gnssid":3,"svid":14,"az":203.0,"el":28.0,"prRes":-4.8,"qual":7,"ss":28.0,"used":true,"health":1},{"PRN":424,"gnssid":3,"svid":24,"az":32.0,"el":74.0,"prRes":-2.6,"qual":7,"ss":42.0,"used":true,"health":1},{"PRN":426,"gnssid":3,"svid":26,"az":75.0,"el":28.0,"prRes":-4.0,"qual":7,"ss":35.0,"used":true,"health":1},{"PRN":433,"gnssid":3,"svid":33,"az":231.0,"el":41.0,"prRes":1.9,"qual":7,"ss":34.0,"used":true,"health":1},{"PRN":435,"gnssid":3,"svid":35,"az":63.0,"el":23.0,"prRes":-1.3,"qual":7,"ss":37.0,"used":true,"health":1},{"PRN":438,"gnssid":3,"svid":38,"az":319.0,"el":18.0,"prRes":-0.7,"qual":7,"ss":29.0,"used":true,"health":1},{"PRN":441,"gnssid":3,"svid":41,"az":298.0,"el":35.0,"prRes":1.2,"qual":7,"ss":39.0,"used":true,"health":1},{"PRN":442,"gnssid":3,"svid":42,"az":183.0,"el":10.0,"prRes":-14.3,"qual":7,"ss":28.0,"used":true,"health":1},{"PRN":65,"gnssid":6,"svid":1,"freqid":8,"az":264.0,"el":57.0,"prRes":2.6,"qual":7,"ss":47.0,"used":true,"health":1},{"PRN":66,"gnssid":6,"svid":2,"freqid":3,"az":326.0,"el":28.0,"prRes":-9.2,"qual":7,"ss":28.0,"used":true,"health":1},{"PRN":72,"gnssid":6,"svid":8,"freqid":13,"az":190.0,"el":29.0,"prRes":-8.8,"qual":7,"ss":35.0,"used":true,"health":1},{"PRN":74,"gnssid":6,"svid":10,"freqid":0,"az":52.0,"el":34.0,"prRes":4.5,"qual":7,"ss":28.0,"used":true,"health":1},{"PRN":75,"gnssid":6,"svid":11,"freqid":7,"az":330.0,"el":65.0,"prRes":0.0,"qual":4,"ss":15.0,"used":true,"health":1},{"PRN":76,"gnssid":6,"svid":12,"freqid":6,"az":265.0,"el":22.0,"prRes":7.7,"qual":4,"ss":23.0,"used":true,"health":1},{"PRN":83,"gnssid":6,"svid":19,"freqid":10,"az":23.0,"el":11.0,"prRes":0.0,"qual":4,"ss":22.0,"used":true,"health":1},{"PRN":84,"gnssid":6,"svid":20,"freqid":9,"az":77.0,"el":22.0,"prRes":-8.0,"qual":7,"ss":29.0,"used":true,"health":1}]}
{"class":"SKY","time":"2025-09-14T02:40:15.000Z","gdop":1.11,"hdop":0.49,"pdop":0.97,"tdop":0.54,"xdop":0.34,"ydop":0.35,"vdop":0.83}
$GPZDA,024015.00,14,09,2025,00,00*6D
$GPGGA,024015.00,4404.1291460,N,12118.8446860,W,2,33,0.49,1127.30,M,-22.154,M,,*6F
$GPRMC,024015.00,A,4404.1291460,N,12118.8446860,W,0.0350,0.000,140925,14.4,E*42
$GPGSA,A,3,7,8,9,13,14,17,22,30,44,,,,1.0,0.5,0.8*0A
$GPGBS,024015.00,1.275,1.312,1.728,,,,*4F
{"class":"TPV","status":2,"mode":3,"time":"2025-09-14T02:40:15.000Z","leapseconds":18,"ept":0.005,"lat":44.068819100,"lon":-121.314078100,"altHAE":1105.9480,"altMSL":1127.2980,"alt":1127.2980,"epx":1.275,"epy":1.312,"epv":1.728,"track":0.0000,"magtrack":14.4184,"magvar":14.4,"speed":0.018,"climb":-0.009,"eps":2.62,"epc":3.46,"ecefx":-2386053.0900,"ecefy":-3922196.6000,"ecefz":4414358.2100,"ecefvx":0.00,"ecefvy":-0.01,"ecefvz":-0.02,"ecefpAcc":2.0600,"ecefvAcc":0.1600,"errEllOr":169.03,"errEllMaj":2.345,"errEllMin":1.403,"velN":-0.020,"velE":0.000,"velD":0.010,"geoidSep":-22.154,"eph":1.117,"sep":4.560,"clockbias":-922223,"clockdrift":-176}
{"class":"ATT","time":"2025-09-14T02:40:15.000Z","heading":0.000,"pitch":0.000,"roll":0.000}
{"class":"SKY","time":"2025-09-14T02:40:15.000Z","gdop":1.11,"hdop":0.49,"pdop":0.97,"tdop":0.54,"xdop":0.34,"ydop":0.35,"vdop":0.83}
$GPGSV,12,1,48,02,07,091,00,05,16,278,19,07,60,087,42,08,31,053,37*4D
$GPGSV,12,2,48,09,17,161,27,13,33,312,36,14,57,242,40,15,05,324,00*4C
$GPGSV,12,3,48,17,14,180,31,21,16,246,19,22,40,236,26,27,06,034,00*42
$GPGSV,12,4,48,30,78,343,30,44,39,174,34,46,39,191,30,51,37,160,00*43
$GPGSV,12,5,48,302,26,233,25,303,70,269,44,305,43,161,32,308,24,315,33*45
$GPGSV,12,6,48,312,00,079,00,316,72,052,39,324,44,053,38,325,82,234,29*4A
$GPGSV,12,7,48,333,02,031,00,404,01,264,00,408,16,335,00,413,09,343,00*46
$GPGSV,12,8,48,414,28,203,28,424,74,032,42,425,38,274,00,426,28,075,35*4F
$GPGSV,12,9,48,433,41,231,34,434,06,163,00,435,23,063,37,438,18,319,29*4C
$GPGSV,12,10,48,441,35,298,39,442,10,183,27,444,27,114,00,65,57,264,47*42
$GPGSV,12,11,48,66,28,326,28,72,29,190,35,74,34,052,28,75,65,330,17*7F
$GPGSV,12,12,48,76,22,265,23,83,11,023,22,84,22,077,29,85,10,124,00*72
{"class":"SKY","time":"2025-09-14T02:40:16.000Z","gdop":1.10,"hdop":0.49,"pdop":0.96,"tdop":0.54,"xdop":0.34,"ydop":0.35,"vdop":0.83,"nSat":48,"uSat":30,"satellites":[{"PRN":2,"gnssid":0,"svid":2,"az":91.0,"el":7.0,"prRes":0.0,"qual":0,"ss":0.0,"used":false,"health":1},{"PRN":5,"gnssid":0,"svid":5,"az":278.0,"el":16.0,"prRes":0.0,"qual":3,"ss":19.0,"used":false,"health":1},{"PRN":7,"gnssid":0,"svid":7,"az":87.0,"el":60.0,"prRes":1.4,"qual":7,"ss":42.0,"used":true,"health":1},{"PRN":8,"gnssid":0,"svid":8,"az":53.0,"el":31.0,"prRes":1.4,"qual":7,"ss":37.0,"used":true,"health":1},{"PRN":9,"gnssid":0,"svid":9,"az":161.0,"el":17.0,"prRes":-6.9,"qual":7,"ss":27.0,"used":true,"health":1},{"PRN":13,"gnssid":0,"svid":13,"az":312.0,"el":33.0,"prRes":1.1,"qual":7,"ss":36.0,"used":true,"health":1},{"PRN":14,"gnssid":0,"svid":14,"az":242.0,"el":57.0,"prRes":-1.2,"qual":7,"ss":40.0,"used":true,"health":1},{"PRN":15,"gnssid":0,"svid":15,"az":324.0,"el":5.0,"prRes":0.0,"qual":0,"ss":0.0,"used":false,"health":1},{"PRN":17,"gnssid":0,"svid":17,"az":180.0,"el":14.0,"prRes":-5.2,"qual":7,"ss":31.0,"used":true,"health":1},{"PRN":21,"gnssid":0,"svid":21,"az":246.0,"el":16.0,"prRes":0.0,"qual":3,"ss":19.0,"used":false,"health":1},{"PRN":22,"gnssid":0,"svid":22,"az":236.0,"el":40.0,"prRes":-11.1,"qual":7,"ss":26.0,"used":true,"health":1},{"PRN":27,"gnssid":0,"svid":27,"az":34.0,"el":6.0,"prRes":0.0,"qual":1,"ss":0.0,"used":false,"health":1},{"PRN":30,"gnssid":0,"svid":30,"az":343.0,"el":78.0,"prRes":4.1,"qual":7,"ss":30.0,"used":true,"health":1},{"PRN":44,"gnssid":1,"svid":131,"az":174.0,"el":39.0,"prRes":3.6,"qual":7,"ss":34.0,"used":true,"health":1},{"PRN":46,"gnssid":1,"svid":133,"az":191.0,"el":39.0,"prRes":-8.0,"qual":6,"ss":30.0,"used":true,"health":1},{"PRN":51,"gnssid":1,"svid":138,"az":160.0,"el":37.0,"prRes":0.0,"qual":1,"ss":0.0,"used":false},{"PRN":302,"gnssid":2,"svid":2,"az":233.0,"el":26.0,"prRes":-14.5,"qual":4,"ss":25.0,"used":true,"health":1},{"PRN":303,"gnssid":2,"svid":3,"az":269.0,"el":70.0,"prRes":0.1,"qual":7,"ss":44.0,"used":true,"health":1},{"PRN":305,"gnssid":2,"svid":5,"az":161.0,"el":43.0,"prRes":-3.1,"qual":7,"ss":32.0,"used":true,"health":1},{"PRN":308,"gnssid":2,"svid":8,"az":315.0,"el":24.0,"prRes":0.9,"qual":7,"ss":33.0,"used":true,"health":1},{"PRN":312,"gnssid":2,"svid":12,"az":79.0,"el":0.0,"prRes":0.0,"qual":1,"ss":0.0,"used":false,"health":1},{"PRN":316,"gnssid":2,"svid":16,"az":52.0,"el":72.0,"prRes":3.0,"qual":7,"ss":39.0,"used":true,"health":1},{"PRN":324,"gnssid":2,"svid":24,"az":53.0,"el":44.0,"prRes":-1.7,"qual":7,"ss":38.0,"used":true,"health":1},{"PRN":325,"gnssid":2,"svid":25,"az":234.0,"el":82.0,"prRes":5.1,"qual":7,"ss":29.0,"used":true,"health":1},{"PRN":333,"gnssid":2,"svid":33,"az":31.0,"el":2.0,"prRes":0.0,"qual":0,"ss":0.0,"used":false,"health":1},{"PRN":404,"gnssid":3,"svid":4,"az":264.0,"el":1.0,"prRes":0.0,"qual":0,"ss":0.0,"used":false,"health":1},{"PRN":408,"gnssid":3,"svid":8,"az":335.0,"el":16.0,"prRes":0.0,"qual":0,"ss":0.0,"used":false,"health":1},{"PRN":413,"gnssid":3,"svid":13,"az":343.0,"el":9.0,"prRes":0.0,"qual":0,"ss":0.0,"used":false,"health":1},{"PRN":414,"gnssid":3,"svid":14,"az":203.0,"el":28.0,"prRes":-4.8,"qual":7,"ss":28.0,"used":true,"health":1},{"PRN":424,"gnssid":3,"svid":24,"az":32.0,"el":74.0,"prRes":-2.7,"qual":7,"ss":42.0,"used":true,"health":1},{"PRN":425,"gnssid":3,"svid":25,"az":274.0,"el":38.0,"prRes":0.0,"qual":0,"ss":0.0,"used":false,"health":1},{"PRN":426,"gnssid":3,"svid":26,"az":75.0,"el":28.0,"prRes":-4.0,"qual":7,"ss":35.0,"used":true,"health":1},{"PRN":433,"gnssid":3,"svid":33,"az":231.0,"el":41.0,"prRes":1.7,"qual":7,"ss":34.0,"used":true,"health":1},{"PRN":434,"gnssid":3,"svid":34,"az":163.0,"el":6.0,"prRes":0.0,"qual":0,"ss":0.0,"used":false,"health":1},{"PRN":435,"gnssid":3,"svid":35,"az":63.0,"el":23.0,"prRes":-1.5,"qual":7,"ss":37.0,"used":true,"health":1},{"PRN":438,"gnssid":3,"svid":38,"az":319.0,"el":18.0,"prRes":-0.8,"qual":7,"ss":29.0,"used":true,"health":1},{"PRN":441,"gnssid":3,"svid":41,"az":298.0,"el":35.0,"prRes":1.2,"qual":7,"ss":39.0,"used":true,"health":1},{"PRN":442,"gnssid":3,"svid":42,"az":183.0,"el":10.0,"prRes":-14.3,"qual":7,"ss":27.0,"used":false,"health":1},{"PRN":444,"gnssid":3,"svid":44,"az":114.0,"el":27.0,"prRes":0.0,"qual":0,"ss":0.0,"used":false,"health":1},{"PRN":65,"gnssid":6,"svid":1,"az":264.0,"el":57.0,"prRes":2.6,"qual":7,"ss":47.0,"used":true,"health":1},{"PRN":66,"gnssid":6,"svid":2,"az":326.0,"el":28.0,"prRes":-6.4,"qual":7,"ss":28.0,"used":true,"health":1},{"PRN":72,"gnssid":6,"svid":8,"az":190.0,"el":29.0,"prRes":-8.7,"qual":7,"ss":35.0,"used":true,"health":1},{"PRN":74,"gnssid":6,"svid":10,"az":52.0,"el":34.0,"prRes":4.4,"qual":7,"ss":28.0,"used":true,"health":1},{"PRN":75,"gnssid":6,"svid":11,"az":330.0,"el":65.0,"prRes":0.0,"qual":4,"ss":17.0,"used":false,"health":1},{"PRN":76,"gnssid":6,"svid":12,"az":265.0,"el":22.0,"prRes":9.8,"qual":4,"ss":23.0,"used":true,"health":1},{"PRN":83,"gnssid":6,"svid":19,"az":23.0,"el":11.0,"prRes":0.0,"qual":4,"ss":22.0,"used":false,"health":1},{"PRN":84,"gnssid":6,"svid":20,"az":77.0,"el":22.0,"prRes":-8.3,"qual":7,"ss":29.0,"used":true,"health":1},{"PRN":85,"gnssid":6,"svid":21,"az":124.0,"el":10.0,"prRes":0.0,"qual":0,"ss":0.0,"used":false,"health":1}]}
$GPGSV,10,1,38,05,16,278,19,07,60,087,42,08,31,053,37,09,17,161,27*49
$GPGSV,10,2,38,13,33,312,36,14,57,242,40,17,14,180,31,21,16,246,19*45
$GPGSV,10,3,38,22,40,236,26,27,06,034,00,30,78,343,30,44,39,174,34*47
$GPGSV,10,4,38,46,39,191,30,51,37,160,00,302,26,233,25,303,70,269,44*48
$GPGSV,10,5,38,305,43,161,32,308,24,315,33,312,00,079,00,316,72,052,39*48
$GPGSV,10,6,38,324,44,053,38,325,82,234,29,414,28,203,28,424,74,032,42*4B
$GPGSV,10,7,38,426,28,075,35,433,41,231,34,435,23,063,37,438,18,319,29*48
$GPGSV,10,8,38,441,35,298,39,442,10,183,27,65,57,264,47,66,28,326,28*4C
$GPGSV,10,9,38,72,29,190,35,74,34,052,28,75,65,330,17,76,22,265,23*45
$GPGSV,10,10,38,83,11,023,22,84,22,077,29*7F
{"class":"SKY","time":"2025-09-14T02:40:16.000Z","gdop":1.10,"hdop":0.49,"pdop":0.96,"tdop":0.54,"xdop":0.34,"ydop":0.35,"vdop":0.83,"nSat":38,"uSat":33,"satellites":[{"PRN":5,"gnssid":0,"svid":5,"az":278.0,"el":16.0,"prRes":0.0,"qual":3,"ss":19.0,"used":false,"health":1},{"PRN":7,"gnssid":0,"svid":7,"az":87.0,"el":60.0,"prRes":1.4,"qual":7,"ss":42.0,"used":true,"health":1},{"PRN":8,"gnssid":0,"svid":8,"az":53.0,"el":31.0,"prRes":1.4,"qual":7,"ss":37.0,"used":true,"health":1},{"PRN":9,"gnssid":0,"svid":9,"az":161.0,"el":17.0,"prRes":-6.9,"qual":7,"ss":27.0,"used":true,"health":1},{"PRN":13,"gnssid":0,"svid":13,"az":312.0,"el":33.0,"prRes":1.1,"qual":7,"ss":36.0,"used":true,"health":1},{"PRN":14,"gnssid":0,"svid":14,"az":242.0,"el":57.0,"prRes":-1.2,"qual":7,"ss":40.0,"used":true,"health":1},{"PRN":17,"gnssid":0,"svid":17,"az":180.0,"el":14.0,"prRes":-5.2,"qual":7,"ss":31.0,"used":true,"health":1},{"PRN":21,"gnssid":0,"svid":21,"az":246.0,"el":16.0,"prRes":0.0,"qual":3,"ss":19.0,"used":false,"health":1},{"PRN":22,"gnssid":0,"svid":22,"az":236.0,"el":40.0,"prRes":-11.1,"qual":7,"ss":26.0,"used":true,"health":1},{"PRN":27,"gnssid":0,"svid":27,"az":34.0,"el":6.0,"prRes":0.0,"qual":1,"ss":0.0,"used":false,"health":1},{"PRN":30,"gnssid":0,"svid":30,"az":343.0,"el":78.0,"prRes":4.1,"qual":7,"ss":30.0,"used":true,"health":1},{"PRN":44,"gnssid":1,"svid":131,"az":174.0,"el":39.0,"prRes":3.6,"qual":7,"ss":34.0,"used":true,"health":1},{"PRN":46,"gnssid":1,"svid":133,"az":191.0,"el":39.0,"prRes":-8.0,"qual":6,"ss":30.0,"used":true,"health":1},{"PRN":51,"gnssid":1,"svid":138,"az":160.0,"el":37.0,"prRes":0.0,"qual":1,"ss":0.0,"used":false},{"PRN":302,"gnssid":2,"svid":2,"az":233.0,"el":26.0,"prRes":-14.5,"qual":4,"ss":25.0,"used":true,"health":1},{"PRN":303,"gnssid":2,"svid":3,"az":269.0,"el":70.0,"prRes":0.1,"qual":7,"ss":44.0,"used":true,"health":1},{"PRN":305,"gnssid":2,"svid":5,"az":161.0,"el":43.0,"prRes":-3.1,"qual":7,"ss":32.0,"used":true,"health":1},{"PRN":308,"gnssid":2,"svid":8,"az":315.0,"el":24.0,"prRes":0.9,"qual":7,"ss":33.0,"used":true,"health":1},{"PRN":312,"gnssid":2,"svid":12,"az":79.0,"el":0.0,"prRes":0.0,"qual":1,"ss":0.0,"used":false,"health":1},{"PRN":316,"gnssid":2,"svid":16,"az":52.0,"el":72.0,"prRes":3.0,"qual":7,"ss":39.0,"used":true,"health":1},{"PRN":324,"gnssid":2,"svid":24,"az":53.0,"el":44.0,"prRes":-1.7,"qual":7,"ss":38.0,"used":true,"health":1},{"PRN":325,"gnssid":2,"svid":25,"az":234.0,"el":82.0,"prRes":5.1,"qual":7,"ss":29.0,"used":true,"health":1},{"PRN":414,"gnssid":3,"svid":14,"az":203.0,"el":28.0,"prRes":-4.8,"qual":7,"ss":28.0,"used":true,"health":1},{"PRN":424,"gnssid":3,"svid":24,"az":32.0,"el":74.0,"prRes":-2.7,"qual":7,"ss":42.0,"used":true,"health":1},{"PRN":426,"gnssid":3,"svid":26,"az":75.0,"el":28.0,"prRes":-4.0,"qual":7,"ss":35.0,"used":true,"health":1},{"PRN":433,"gnssid":3,"svid":33,"az":231.0,"el":41.0,"prRes":1.7,"qual":7,"ss":34.0,"used":true,"health":1},{"PRN":435,"gnssid":3,"svid":35,"az":63.0,"el":23.0,"prRes":-1.5,"qual":7,"ss":37.0,"used":true,"health":1},{"PRN":438,"gnssid":3,"svid":38,"az":319.0,"el":18.0,"prRes":-0.8,"qual":7,"ss":29.0,"used":true,"health":1},{"PRN":441,"gnssid":3,"svid":41,"az":298.0,"el":35.0,"prRes":1.2,"qual":7,"ss":39.0,"used":true,"health":1},{"PRN":442,"gnssid":3,"svid":42,"az":183.0,"el":10.0,"prRes":-14.3,"qual":7,"ss":27.0,"used":true,"health":1},{"PRN":65,"gnssid":6,"svid":1,"freqid":8,"az":264.0,"el":57.0,"prRes":2.6,"qual":7,"ss":47.0,"used":true,"health":1},{"PRN":66,"gnssid":6,"svid":2,"freqid":3,"az":326.0,"el":28.0,"prRes":-6.4,"qual":7,"ss":28.0,"used":true,"health":1},{"PRN":72,"gnssid":6,"svid":8,"freqid":13,"az":190.0,"el":29.0,"prRes":-8.7,"qual":7,"ss":35.0,"used":true,"health":1},{"PRN":74,"gnssid":6,"svid":10,"freqid":0,"az":52.0,"el":34.0,"prRes":4.4,"qual":7,"ss":28.0,"used":true,"health":1},{"PRN":75,"gnssid":6,"svid":11,"freqid":7,"az":330.0,"el":65.0,"prRes":0.0,"qual":4,"ss":17.0,"used":true,"health":1},{"PRN":76,"gnssid":6,"svid":12,"freqid":6,"az":265.0,"el":22.0,"prRes":9.8,"qual":4,"ss":23.0,"used":true,"health":1},{"PRN":83,"gnssid":6,"svid":19,"freqid":10,"az":23.0,"el":11.0,"prRes":0.0,"qual":4,"ss":22.0,"used":true,"health":1},{"PRN":84,"gnssid":6,"svid":20,"freqid":9,"az":77.0,"el":22.0,"prRes":-8.3,"qual":7,"ss":29.0,"used":true,"health":1}]}
{"class":"SKY","time":"2025-09-14T02:40:16.000Z","gdop":1.11,"hdop":0.49,"pdop":0.97,"tdop":0.54,"xdop":0.34,"ydop":0.35,"vdop":0.83}
$GPZDA,024016.00,14,09,2025,00,00*6E
$GPGGA,024016.00,4404.1291640,N,12118.8446560,W,2,33,0.49,1127.32,M,-22.154,M,,*63
$GPRMC,024016.00,A,4404.1291640,N,12118.8446560,W,0.0058,0.000,140925,14.4,E*47
$GPGSA,A,3,7,8,9,13,14,17,22,30,44,,,,1.0,0.5,0.8*0A
$GPGBS,024016.00,1.275,1.312,1.725,,,,*41
{"class":"TPV","status":2,"mode":3,"time":"2025-09-14T02:40:16.000Z","leapseconds":18,"ept":0.005,"lat":44.068819400,"lon":-121.314077600,"altHAE":1105.9690,"altMSL":1127.3190,"alt":1127.3190,"epx":1.275,"epy":1.312,"epv":1.725,"track":0.0000,"magtrack":14.4184,"magvar":14.4,"speed":0.003,"climb":0.021,"eps":2.62,"epc":3.45,"ecefx":-2386053.0600,"ecefy":-3922196.6100,"ecefz":4414358.2400,"ecefvx":0.00,"ecefvy":0.00,"ecefvz":0.00,"ecefpAcc":2.0500,"ecefvAcc":0.1500,"errEllOr":168.86,"errEllMaj":2.341,"errEllMin":1.398,"velN":0.000,"velE":0.000,"velD":0.000,"geoidSep":-22.154,"eph":1.114,"sep":4.564,"clockbias":-922399,"clockdrift":-176}
{"class":"ATT","time":"2025-09-14T02:40:16.000Z","heading":0.000,"pitch":0.000,"roll":0.000}
{"class":"SKY","time":"2025-09-14T02:40:16.000Z","gdop":1.11,"hdop":0.49,"pdop":0.97,"tdop":0.54,"xdop":0.34,"ydop":0.35,"vdop":0.83}
