{"class":"SKY","gdop":1.80,"hdop":0.79,"pdop":1.52,"tdop":0.96,"xdop":0.50,"ydop":0.61,"vdop":1.30}
{"class":"SKY","gdop":1.80,"hdop":0.79,"pdop":1.52,"tdop":0.96,"xdop":0.50,"ydop":0.61,"vdop":1.30}
$GPZDA,212757.00,10,06,2020,00,00*65
$GPGGA,212757.00,4404.1318940,N,12118.8457360,W,1,00,0.79,1130.02,M,-22.154,M,,*6A
$GPRMC,212757.00,A,4404.1318940,N,12118.8457360,W,0.0875,120.452,100620,14.4,E*42
$GPGSA,A,3,,,,,,,,,,,,,1.5,0.8,1.3*3C
$GPGBS,212757.00,7.500,9.150,7.136,,,,*49
{"class":"TPV","mode":3,"time":"2020-06-10T21:27:57.000Z","leapseconds":18,"ept":0.005,"lat":44.068864900,"lon":-121.314095600,"altHAE":1108.6720,"altMSL":1130.0220,"alt":1130.0220,"epx":7.500,"epy":9.150,"epv":7.136,"track":120.4520,"magtrack":134.8705,"magvar":14.4,"speed":0.045,"climb":0.111,"eps":18.30,"epc":14.27,"ecefx":-2386053.47,"ecefy":-3922194.52,"ecefz":4414363.75,"ecefvx":0.00,"ecefvy":0.07,"ecefvz":-0.08,"ecefpAcc":8.84,"ecefvAcc":0.48,"geoidSep":-22.154,"eph":5.217,"sep":28.880}
{"class":"SKY","gdop":1.80,"hdop":0.79,"pdop":1.52,"tdop":0.96,"xdop":0.50,"ydop":0.61,"vdop":1.30}
$GPZDA,212758.00,10,06,2020,00,00*6A
$GPGGA,212758.00,4404.1319240,N,12118.8457480,W,1,00,0.79,1129.95,M,-22.154,M,,*60
$GPRMC,212758.00,A,4404.1319240,N,12118.8457480,W,0.1613,120.452,100620,14.4,E*41
$GPGSA,A,3,,,,,,,,,,,,,1.5,0.8,1.3*3C
$GPGBS,212758.00,7.500,9.150,7.137,,,,*47
{"class":"TPV","mode":3,"time":"2020-06-10T21:27:58.000Z","leapseconds":18,"ept":0.005,"lat":44.068865400,"lon":-121.314095800,"altHAE":1108.6030,"altMSL":1129.9530,"alt":1129.9530,"epx":7.500,"epy":9.150,"epv":7.137,"track":120.4520,"magtrack":134.8705,"magvar":14.4,"speed":0.083,"climb":-0.069,"eps":18.30,"epc":14.27,"ecefx":-2386053.44,"ecefy":-3922194.43,"ecefz":4414363.75,"ecefvx":0.09,"ecefvy":0.10,"ecefvz":-0.02,"ecefpAcc":8.84,"ecefvAcc":0.54,"geoidSep":-22.154,"eph":5.217,"sep":28.880}
$GPGSV,9,1,35,02,50,053,14,05,46,124,21,06,15,052,00,12,58,165,23*78
$GPGSV,9,2,35,18,10,232,00,25,73,245,34,29,48,297,24,31,17,307,00*75
$GPGSV,9,3,35,301,27,316,00,303,11,077,00,305,03,029,00,308,04,125,00*71
$GPGSV,9,4,35,313,78,300,20,315,41,055,15,321,62,257,29,326,27,250,18*78
$GPGSV,9,5,35,327,35,177,19,417,52,250,00,419,12,155,28,420,30,106,25*79
$GPGSV,9,6,35,424,07,329,00,426,35,288,24,429,69,043,33,430,19,078,21*7B
$GPGSV,9,7,35,435,47,282,33,436,02,179,17,65,05,013,00,66,26,072,00*77
$GPGSV,9,8,35,67,14,124,00,73,23,327,00,79,20,188,22,80,54,247,27*7E
$GPGSV,9,9,35,81,30,054,00,82,64,347,19,83,35,274,00*48
{"class":"SKY","time":"2020-06-10T21:27:59.000Z","gdop":1.81,"hdop":0.79,"pdop":1.53,"tdop":0.97,"xdop":0.50,"ydop":0.61,"vdop":1.31,"nSat":35,"uSat":18,"satellites":[{"PRN":2,"gnssid":0,"svid":2,"az":53.0,"el":50.0,"prRes":5.3,"qual":4,"ss":14.0,"used":true,"health":1},{"PRN":5,"gnssid":0,"svid":5,"az":124.0,"el":46.0,"prRes":12.4,"qual":4,"ss":21.0,"used":true,"health":1},{"PRN":6,"gnssid":0,"svid":6,"az":52.0,"el":15.0,"prRes":5.2,"qual":1,"ss":0.0,"used":false,"health":1},{"PRN":12,"gnssid":0,"svid":12,"az":165.0,"el":58.0,"prRes":16.5,"qual":4,"ss":23.0,"used":true,"health":1},{"PRN":18,"gnssid":0,"svid":18,"az":232.0,"el":10.0,"prRes":23.2,"qual":1,"ss":0.0,"used":false,"health":1},{"PRN":25,"gnssid":0,"svid":25,"az":245.0,"el":73.0,"prRes":24.5,"qual":7,"ss":34.0,"used":true,"health":1},{"PRN":29,"gnssid":0,"svid":29,"az":297.0,"el":48.0,"prRes":29.7,"qual":4,"ss":24.0,"used":true,"health":1},{"PRN":31,"gnssid":0,"svid":31,"az":307.0,"el":17.0,"prRes":30.7,"qual":1,"ss":0.0,"used":false,"health":1},{"PRN":301,"gnssid":2,"svid":1,"az":316.0,"el":27.0,"prRes":31.6,"qual":1,"ss":0.0,"used":false,"health":1},{"PRN":303,"gnssid":2,"svid":3,"az":77.0,"el":11.0,"prRes":7.7,"qual":1,"ss":0.0,"used":false,"health":1},{"PRN":305,"gnssid":2,"svid":5,"az":29.0,"el":3.0,"prRes":2.9,"qual":1,"ss":0.0,"used":false,"health":1},{"PRN":308,"gnssid":2,"svid":8,"az":125.0,"el":4.0,"prRes":12.5,"qual":1,"ss":0.0,"used":false,"health":1},{"PRN":313,"gnssid":2,"svid":13,"az":300.0,"el":78.0,"prRes":30.0,"qual":4,"ss":20.0,"used":true,"health":1},{"PRN":315,"gnssid":2,"svid":15,"az":55.0,"el":41.0,"prRes":5.5,"qual":4,"ss":15.0,"used":true,"health":1},{"PRN":321,"gnssid":2,"svid":21,"az":257.0,"el":62.0,"prRes":25.7,"qual":7,"ss":29.0,"used":true,"health":1},{"PRN":326,"gnssid":2,"svid":26,"az":250.0,"el":27.0,"prRes":25.0,"qual":4,"ss":18.0,"used":false,"health":1},{"PRN":327,"gnssid":2,"svid":27,"az":177.0,"el":35.0,"prRes":17.7,"qual":4,"ss":19.0,"used":true,"health":1},{"PRN":417,"gnssid":3,"svid":17,"az":250.0,"el":52.0,"prRes":25.0,"qual":0,"ss":0.0,"used":false,"health":2},{"PRN":419,"gnssid":3,"svid":19,"az":155.0,"el":12.0,"prRes":15.5,"qual":7,"ss":28.0,"used":true,"health":1},{"PRN":420,"gnssid":3,"svid":20,"az":106.0,"el":30.0,"prRes":10.6,"qual":4,"ss":25.0,"used":true,"health":1},{"PRN":424,"gnssid":3,"svid":24,"az":329.0,"el":7.0,"prRes":32.9,"qual":1,"ss":0.0,"used":false,"health":1},{"PRN":426,"gnssid":3,"svid":26,"az":288.0,"el":35.0,"prRes":28.8,"qual":4,"ss":24.0,"used":true,"health":1},{"PRN":429,"gnssid":3,"svid":29,"az":43.0,"el":69.0,"prRes":4.3,"qual":7,"ss":33.0,"used":true,"health":1},{"PRN":430,"gnssid":3,"svid":30,"az":78.0,"el":19.0,"prRes":7.8,"qual":4,"ss":21.0,"used":true,"health":1},{"PRN":435,"gnssid":3,"svid":35,"az":282.0,"el":47.0,"prRes":28.2,"qual":7,"ss":33.0,"used":true,"health":1},{"PRN":436,"gnssid":3,"svid":36,"az":179.0,"el":2.0,"prRes":17.9,"qual":4,"ss":17.0,"used":false,"health":1},{"PRN":65,"gnssid":6,"svid":1,"az":13.0,"el":5.0,"prRes":1.3,"qual":1,"ss":0.0,"used":false,"health":1},{"PRN":66,"gnssid":6,"svid":2,"az":72.0,"el":26.0,"prRes":7.2,"qual":0,"ss":0.0,"used":false,"health":1},{"PRN":67,"gnssid":6,"svid":3,"az":124.0,"el":14.0,"prRes":12.4,"qual":1,"ss":0.0,"used":false,"health":1},{"PRN":73,"gnssid":6,"svid":9,"az":327.0,"el":23.0,"prRes":32.7,"qual":1,"ss":0.0,"used":false,"health":1},{"PRN":79,"gnssid":6,"svid":15,"az":188.0,"el":20.0,"prRes":18.8,"qual":4,"ss":22.0,"used":true,"health":1},{"PRN":80,"gnssid":6,"svid":16,"az":247.0,"el":54.0,"prRes":24.7,"qual":7,"ss":27.0,"used":true,"health":1},{"PRN":81,"gnssid":6,"svid":17,"az":54.0,"el":30.0,"prRes":5.4,"qual":1,"ss":0.0,"used":false,"health":1},{"PRN":82,"gnssid":6,"svid":18,"az":347.0,"el":64.0,"prRes":34.7,"qual":4,"ss":19.0,"used":true,"health":1},{"PRN":83,"gnssid":6,"svid":19,"az":274.0,"el":35.0,"prRes":27.4,"qual":0,"ss":0.0,"used":false,"health":1}]}
{"class":"SKY","time":"2020-06-10T21:27:59.000Z","gdop":1.80,"hdop":0.79,"pdop":1.52,"tdop":0.96,"xdop":0.50,"ydop":0.61,"vdop":1.30}
$GPZDA,212759.00,10,06,2020,00,00*6B
$GPGGA,212759.00,4404.1318760,N,12118.8457960,W,1,18,0.79,1130.23,M,-22.154,M,,*68
$GPRMC,212759.00,A,4404.1318760,N,12118.8457960,W,0.2060,120.452,100620,14.4,E*44
$GPGSA,A,3,2,5,12,25,29,,,,,,,,1.5,0.8,1.3*34
$GPGBS,212759.00,7.500,9.150,7.146,,,,*40
{"class":"TPV","mode":3,"time":"2020-06-10T21:27:59.000Z","leapseconds":18,"ept":0.005,"lat":44.068864600,"lon":-121.314096600,"altHAE":1108.8780,"altMSL":1130.2280,"alt":1130.2280,"epx":7.500,"epy":9.150,"epv":7.146,"track":120.4520,"magtrack":134.8705,"magvar":14.4,"speed":0.106,"climb":0.275,"eps":18.30,"epc":14.28,"ecefx":-2386053.62,"ecefy":-3922194.63,"ecefz":4414363.88,"ecefvx":-0.10,"ecefvy":0.01,"ecefvz":-0.04,"ecefpAcc":8.85,"ecefvAcc":0.45,"geoidSep":-22.154,"eph":5.224,"sep":29.012}
{"class":"SKY","time":"2020-06-10T21:27:59.000Z","gdop":1.80,"hdop":0.79,"pdop":1.52,"tdop":0.96,"xdop":0.50,"ydop":0.61,"vdop":1.30}
$GPZDA,212800.00,10,06,2020,00,00*68
$GPGGA,212800.00,4404.1318340,N,12118.8458860,W,1,18,0.79,1130.33,M,-22.154,M,,*62
$GPRMC,212800.00,A,4404.1318340,N,12118.8458860,W,0.2099,120.452,100620,14.4,E*49
$GPGSA,A,3,2,5,12,25,29,,,,,,,,1.5,0.8,1.3*34
$GPGBS,212800.00,7.500,9.150,7.152,,,,*46
{"class":"TPV","mode":3,"time":"2020-06-10T21:28:00.000Z","leapseconds":18,"ept":0.005,"lat":44.068863900,"lon":-121.314098100,"altHAE":1108.9760,"altMSL":1130.3260,"alt":1130.3260,"epx":7.500,"epy":9.150,"epv":7.152,"track":120.4520,"magtrack":134.8705,"magvar":14.4,"speed":0.108,"climb":0.098,"eps":18.30,"epc":14.30,"ecefx":-2386053.80,"ecefy":-3922194.67,"ecefz":4414363.88,"ecefvx":-0.10,"ecefvy":0.02,"ecefvz":-0.04,"ecefpAcc":8.86,"ecefvAcc":0.44,"geoidSep":-22.154,"eph":5.230,"sep":28.880}
{"class":"SUBFRAME","gnssId":0,"tSV":25,"frame":3,"TOW17":336498,"scaled":false,"EPHEM3":{"IODE":19,"IDOT":4294966672,"Cic":4294967197,"Omega0":493676421,"Cis":3,"i0":660074898,"Crc":6676,"omega":641263080,"Omegad":-22167}}
{"class":"SKY","time":"2020-06-10T21:27:59.000Z","gdop":1.80,"hdop":0.79,"pdop":1.52,"tdop":0.96,"xdop":0.50,"ydop":0.61,"vdop":1.30}
$GPZDA,212801.00,10,06,2020,00,00*69
$GPGGA,212801.00,4404.1318760,N,12118.8459100,W,1,18,0.79,1130.24,M,-22.154,M,,*6D
$GPRMC,212801.00,A,4404.1318760,N,12118.8459100,W,0.2002,120.452,100620,14.4,E*42
$GPGSA,A,3,2,5,12,25,29,,,,,,,,1.5,0.8,1.3*34
$GPGBS,212801.00,7.500,9.150,7.156,,,,*43
{"class":"TPV","mode":3,"time":"2020-06-10T21:28:01.000Z","leapseconds":18,"ept":0.005,"lat":44.068864600,"lon":-121.314098500,"altHAE":1108.8910,"altMSL":1130.2410,"alt":1130.2410,"epx":7.500,"epy":9.150,"epv":7.156,"track":120.4520,"magtrack":134.8705,"magvar":14.4,"speed":0.103,"climb":-0.085,"eps":18.30,"epc":14.31,"ecefx":-2386053.76,"ecefy":-3922194.55,"ecefz":4414363.88,"ecefvx":0.08,"ecefvy":0.08,"ecefvz":0.03,"ecefpAcc":8.87,"ecefvAcc":0.55,"geoidSep":-22.154,"eph":5.236,"sep":28.880}
{"class":"SKY","time":"2020-06-10T21:27:59.000Z","gdop":1.80,"hdop":0.79,"pdop":1.52,"tdop":0.96,"xdop":0.50,"ydop":0.61,"vdop":1.30}
$GPZDA,212802.00,10,06,2020,00,00*6A
$GPGGA,212802.00,4404.1319180,N,12118.8458980,W,1,18,0.79,1130.22,M,-22.154,M,,*60
$GPRMC,212802.00,A,4404.1319180,N,12118.8458980,W,0.0641,120.452,100620,14.4,E*4A
$GPGSA,A,3,2,5,12,25,29,,,,,,,,1.5,0.8,1.3*34
$GPGBS,212802.00,7.500,9.150,7.162,,,,*47
{"class":"TPV","mode":3,"time":"2020-06-10T21:28:02.000Z","leapseconds":18,"ept":0.005,"lat":44.068865300,"lon":-121.314098300,"altHAE":1108.8670,"altMSL":1130.2170,"alt":1130.2170,"epx":7.500,"epy":9.150,"epv":7.162,"track":120.4520,"magtrack":134.8705,"magvar":14.4,"speed":0.033,"climb":-0.024,"eps":18.30,"epc":14.32,"ecefx":-2386053.71,"ecefy":-3922194.50,"ecefz":4414363.92,"ecefvx":0.03,"ecefvy":-0.01,"ecefvz":0.01,"ecefpAcc":8.88,"ecefvAcc":0.43,"geoidSep":-22.154,"eph":5.243,"sep":28.880}
$GPALM,1,1,00,0061,00,0000,00,0000,0000,00000,000000,000000,000000,000,000*4C
{"class":"SUBFRAME","gnssId":3,"tSV":29,"frame":1,"WN":753,"SOW":336480,"scaled":true,"EPHEMERIS":{"sv":29,"AODC":1,"AODE":0,"af0":2.406896091998e-04,"af1":5.202949182603e-12,"af2":-1.244121992927e-17,"alpha0":5.587935447693e-09,"alpha1":5.960464477539e-08,"alpha2":-5.364418029785e-07,"alpha3":1.013278961182e-06,"beta0":5.734400000000e+05,"beta1":-5.898240000000e+05,"beta2":4.521984000000e+06,"beta3":7.208960000000e+05,"TGD1":0.1,"TGD2":0.1,"toc":334800,"URAI":0,"WN":753}}
$GPALM,1,1,00,0061,00,0000,00,0000,0000,00000,000000,000000,000000,000,000*4C
{"class":"SUBFRAME","gnssId":3,"tSV":35,"frame":1,"WN":753,"SOW":336480,"scaled":true,"EPHEMERIS":{"sv":35,"AODC":1,"AODE":0,"af0":-8.028624579310e-04,"af1":1.794919768372e-11,"af2":-1.244121992927e-17,"alpha0":5.587935447693e-09,"alpha1":5.960464477539e-08,"alpha2":-5.364418029785e-07,"alpha3":1.013278961182e-06,"beta0":5.734400000000e+05,"beta1":-5.898240000000e+05,"beta2":4.521984000000e+06,"beta3":7.208960000000e+05,"TGD1":-2.3,"TGD2":-2.3,"toc":334800,"URAI":0,"WN":753}}
$GPALM,1,1,00,0061,00,0000,00,0000,0000,00000,000000,000000,000000,000,000*4C
{"class":"SUBFRAME","gnssId":3,"tSV":26,"frame":1,"WN":753,"SOW":336480,"scaled":true,"EPHEMERIS":{"sv":26,"AODC":1,"AODE":0,"af0":7.133866893128e-04,"af1":1.404210081546e-11,"af2":-1.244121992927e-17,"alpha0":5.587935447693e-09,"alpha1":5.960464477539e-08,"alpha2":-5.364418029785e-07,"alpha3":1.013278961182e-06,"beta0":5.734400000000e+05,"beta1":-5.898240000000e+05,"beta2":4.521984000000e+06,"beta3":7.208960000000e+05,"TGD1":-4.5,"TGD2":-4.5,"toc":334800,"URAI":0,"WN":753}}
$GPALM,1,1,00,0061,00,0000,00,0000,0000,00000,000000,000000,000000,000,000*4C
{"class":"SUBFRAME","gnssId":3,"tSV":19,"frame":1,"WN":753,"SOW":336480,"scaled":true,"EPHEMERIS":{"sv":19,"AODC":1,"AODE":0,"af0":4.401560872793e-04,"af1":1.193001253341e-11,"af2":-1.244121992927e-17,"alpha0":5.587935447693e-09,"alpha1":5.960464477539e-08,"alpha2":-5.364418029785e-07,"alpha3":1.013278961182e-06,"beta0":5.734400000000e+05,"beta1":-5.898240000000e+05,"beta2":4.521984000000e+06,"beta3":7.208960000000e+05,"TGD1":12.3,"TGD2":12.3,"toc":334800,"URAI":0,"WN":753}}
{"class":"SKY","time":"2020-06-10T21:27:59.000Z","gdop":1.80,"hdop":0.79,"pdop":1.52,"tdop":0.96,"xdop":0.50,"ydop":0.61,"vdop":1.30}
$GPZDA,212803.00,10,06,2020,00,00*6B
$GPGGA,212803.00,4404.1320080,N,12118.8458860,W,1,18,0.79,1130.05,M,-22.154,M,,*60
$GPRMC,212803.00,A,4404.1320080,N,12118.8458860,W,0.3849,120.452,100620,14.4,E*4A
$GPGSA,A,3,2,5,12,25,29,,,,,,,,1.5,0.8,1.3*34
$GPGBS,212803.00,7.500,9.150,7.169,,,,*4D
{"class":"TPV","mode":3,"time":"2020-06-10T21:28:03.000Z","leapseconds":18,"ept":0.005,"lat":44.068866800,"lon":-121.314098100,"altHAE":1108.6960,"altMSL":1130.0460,"alt":1130.0460,"epx":7.500,"epy":9.150,"epv":7.169,"track":120.4520,"magtrack":134.8705,"magvar":14.4,"speed":0.198,"climb":-0.171,"eps":18.30,"epc":14.33,"ecefx":-2386053.58,"ecefy":-3922194.31,"ecefz":4414363.92,"ecefvx":0.18,"ecefvy":0.12,"ecefvz":0.06,"ecefpAcc":8.88,"ecefvAcc":0.54,"geoidSep":-22.154,"eph":5.247,"sep":28.880}
{"class":"SKY","time":"2020-06-10T21:27:59.000Z","gdop":1.80,"hdop":0.79,"pdop":1.52,"tdop":0.96,"xdop":0.50,"ydop":0.61,"vdop":1.30}
$GPZDA,212804.00,10,06,2020,00,00*6C
$GPGGA,212804.00,4404.1320860,N,12118.8458980,W,1,18,0.79,1129.98,M,-22.154,M,,*62
$GPRMC,212804.00,A,4404.1320860,N,12118.8458980,W,0.2857,120.452,100620,14.4,E*4A
$GPGSA,A,3,2,5,12,25,29,,,,,,,,1.5,0.8,1.3*34
$GPGBS,212804.00,7.500,9.150,7.172,,,,*40
{"class":"TPV","mode":3,"time":"2020-06-10T21:28:04.000Z","leapseconds":18,"ept":0.005,"lat":44.068868100,"lon":-121.314098300,"altHAE":1108.6290,"altMSL":1129.9790,"alt":1129.9790,"epx":7.500,"epy":9.150,"epv":7.172,"track":120.4520,"magtrack":134.8705,"magvar":14.4,"speed":0.147,"climb":-0.067,"eps":18.30,"epc":14.34,"ecefx":-2386053.51,"ecefy":-3922194.17,"ecefz":4414363.98,"ecefvx":0.05,"ecefvy":0.15,"ecefvz":0.05,"ecefpAcc":8.89,"ecefvAcc":0.56,"geoidSep":-22.154,"eph":5.247,"sep":28.880}
{"class":"SKY","time":"2020-06-10T21:27:59.000Z","gdop":1.80,"hdop":0.79,"pdop":1.52,"tdop":0.96,"xdop":0.50,"ydop":0.61,"vdop":1.30}
$GPZDA,212805.00,10,06,2020,00,00*6D
$GPGGA,212805.00,4404.1321100,N,12118.8459640,W,1,18,0.79,1129.97,M,-22.154,M,,*60
$GPRMC,212805.00,A,4404.1321100,N,12118.8459640,W,0.1769,120.452,100620,14.4,E*46
$GPGSA,A,3,2,5,12,25,29,,,,,,,,1.5,0.8,1.3*34
$GPGBS,212805.00,7.500,9.150,7.176,,,,*45
{"class":"TPV","mode":3,"time":"2020-06-10T21:28:05.000Z","leapseconds":18,"ept":0.005,"lat":44.068868500,"lon":-121.314099400,"altHAE":1108.6220,"altMSL":1129.9720,"alt":1129.9720,"epx":7.500,"epy":9.150,"epv":7.176,"track":120.4520,"magtrack":134.8705,"magvar":14.4,"speed":0.091,"climb":-0.007,"eps":18.30,"epc":14.35,"ecefx":-2386053.57,"ecefy":-3922194.10,"ecefz":4414364.00,"ecefvx":0.02,"ecefvy":0.15,"ecefvz":-0.03,"ecefpAcc":8.89,"ecefvAcc":0.55,"geoidSep":-22.154,"eph":5.251,"sep":28.880}
{"class":"SKY","time":"2020-06-10T21:27:59.000Z","gdop":1.80,"hdop":0.79,"pdop":1.52,"tdop":0.96,"xdop":0.50,"ydop":0.61,"vdop":1.30}
$GPZDA,212806.00,10,06,2020,00,00*6E
$GPGGA,212806.00,4404.1320740,N,12118.8459580,W,1,18,0.79,1130.14,M,-22.154,M,,*6C
$GPRMC,212806.00,A,4404.1320740,N,12118.8459580,W,0.0603,120.452,100620,14.4,E*45
$GPGSA,A,3,2,5,12,25,29,,,,,,,,1.5,0.8,1.3*34
$GPGBS,212806.00,7.500,9.150,7.180,,,,*4F
{"class":"TPV","mode":3,"time":"2020-06-10T21:28:06.000Z","leapseconds":18,"ept":0.005,"lat":44.068867900,"lon":-121.314099300,"altHAE":1108.7910,"altMSL":1130.1410,"alt":1130.1410,"epx":7.500,"epy":9.150,"epv":7.180,"track":120.4520,"magtrack":134.8705,"magvar":14.4,"speed":0.031,"climb":0.169,"eps":18.30,"epc":14.36,"ecefx":-2386053.65,"ecefy":-3922194.25,"ecefz":4414364.07,"ecefvx":0.04,"ecefvy":0.02,"ecefvz":-0.01,"ecefpAcc":8.90,"ecefvAcc":0.49,"geoidSep":-22.154,"eph":5.255,"sep":28.880}
{"class":"SUBFRAME","gnssId":0,"tSV":25,"frame":4,"TOW17":336504,"scaled":false,"dataid":55,"system_message":"EW6+:RYVM6: 3 CKHIIXBP"}
{"class":"SUBFRAME","gnssId":0,"tSV":29,"frame":4,"TOW17":336504,"scaled":false,"dataid":55,"system_message":"EW6+:RYVM6: 3 CKHIIXBP"}
{"class":"SKY","time":"2020-06-10T21:27:59.000Z","gdop":1.80,"hdop":0.79,"pdop":1.52,"tdop":0.96,"xdop":0.50,"ydop":0.61,"vdop":1.30}
$GPZDA,212807.00,10,06,2020,00,00*6F
$GPGGA,212807.00,4404.1320560,N,12118.8459820,W,1,18,0.79,1130.17,M,-22.154,M,,*69
$GPRMC,212807.00,A,4404.1320560,N,12118.8459820,W,0.0389,120.452,100620,14.4,E*44
$GPGSA,A,3,2,5,12,25,29,,,,,,,,1.5,0.8,1.3*34
$GPGBS,212807.00,7.500,9.150,7.183,,,,*4D
{"class":"TPV","mode":3,"time":"2020-06-10T21:28:07.000Z","leapseconds":18,"ept":0.005,"lat":44.068867600,"lon":-121.314099700,"altHAE":1108.8220,"altMSL":1130.1720,"alt":1130.1720,"epx":7.500,"epy":9.150,"epv":7.183,"track":120.4520,"magtrack":134.8705,"magvar":14.4,"speed":0.020,"climb":0.031,"eps":18.30,"epc":14.36,"ecefx":-2386053.70,"ecefy":-3922194.27,"ecefz":4414364.07,"ecefvx":0.01,"ecefvy":0.05,"ecefvz":-0.04,"ecefpAcc":8.90,"ecefvAcc":0.50,"geoidSep":-22.154,"eph":5.255,"sep":28.880}
{"class":"SKY","time":"2020-06-10T21:27:59.000Z","gdop":1.80,"hdop":0.79,"pdop":1.52,"tdop":0.96,"xdop":0.50,"ydop":0.61,"vdop":1.30}
$GPZDA,212808.00,10,06,2020,00,00*60
$GPGGA,212808.00,4404.1319720,N,12118.8460300,W,1,18,0.79,1130.38,M,-22.154,M,,*64
$GPRMC,212808.00,A,4404.1319720,N,12118.8460300,W,0.1983,120.452,100620,14.4,E*45
$GPGSA,A,3,2,5,12,25,29,,,,,,,,1.5,0.8,1.3*34
$GPGBS,212808.00,7.500,9.150,7.184,,,,*45
{"class":"TPV","mode":3,"time":"2020-06-10T21:28:08.000Z","leapseconds":18,"ept":0.005,"lat":44.068866200,"lon":-121.314100500,"altHAE":1109.0360,"altMSL":1130.3850,"alt":1130.3850,"epx":7.500,"epy":9.150,"epv":7.184,"track":120.4520,"magtrack":134.8705,"magvar":14.4,"speed":0.102,"climb":0.214,"eps":18.30,"epc":14.37,"ecefx":-2386053.89,"ecefy":-3922194.45,"ecefz":4414364.11,"ecefvx":-0.08,"ecefvy":0.00,"ecefvz":-0.06,"ecefpAcc":8.90,"ecefvAcc":0.48,"geoidSep":-22.154,"eph":5.258,"sep":28.880}
$GPALM,1,1,00,0061,00,0000,00,0000,0000,00000,000000,000000,000000,000,000*4C
{"class":"SUBFRAME","gnssId":3,"tSV":29,"frame":2,"SOW":336486,"scaled":true,"EPHEMERIS":{"sv":0,"Crc":2.980468750000e+02,"Crs":5.728125000000e+01,"Cuc":2.769287675619e-06,"Cus":3.216788172722e-06,"deltan":1.239527591679e-09,"e":3.023188328370e-04,"M0":0.0423379009589553,"sqrtA":5282.618839263916,"toeMSB":262144}}
$GPALM,1,1,00,0061,00,0000,00,0000,0000,00000,000000,000000,000000,000,000*4C
{"class":"SUBFRAME","gnssId":3,"tSV":35,"frame":2,"SOW":336486,"scaled":true,"EPHEMERIS":{"sv":0,"Crc":3.047187500000e+02,"Crs":5.748437500000e+01,"Cuc":2.802349627018e-06,"Cus":3.093853592873e-06,"deltan":1.270109351026e-09,"e":6.879005813971e-04,"M0":0.1523073948919773,"sqrtA":5282.615312576294,"toeMSB":262144}}
$GPALM,1,1,00,0061,00,0000,00,0000,0000,00000,000000,000000,000000,000,000*4C
{"class":"SUBFRAME","gnssId":3,"tSV":19,"frame":2,"SOW":336486,"scaled":true,"EPHEMERIS":{"sv":0,"Crc":1.642812500000e+02,"Crs":-6.240625000000e+01,"Cuc":-3.213062882423e-06,"Cus":9.897165000439e-06,"deltan":1.159833118436e-09,"e":1.012148568407e-03,"M0":0.1751283588819206,"sqrtA":5282.623159408569,"toeMSB":262144}}
$GPGSV,9,1,35,02,50,053,14,05,46,124,21,06,15,052,00,12,58,165,22*79
$GPGSV,9,2,35,18,10,232,00,25,73,245,34,29,48,297,25,31,17,307,00*74
$GPGSV,9,3,35,301,27,316,00,303,11,077,00,305,03,029,00,308,04,125,00*71
$GPGSV,9,4,35,313,78,300,20,315,40,055,16,321,62,255,29,326,27,250,20*73
$GPGSV,9,5,35,327,34,177,21,417,52,250,00,419,12,155,26,420,30,106,24*7C
$GPGSV,9,6,35,424,07,329,00,426,35,288,25,429,69,043,33,430,19,078,21*7A
$GPGSV,9,7,35,435,47,282,34,436,02,179,19,65,05,013,00,66,26,072,00*7E
$GPGSV,9,8,35,67,14,124,00,73,23,327,00,79,20,188,22,80,54,247,27*7E
$GPGSV,9,9,35,81,30,054,00,82,64,347,18,83,35,274,00*49
{"class":"SKY","time":"2020-06-10T21:28:09.000Z","gdop":1.80,"hdop":0.79,"pdop":1.52,"tdop":0.97,"xdop":0.50,"ydop":0.61,"vdop":1.31,"nSat":35,"uSat":18,"satellites":[{"PRN":2,"gnssid":0,"svid":2,"az":53.0,"el":50.0,"prRes":5.3,"qual":4,"ss":14.0,"used":true,"health":1},{"PRN":5,"gnssid":0,"svid":5,"az":124.0,"el":46.0,"prRes":12.4,"qual":4,"ss":21.0,"used":true,"health":1},{"PRN":6,"gnssid":0,"svid":6,"az":52.0,"el":15.0,"prRes":5.2,"qual":0,"ss":0.0,"used":false,"health":1},{"PRN":12,"gnssid":0,"svid":12,"az":165.0,"el":58.0,"prRes":16.5,"qual":4,"ss":22.0,"used":true,"health":1},{"PRN":18,"gnssid":0,"svid":18,"az":232.0,"el":10.0,"prRes":23.2,"qual":1,"ss":0.0,"used":false,"health":1},{"PRN":25,"gnssid":0,"svid":25,"az":245.0,"el":73.0,"prRes":24.5,"qual":7,"ss":34.0,"used":true,"health":1},{"PRN":29,"gnssid":0,"svid":29,"az":297.0,"el":48.0,"prRes":29.7,"qual":4,"ss":25.0,"used":true,"health":1},{"PRN":31,"gnssid":0,"svid":31,"az":307.0,"el":17.0,"prRes":30.7,"qual":1,"ss":0.0,"used":false,"health":1},{"PRN":301,"gnssid":2,"svid":1,"az":316.0,"el":27.0,"prRes":31.6,"qual":1,"ss":0.0,"used":false,"health":1},{"PRN":303,"gnssid":2,"svid":3,"az":77.0,"el":11.0,"prRes":7.7,"qual":1,"ss":0.0,"used":false,"health":1},{"PRN":305,"gnssid":2,"svid":5,"az":29.0,"el":3.0,"prRes":2.9,"qual":0,"ss":0.0,"used":false,"health":1},{"PRN":308,"gnssid":2,"svid":8,"az":125.0,"el":4.0,"prRes":12.5,"qual":1,"ss":0.0,"used":false,"health":1},{"PRN":313,"gnssid":2,"svid":13,"az":300.0,"el":78.0,"prRes":30.0,"qual":4,"ss":20.0,"used":true,"health":1},{"PRN":315,"gnssid":2,"svid":15,"az":55.0,"el":40.0,"prRes":5.5,"qual":4,"ss":16.0,"used":true,"health":1},{"PRN":321,"gnssid":2,"svid":21,"az":255.0,"el":62.0,"prRes":25.5,"qual":7,"ss":29.0,"used":true,"health":1},{"PRN":326,"gnssid":2,"svid":26,"az":250.0,"el":27.0,"prRes":25.0,"qual":4,"ss":20.0,"used":false,"health":1},{"PRN":327,"gnssid":2,"svid":27,"az":177.0,"el":34.0,"prRes":17.7,"qual":4,"ss":21.0,"used":true,"health":1},{"PRN":417,"gnssid":3,"svid":17,"az":250.0,"el":52.0,"prRes":25.0,"qual":0,"ss":0.0,"used":false,"health":2},{"PRN":419,"gnssid":3,"svid":19,"az":155.0,"el":12.0,"prRes":15.5,"qual":7,"ss":26.0,"used":true,"health":1},{"PRN":420,"gnssid":3,"svid":20,"az":106.0,"el":30.0,"prRes":10.6,"qual":4,"ss":24.0,"used":true,"health":1},{"PRN":424,"gnssid":3,"svid":24,"az":329.0,"el":7.0,"prRes":32.9,"qual":1,"ss":0.0,"used":false,"health":1},{"PRN":426,"gnssid":3,"svid":26,"az":288.0,"el":35.0,"prRes":28.8,"qual":4,"ss":25.0,"used":true,"health":1},{"PRN":429,"gnssid":3,"svid":29,"az":43.0,"el":69.0,"prRes":4.3,"qual":7,"ss":33.0,"used":true,"health":1},{"PRN":430,"gnssid":3,"svid":30,"az":78.0,"el":19.0,"prRes":7.8,"qual":4,"ss":21.0,"used":true,"health":1},{"PRN":435,"gnssid":3,"svid":35,"az":282.0,"el":47.0,"prRes":28.2,"qual":7,"ss":34.0,"used":true,"health":1},{"PRN":436,"gnssid":3,"svid":36,"az":179.0,"el":2.0,"prRes":17.9,"qual":4,"ss":19.0,"used":false,"health":1},{"PRN":65,"gnssid":6,"svid":1,"az":13.0,"el":5.0,"prRes":1.3,"qual":1,"ss":0.0,"used":false,"health":1},{"PRN":66,"gnssid":6,"svid":2,"az":72.0,"el":26.0,"prRes":7.2,"qual":0,"ss":0.0,"used":false,"health":1},{"PRN":67,"gnssid":6,"svid":3,"az":124.0,"el":14.0,"prRes":12.4,"qual":1,"ss":0.0,"used":false,"health":1},{"PRN":73,"gnssid":6,"svid":9,"az":327.0,"el":23.0,"prRes":32.7,"qual":1,"ss":0.0,"used":false,"health":1},{"PRN":79,"gnssid":6,"svid":15,"az":188.0,"el":20.0,"prRes":18.8,"qual":4,"ss":22.0,"used":true,"health":1},{"PRN":80,"gnssid":6,"svid":16,"az":247.0,"el":54.0,"prRes":24.7,"qual":7,"ss":27.0,"used":true,"health":1},{"PRN":81,"gnssid":6,"svid":17,"az":54.0,"el":30.0,"prRes":5.4,"qual":1,"ss":0.0,"used":false,"health":1},{"PRN":82,"gnssid":6,"svid":18,"az":347.0,"el":64.0,"prRes":34.7,"qual":4,"ss":18.0,"used":true,"health":1},{"PRN":83,"gnssid":6,"svid":19,"az":274.0,"el":35.0,"prRes":27.4,"qual":0,"ss":0.0,"used":false,"health":1}]}
{"class":"SKY","time":"2020-06-10T21:28:09.000Z","gdop":1.80,"hdop":0.79,"pdop":1.52,"tdop":0.96,"xdop":0.50,"ydop":0.61,"vdop":1.30}
$GPZDA,212809.00,10,06,2020,00,00*61
$GPGGA,212809.00,4404.1319240,N,12118.8460600,W,1,18,0.79,1130.47,M,-22.154,M,,*6B
$GPRMC,212809.00,A,4404.1319240,N,12118.8460600,W,0.1400,120.452,100620,14.4,E*44
$GPGSA,A,3,2,5,12,25,29,,,,,,,,1.5,0.8,1.3*34
$GPGBS,212809.00,7.500,9.150,7.185,,,,*45
{"class":"TPV","mode":3,"time":"2020-06-10T21:28:09.000Z","leapseconds":18,"ept":0.005,"lat":44.068865400,"lon":-121.314101000,"altHAE":1109.1210,"altMSL":1130.4700,"alt":1130.4700,"epx":7.500,"epy":9.150,"epv":7.185,"track":120.4520,"magtrack":134.8705,"magvar":14.4,"speed":0.072,"climb":0.085,"eps":18.30,"epc":14.37,"ecefx":-2386053.99,"ecefy":-3922194.54,"ecefz":4414364.11,"ecefvx":-0.06,"ecefvy":-0.03,"ecefvz":-0.03,"ecefpAcc":8.90,"ecefvAcc":0.52,"geoidSep":-22.154,"eph":5.259,"sep":28.964}
{"class":"SKY","time":"2020-06-10T21:28:09.000Z","gdop":1.80,"hdop":0.79,"pdop":1.52,"tdop":0.96,"xdop":0.50,"ydop":0.61,"vdop":1.30}
$GPZDA,212810.00,10,06,2020,00,00*69
$GPGGA,212810.00,4404.1318520,N,12118.8460660,W,1,18,0.79,1130.67,M,-22.154,M,,*67
$GPRMC,212810.00,A,4404.1318520,N,12118.8460660,W,0.2119,120.452,100620,14.4,E*44
$GPGSA,A,3,2,5,12,25,29,,,,,,,,1.5,0.8,1.3*34
$GPGBS,212810.00,7.500,9.150,7.186,,,,*4E
{"class":"TPV","mode":3,"time":"2020-06-10T21:28:10.000Z","leapseconds":18,"ept":0.005,"lat":44.068864200,"lon":-121.314101100,"altHAE":1109.3250,"altMSL":1130.6750,"alt":1130.6750,"epx":7.500,"epy":9.150,"epv":7.186,"track":120.4520,"magtrack":134.8705,"magvar":14.4,"speed":0.109,"climb":0.204,"eps":18.30,"epc":14.37,"ecefx":-2386054.12,"ecefy":-3922194.74,"ecefz":4414364.15,"ecefvx":-0.06,"ecefvy":-0.09,"ecefvz":-0.04,"ecefpAcc":8.90,"ecefvAcc":0.56,"geoidSep":-22.154,"eph":5.257,"sep":28.880}
{"class":"SKY","time":"2020-06-10T21:28:09.000Z","gdop":1.80,"hdop":0.79,"pdop":1.52,"tdop":0.96,"xdop":0.50,"ydop":0.61,"vdop":1.30}
$GPZDA,212811.00,10,06,2020,00,00*68
$GPGGA,212811.00,4404.1318160,N,12118.8460780,W,1,18,0.79,1130.68,M,-22.154,M,,*66
$GPRMC,212811.00,A,4404.1318160,N,12118.8460780,W,0.1147,120.452,100620,14.4,E*42
$GPGSA,A,3,2,5,12,25,29,,,,,,,,1.5,0.8,1.3*34
$GPGBS,212811.00,7.500,9.150,7.182,,,,*4B
{"class":"TPV","mode":3,"time":"2020-06-10T21:28:11.000Z","leapseconds":18,"ept":0.005,"lat":44.068863600,"lon":-121.314101300,"altHAE":1109.3340,"altMSL":1130.6830,"alt":1130.6830,"epx":7.500,"epy":9.150,"epv":7.182,"track":120.4520,"magtrack":134.8705,"magvar":14.4,"speed":0.059,"climb":0.009,"eps":18.30,"epc":14.37,"ecefx":-2386054.16,"ecefy":-3922194.78,"ecefz":4414364.11,"ecefvx":-0.03,"ecefvy":-0.06,"ecefvz":-0.02,"ecefpAcc":8.90,"ecefvAcc":0.56,"geoidSep":-22.154,"eph":5.254,"sep":28.880}
{"class":"SKY","time":"2020-06-10T21:28:09.000Z","gdop":1.80,"hdop":0.79,"pdop":1.52,"tdop":0.96,"xdop":0.50,"ydop":0.61,"vdop":1.30}
$GPZDA,212812.00,10,06,2020,00,00*6B
$GPGGA,212812.00,4404.1318460,N,12118.8460600,W,1,18,0.79,1130.66,M,-22.154,M,,*67
$GPRMC,212812.00,A,4404.1318460,N,12118.8460600,W,0.1458,120.452,100620,14.4,E*46
$GPGSA,A,3,2,5,12,25,29,,,,,,,,1.5,0.8,1.3*34
$GPGBS,212812.00,7.500,9.150,7.182,,,,*48
{"class":"TPV","mode":3,"time":"2020-06-10T21:28:12.000Z","leapseconds":18,"ept":0.005,"lat":44.068864100,"lon":-121.314101000,"altHAE":1109.3080,"altMSL":1130.6580,"alt":1130.6580,"epx":7.500,"epy":9.150,"epv":7.182,"track":120.4520,"magtrack":134.8705,"magvar":14.4,"speed":0.075,"climb":-0.026,"eps":18.30,"epc":14.36,"ecefx":-2386054.11,"ecefy":-3922194.74,"ecefz":4414364.13,"ecefvx":0.04,"ecefvy":0.00,"ecefvz":0.08,"ecefpAcc":8.90,"ecefvAcc":0.45,"geoidSep":-22.154,"eph":5.252,"sep":28.880}
$GPALM,1,1,17,0061,00,6c46,7b,1ae3,fffffd60,a10d5c,ffbd1e7e,4a58a3,ffafff57,125,002*23
{"class":"SUBFRAME","gnssId":0,"tSV":25,"frame":5,"TOW17":336510,"scaled":false,"dataid":17,"ALMANAC":{"ID":17,"Health":0,"e":27718,"toa":123,"deltai":6883,"Omegad":-672,"sqrtA":10554716,"Omega0":4872355,"omega":-4383106,"M0":-5243049,"af0":293,"af1":2}}
$GPALM,1,1,17,0061,00,6c46,7b,1ae3,fffffd60,a10d5c,ffbd1e7e,4a58a3,ffafff57,125,002*23
{"class":"SUBFRAME","gnssId":0,"tSV":29,"frame":5,"TOW17":336510,"scaled":false,"dataid":17,"ALMANAC":{"ID":17,"Health":0,"e":27718,"toa":123,"deltai":6883,"Omegad":-672,"sqrtA":10554716,"Omega0":4872355,"omega":-4383106,"M0":-5243049,"af0":293,"af1":2}}
{"class":"SKY","time":"2020-06-10T21:28:09.000Z","gdop":1.80,"hdop":0.79,"pdop":1.52,"tdop":0.96,"xdop":0.50,"ydop":0.61,"vdop":1.30}
$GPZDA,212813.00,10,06,2020,00,00*6A
$GPGGA,212813.00,4404.1319240,N,12118.8460480,W,1,18,0.79,1130.63,M,-22.154,M,,*6C
$GPRMC,212813.00,A,4404.1319240,N,12118.8460480,W,0.2449,120.452,100620,14.4,E*4B
$GPGSA,A,3,2,5,12,25,29,,,,,,,,1.5,0.8,1.3*34
$GPGBS,212813.00,7.500,9.150,7.180,,,,*4B
{"class":"TPV","mode":3,"time":"2020-06-10T21:28:13.000Z","leapseconds":18,"ept":0.005,"lat":44.068865400,"lon":-121.314100800,"altHAE":1109.2840,"altMSL":1130.6340,"alt":1130.6340,"epx":7.500,"epy":9.150,"epv":7.180,"track":120.4520,"magtrack":134.8705,"magvar":14.4,"speed":0.126,"climb":-0.024,"eps":18.30,"epc":14.36,"ecefx":-2386054.04,"ecefy":-3922194.65,"ecefz":4414364.22,"ecefvx":0.05,"ecefvy":0.05,"ecefvz":0.11,"ecefpAcc":8.89,"ecefvAcc":0.47,"geoidSep":-22.154,"eph":5.248,"sep":28.880}
{"class":"SKY","time":"2020-06-10T21:28:09.000Z","gdop":1.80,"hdop":0.79,"pdop":1.52,"tdop":0.96,"xdop":0.50,"ydop":0.61,"vdop":1.30}
$GPZDA,212814.00,10,06,2020,00,00*6D
$GPGGA,212814.00,4404.1319360,N,12118.8460780,W,1,18,0.79,1130.79,M,-22.154,M,,*60
$GPRMC,212814.00,A,4404.1319360,N,12118.8460780,W,0.1458,120.452,100620,14.4,E*4F
$GPGSA,A,3,2,5,12,25,29,,,,,,,,1.5,0.8,1.3*34
$GPGBS,212814.00,7.500,9.150,7.176,,,,*45
{"class":"TPV","mode":3,"time":"2020-06-10T21:28:14.000Z","leapseconds":18,"ept":0.005,"lat":44.068865600,"lon":-121.314101300,"altHAE":1109.4440,"altMSL":1130.7940,"alt":1130.7940,"epx":7.500,"epy":9.150,"epv":7.176,"track":120.4520,"magtrack":134.8705,"magvar":14.4,"speed":0.075,"climb":0.160,"eps":18.30,"epc":14.36,"ecefx":-2386054.12,"ecefy":-3922194.71,"ecefz":4414364.35,"ecefvx":0.00,"ecefvy":0.06,"ecefvz":0.05,"ecefpAcc":8.89,"ecefvAcc":0.48,"geoidSep":-22.154,"eph":5.245,"sep":28.880}
$GPALM,1,1,00,0061,00,0000,00,0000,0000,00000,000000,000000,000000,000,000*4C
{"class":"SUBFRAME","gnssId":3,"tSV":29,"frame":3,"SOW":336492,"scaled":true,"EPHEMERIS":{"sv":0,"Cic":3.213062882423e-08,"Cis":4.237517714500e-08,"IDOT":6.0708771343342960e-11,"i0":0.3072070581838489,"Omega0":0.6655698926188052,"Omegad":-2.238948582090e-09,"omega":0.4320147181861103,"toeLSB":72656}}
