$GPZDA,203540.00,28,01,2009,00,00*66
$GPGGA,203540.00,5333.7953760,N,11326.3726912,W,1,08,,654.41,M,-18.954,M,,*44
$GPRMC,203540.00,A,5333.7953760,N,11326.3726912,W,0.0000,0.000,280109,13.9,E*41
$GPGSA,A,3,,,,,,,,,,,,,2.4,,*34
{"class":"TPV","mode":3,"time":"2009-01-28T20:35:40.001Z","ept":0.005,"lat":53.563256267,"lon":-113.439544853,"altHAE":635.4587,"altMSL":654.4131,"alt":654.4131,"track":0.0000,"magtrack":13.9113,"magvar":13.9,"speed":0.000,"climb":0.000,"eps":0.18,"ecefx":-1510299.52,"ecefy":-3483497.94,"ecefz":5108533.23,"ecefvx":0.00,"ecefvy":0.00,"ecefvz":0.00,"ecefpAcc":5.52,"ecefvAcc":0.18,"velN":0.000,"velE":0.000,"velD":0.000,"geoidSep":-18.954,"sep":45.980}
{"class":"SKY","pdop":2.42}
{"class":"SKY","gdop":2.80,"hdop":1.15,"pdop":2.42,"tdop":1.40,"vdop":2.13}
$GPGSV,4,1,14,21,73,276,33,24,56,094,46,15,40,113,30,18,40,217,43*79
$GPGSV,4,2,14,26,40,087,45,29,40,164,34,16,28,280,33,06,21,311,00*7E
$GPGSV,4,3,14,10,21,056,38,03,10,317,00,22,09,225,29,08,06,036,00*7A
$GPGSV,4,4,14,27,06,055,24,07,05,000,25*7C
{"class":"SKY","time":"2009-01-28T20:35:43.001Z","gdop":2.80,"hdop":1.15,"pdop":2.42,"tdop":1.40,"xdop":0.60,"ydop":0.98,"vdop":2.13,"nSat":14,"uSat":8,"satellites":[{"PRN":21,"gnssid":0,"svid":21,"az":276.0,"el":73.0,"prRes":212.5,"qual":6,"ss":33.0,"used":true,"health":1},{"PRN":24,"gnssid":0,"svid":24,"az":94.0,"el":56.0,"prRes":-276.5,"qual":7,"ss":46.0,"used":true,"health":1},{"PRN":15,"gnssid":0,"svid":15,"az":113.0,"el":40.0,"prRes":23.0,"qual":6,"ss":30.0,"used":true,"health":1},{"PRN":18,"gnssid":0,"svid":18,"az":217.0,"el":40.0,"prRes":302.1,"qual":6,"ss":43.0,"used":true,"health":1},{"PRN":26,"gnssid":0,"svid":26,"az":87.0,"el":40.0,"prRes":202.2,"qual":6,"ss":45.0,"used":true,"health":1},{"PRN":29,"gnssid":0,"svid":29,"az":164.0,"el":40.0,"prRes":-327.7,"qual":6,"ss":34.0,"used":true,"health":1},{"PRN":16,"gnssid":0,"svid":16,"az":280.0,"el":28.0,"prRes":-199.7,"qual":5,"ss":33.0,"used":true,"health":1},{"PRN":6,"gnssid":0,"svid":6,"az":311.0,"el":21.0,"prRes":0.0,"qual":1,"ss":0.0,"used":false,"health":1},{"PRN":10,"gnssid":0,"svid":10,"az":56.0,"el":21.0,"prRes":-12.8,"qual":7,"ss":38.0,"used":true,"health":1},{"PRN":3,"gnssid":0,"svid":3,"az":317.0,"el":10.0,"prRes":0.0,"qual":1,"ss":0.0,"used":false,"health":1},{"PRN":22,"gnssid":0,"svid":22,"az":225.0,"el":9.0,"prRes":0.0,"qual":4,"ss":29.0,"used":false,"health":1},{"PRN":8,"gnssid":0,"svid":8,"az":36.0,"el":6.0,"prRes":0.0,"qual":1,"ss":0.0,"used":false,"health":1},{"PRN":27,"gnssid":0,"svid":27,"az":55.0,"el":6.0,"prRes":0.0,"qual":4,"ss":24.0,"used":false,"health":1},{"PRN":7,"gnssid":0,"svid":7,"az":0.0,"el":5.0,"prRes":0.0,"qual":4,"ss":25.0,"used":false,"health":1}]}
$GPZDA,203544.00,28,01,2009,00,00*62
$GPGGA,203544.00,5333.7952455,N,11326.3727094,W,1,08,,654.43,M,-18.954,M,,*40
$GPRMC,203544.00,A,5333.7952455,N,11326.3727094,W,0.0000,0.000,280109,13.9,E*47
$GPGSA,A,3,21,24,15,18,26,29,16,10,,,,,2.4,,*35
{"class":"TPV","mode":3,"time":"2009-01-28T20:35:44.001Z","leapseconds":15,"ept":0.005,"lat":53.563254092,"lon":-113.439545157,"altHAE":635.4758,"altMSL":654.4302,"alt":654.4302,"track":0.0000,"magtrack":13.9113,"magvar":13.9,"speed":0.000,"climb":0.000,"eps":0.18,"ecefx":-1510299.62,"ecefy":-3483498.12,"ecefz":5108533.10,"ecefvx":0.00,"ecefvy":0.00,"ecefvz":0.00,"ecefpAcc":5.44,"ecefvAcc":0.18,"velN":0.000,"velE":0.000,"velD":0.000,"geoidSep":-18.954,"sep":45.980}
{"class":"SKY","time":"2009-01-28T20:35:43.001Z","pdop":2.42}
{"class":"SKY","time":"2009-01-28T20:35:43.001Z","gdop":2.80,"hdop":1.15,"pdop":2.42,"tdop":1.40,"vdop":2.13}
$GPGSV,4,1,14,21,73,276,32,24,56,094,46,15,40,113,30,18,40,217,43*78
$GPGSV,4,2,14,26,40,087,45,29,40,164,34,16,28,280,33,06,21,311,00*7E
$GPGSV,4,3,14,10,21,056,39,03,10,317,00,22,09,225,29,08,06,036,00*7B
$GPGSV,4,4,14,27,06,055,24,07,05,000,26*7F
{"class":"SKY","time":"2009-01-28T20:35:44.001Z","gdop":2.80,"hdop":1.15,"pdop":2.42,"tdop":1.40,"xdop":0.60,"ydop":0.98,"vdop":2.13,"nSat":14,"uSat":8,"satellites":[{"PRN":21,"gnssid":0,"svid":21,"az":276.0,"el":73.0,"prRes":217.6,"qual":6,"ss":32.0,"used":true,"health":1},{"PRN":24,"gnssid":0,"svid":24,"az":94.0,"el":56.0,"prRes":322.6,"qual":7,"ss":46.0,"used":true,"health":1},{"PRN":15,"gnssid":0,"svid":15,"az":113.0,"el":40.0,"prRes":-15.4,"qual":6,"ss":30.0,"used":true,"health":1},{"PRN":18,"gnssid":0,"svid":18,"az":217.0,"el":40.0,"prRes":181.8,"qual":6,"ss":43.0,"used":true,"health":1},{"PRN":26,"gnssid":0,"svid":26,"az":87.0,"el":40.0,"prRes":238.1,"qual":6,"ss":45.0,"used":true,"health":1},{"PRN":29,"gnssid":0,"svid":29,"az":164.0,"el":40.0,"prRes":314.9,"qual":6,"ss":34.0,"used":true,"health":1},{"PRN":16,"gnssid":0,"svid":16,"az":280.0,"el":28.0,"prRes":-194.6,"qual":6,"ss":33.0,"used":true,"health":1},{"PRN":6,"gnssid":0,"svid":6,"az":311.0,"el":21.0,"prRes":0.0,"qual":1,"ss":0.0,"used":false,"health":1},{"PRN":10,"gnssid":0,"svid":10,"az":56.0,"el":21.0,"prRes":-56.3,"qual":7,"ss":39.0,"used":true,"health":1},{"PRN":3,"gnssid":0,"svid":3,"az":317.0,"el":10.0,"prRes":0.0,"qual":1,"ss":0.0,"used":false,"health":1},{"PRN":22,"gnssid":0,"svid":22,"az":225.0,"el":9.0,"prRes":0.0,"qual":4,"ss":29.0,"used":false,"health":1},{"PRN":8,"gnssid":0,"svid":8,"az":36.0,"el":6.0,"prRes":0.0,"qual":1,"ss":0.0,"used":false,"health":1},{"PRN":27,"gnssid":0,"svid":27,"az":55.0,"el":6.0,"prRes":0.0,"qual":4,"ss":24.0,"used":false,"health":1},{"PRN":7,"gnssid":0,"svid":7,"az":0.0,"el":5.0,"prRes":0.0,"qual":4,"ss":26.0,"used":false,"health":1}]}
