$GPGSV,12,1,48,01,03,161,40,03,35,107,32,04,67,055,23,06,51,291,30*4A
$GPGSV,12,2,48,07,23,183,37,09,71,256,27,11,23,315,00,16,04,090,00*4B
$GPGSV,12,3,48,17,03,225,00,19,14,248,00,20,02,299,00,26,11,064,25*45
$GPGSV,12,4,48,31,01,031,00,36,34,158,42,40,24,131,00,41,06,107,38*44
$GPGSV,12,5,48,49,35,194,35,302,10,036,00,307,55,060,27,308,04,066,20*7D
$GPGSV,12,6,48,310,01,332,00,312,22,320,00,319,22,251,00,326,37,188,36*4A
$GPGSV,12,7,48,327,02,135,36,330,15,086,34,333,57,263,20,402,06,106,00*49
$GPGSV,12,8,48,405,22,128,00,406,15,047,00,409,31,050,25,414,67,066,00*4C
$GPGSV,12,9,48,416,08,045,00,424,33,128,36,425,03,176,00,426,33,071,35*49
$GPGSV,12,10,48,427,24,305,18,428,32,249,17,433,76,321,14,65,21,277,21*48
$GPGSV,12,11,48,70,01,080,00,71,44,057,20,72,64,322,24,73,35,079,34*77
$GPGSV,12,12,48,74,22,131,30,86,14,194,00,87,48,255,15,88,32,319,09*77
{"class":"SKY","time":"2019-04-09T11:04:24.000Z","gdop":1.85,"hdop":0.81,"pdop":1.58,"tdop":0.97,"xdop":0.52,"ydop":0.63,"vdop":1.35,"nSat":48,"uSat":20,"satellites":[{"PRN":1,"gnssid":0,"svid":1,"az":161.0,"el":3.0,"prRes":16.1,"qual":7,"ss":40.0,"used":false,"health":1},{"PRN":3,"gnssid":0,"svid":3,"az":107.0,"el":35.0,"prRes":10.7,"qual":7,"ss":32.0,"used":true,"health":1},{"PRN":4,"gnssid":0,"svid":4,"az":55.0,"el":67.0,"prRes":5.5,"qual":4,"ss":23.0,"used":true,"health":1},{"PRN":6,"gnssid":0,"svid":6,"az":291.0,"el":51.0,"prRes":29.1,"qual":7,"ss":30.0,"used":true,"health":1},{"PRN":7,"gnssid":0,"svid":7,"az":183.0,"el":23.0,"prRes":18.3,"qual":7,"ss":37.0,"used":true,"health":1},{"PRN":9,"gnssid":0,"svid":9,"az":256.0,"el":71.0,"prRes":25.6,"qual":7,"ss":27.0,"used":true,"health":1},{"PRN":11,"gnssid":0,"svid":11,"az":315.0,"el":23.0,"prRes":31.5,"qual":1,"ss":0.0,"used":false,"health":1},{"PRN":16,"gnssid":0,"svid":16,"az":90.0,"el":4.0,"prRes":9.0,"qual":0,"ss":0.0,"used":false,"health":1},{"PRN":17,"gnssid":0,"svid":17,"az":225.0,"el":3.0,"prRes":22.5,"qual":1,"ss":0.0,"used":false,"health":1},{"PRN":19,"gnssid":0,"svid":19,"az":248.0,"el":14.0,"prRes":24.8,"qual":1,"ss":0.0,"used":false,"health":1},{"PRN":20,"gnssid":0,"svid":20,"az":299.0,"el":2.0,"prRes":29.9,"qual":0,"ss":0.0,"used":false,"health":1},{"PRN":26,"gnssid":0,"svid":26,"az":64.0,"el":11.0,"prRes":6.4,"qual":4,"ss":25.0,"used":true,"health":1},{"PRN":31,"gnssid":0,"svid":31,"az":31.0,"el":1.0,"prRes":3.1,"qual":0,"ss":0.0,"used":false,"health":1},{"PRN":36,"gnssid":1,"svid":123,"az":158.0,"el":34.0,"prRes":15.8,"qual":7,"ss":42.0,"used":false,"health":1},{"PRN":40,"gnssid":1,"svid":127,"az":131.0,"el":24.0,"prRes":13.1,"qual":0,"ss":0.0,"used":false},{"PRN":41,"gnssid":1,"svid":128,"az":107.0,"el":6.0,"prRes":10.7,"qual":7,"ss":38.0,"used":false},{"PRN":49,"gnssid":1,"svid":136,"az":194.0,"el":35.0,"prRes":19.4,"qual":7,"ss":35.0,"used":false,"health":1},{"PRN":302,"gnssid":2,"svid":2,"az":36.0,"el":10.0,"prRes":3.6,"qual":1,"ss":0.0,"used":false,"health":1},{"PRN":307,"gnssid":2,"svid":7,"az":60.0,"el":55.0,"prRes":6.0,"qual":7,"ss":27.0,"used":true,"health":1},{"PRN":308,"gnssid":2,"svid":8,"az":66.0,"el":4.0,"prRes":6.6,"qual":4,"ss":20.0,"used":false,"health":1},{"PRN":310,"gnssid":2,"svid":10,"az":332.0,"el":1.0,"prRes":33.2,"qual":0,"ss":0.0,"used":false,"health":1},{"PRN":312,"gnssid":2,"svid":12,"az":320.0,"el":22.0,"prRes":32.0,"qual":1,"ss":0.0,"used":false,"health":1},{"PRN":319,"gnssid":2,"svid":19,"az":251.0,"el":22.0,"prRes":25.1,"qual":1,"ss":0.0,"used":false,"health":1},{"PRN":326,"gnssid":2,"svid":26,"az":188.0,"el":37.0,"prRes":18.8,"qual":7,"ss":36.0,"used":true,"health":1},{"PRN":327,"gnssid":2,"svid":27,"az":135.0,"el":2.0,"prRes":13.5,"qual":7,"ss":36.0,"used":false,"health":1},{"PRN":330,"gnssid":2,"svid":30,"az":86.0,"el":15.0,"prRes":8.6,"qual":7,"ss":34.0,"used":true,"health":1},{"PRN":333,"gnssid":2,"svid":33,"az":263.0,"el":57.0,"prRes":26.3,"qual":4,"ss":20.0,"used":true,"health":1},{"PRN":402,"gnssid":3,"svid":2,"az":106.0,"el":6.0,"prRes":10.6,"qual":0,"ss":0.0,"used":false,"health":1},{"PRN":405,"gnssid":3,"svid":5,"az":128.0,"el":22.0,"prRes":12.8,"qual":0,"ss":0.0,"used":false,"health":1},{"PRN":406,"gnssid":3,"svid":6,"az":47.0,"el":15.0,"prRes":4.7,"qual":0,"ss":0.0,"used":false,"health":1},{"PRN":409,"gnssid":3,"svid":9,"az":50.0,"el":31.0,"prRes":5.0,"qual":4,"ss":25.0,"used":true,"health":1},{"PRN":414,"gnssid":3,"svid":14,"az":66.0,"el":67.0,"prRes":6.6,"qual":0,"ss":0.0,"used":false,"health":1},{"PRN":416,"gnssid":3,"svid":16,"az":45.0,"el":8.0,"prRes":4.5,"qual":0,"ss":0.0,"used":false,"health":1},{"PRN":424,"gnssid":3,"svid":24,"az":128.0,"el":33.0,"prRes":12.8,"qual":7,"ss":36.0,"used":true,"health":1},{"PRN":425,"gnssid":3,"svid":25,"az":176.0,"el":3.0,"prRes":17.6,"qual":0,"ss":0.0,"used":false,"health":1},{"PRN":426,"gnssid":3,"svid":26,"az":71.0,"el":33.0,"prRes":7.1,"qual":7,"ss":35.0,"used":true,"health":1},{"PRN":427,"gnssid":3,"svid":27,"az":305.0,"el":24.0,"prRes":30.5,"qual":4,"ss":18.0,"used":false,"health":1},{"PRN":428,"gnssid":3,"svid":28,"az":249.0,"el":32.0,"prRes":24.9,"qual":4,"ss":17.0,"used":true,"health":1},{"PRN":433,"gnssid":3,"svid":33,"az":321.0,"el":76.0,"prRes":32.1,"qual":4,"ss":14.0,"used":true,"health":1},{"PRN":65,"gnssid":6,"svid":1,"az":277.0,"el":21.0,"prRes":27.7,"qual":3,"ss":21.0,"used":false,"health":1},{"PRN":70,"gnssid":6,"svid":6,"az":80.0,"el":1.0,"prRes":8.0,"qual":1,"ss":0.0,"used":false,"health":1},{"PRN":71,"gnssid":6,"svid":7,"az":57.0,"el":44.0,"prRes":5.7,"qual":4,"ss":20.0,"used":true,"health":1}]}
{"class":"SKY","time":"2019-04-09T11:04:24.000Z","gdop":2.43,"hdop":1.09,"pdop":2.05,"tdop":1.31,"xdop":0.81,"ydop":0.72,"vdop":1.74}
$GPGSV,12,1,48,01,03,161,40,03,35,107,30,04,67,055,24,06,51,291,31*4E
$GPGSV,12,2,48,07,23,183,37,09,71,256,25,11,23,315,00,16,04,090,00*49
$GPGSV,12,3,48,17,03,225,00,19,14,248,00,20,02,299,00,26,11,064,26*46
$GPGSV,12,4,48,31,01,031,00,36,34,158,42,40,24,131,00,41,06,107,38*44
$GPGSV,12,5,48,49,35,194,35,302,10,036,00,307,55,060,28,308,04,066,20*72
$GPGSV,12,6,48,310,01,332,00,312,22,320,00,319,22,251,00,326,37,188,36*4A
$GPGSV,12,7,48,327,02,135,36,330,15,086,35,333,57,262,21,402,06,106,00*48
$GPGSV,12,8,48,405,22,128,00,406,15,047,00,409,31,050,26,414,67,066,00*4F
$GPGSV,12,9,48,416,08,045,00,424,33,128,36,425,03,176,00,426,33,071,35*49
$GPGSV,12,10,48,427,24,305,18,428,32,249,19,433,76,321,12,65,21,277,22*43
$GPGSV,12,11,48,70,01,080,00,71,44,057,23,72,64,322,26,73,35,079,31*73
$GPGSV,12,12,48,74,22,131,35,86,14,194,00,87,48,255,16,88,32,319,09*71
{"class":"SKY","time":"2022-10-11T11:04:25.000Z","gdop":1.93,"hdop":0.83,"pdop":1.64,"tdop":1.00,"xdop":0.55,"ydop":0.63,"vdop":1.42,"nSat":48,"uSat":18,"satellites":[{"PRN":1,"gnssid":0,"svid":1,"az":161.0,"el":3.0,"prRes":16.1,"qual":7,"ss":40.0,"used":false,"health":1},{"PRN":3,"gnssid":0,"svid":3,"az":107.0,"el":35.0,"prRes":10.7,"qual":7,"ss":30.0,"used":true,"health":1},{"PRN":4,"gnssid":0,"svid":4,"az":55.0,"el":67.0,"prRes":5.5,"qual":4,"ss":24.0,"used":true,"health":1},{"PRN":6,"gnssid":0,"svid":6,"az":291.0,"el":51.0,"prRes":29.1,"qual":7,"ss":31.0,"used":true,"health":1},{"PRN":7,"gnssid":0,"svid":7,"az":183.0,"el":23.0,"prRes":18.3,"qual":7,"ss":37.0,"used":true,"health":1},{"PRN":9,"gnssid":0,"svid":9,"az":256.0,"el":71.0,"prRes":25.6,"qual":4,"ss":25.0,"used":true,"health":1},{"PRN":11,"gnssid":0,"svid":11,"az":315.0,"el":23.0,"prRes":31.5,"qual":1,"ss":0.0,"used":false,"health":1},{"PRN":16,"gnssid":0,"svid":16,"az":90.0,"el":4.0,"prRes":9.0,"qual":0,"ss":0.0,"used":false,"health":1},{"PRN":17,"gnssid":0,"svid":17,"az":225.0,"el":3.0,"prRes":22.5,"qual":1,"ss":0.0,"used":false,"health":1},{"PRN":19,"gnssid":0,"svid":19,"az":248.0,"el":14.0,"prRes":24.8,"qual":1,"ss":0.0,"used":false,"health":1},{"PRN":20,"gnssid":0,"svid":20,"az":299.0,"el":2.0,"prRes":29.9,"qual":0,"ss":0.0,"used":false,"health":1},{"PRN":26,"gnssid":0,"svid":26,"az":64.0,"el":11.0,"prRes":6.4,"qual":4,"ss":26.0,"used":true,"health":1},{"PRN":31,"gnssid":0,"svid":31,"az":31.0,"el":1.0,"prRes":3.1,"qual":0,"ss":0.0,"used":false,"health":1},{"PRN":36,"gnssid":1,"svid":123,"az":158.0,"el":34.0,"prRes":15.8,"qual":7,"ss":42.0,"used":false,"health":1},{"PRN":40,"gnssid":1,"svid":127,"az":131.0,"el":24.0,"prRes":13.1,"qual":0,"ss":0.0,"used":false},{"PRN":41,"gnssid":1,"svid":128,"az":107.0,"el":6.0,"prRes":10.7,"qual":7,"ss":38.0,"used":false},{"PRN":49,"gnssid":1,"svid":136,"az":194.0,"el":35.0,"prRes":19.4,"qual":7,"ss":35.0,"used":false,"health":1},{"PRN":302,"gnssid":2,"svid":2,"az":36.0,"el":10.0,"prRes":3.6,"qual":1,"ss":0.0,"used":false,"health":1},{"PRN":307,"gnssid":2,"svid":7,"az":60.0,"el":55.0,"prRes":6.0,"qual":7,"ss":28.0,"used":true,"health":1},{"PRN":308,"gnssid":2,"svid":8,"az":66.0,"el":4.0,"prRes":6.6,"qual":4,"ss":20.0,"used":false,"health":1},{"PRN":310,"gnssid":2,"svid":10,"az":332.0,"el":1.0,"prRes":33.2,"qual":0,"ss":0.0,"used":false,"health":1},{"PRN":312,"gnssid":2,"svid":12,"az":320.0,"el":22.0,"prRes":32.0,"qual":1,"ss":0.0,"used":false,"health":1},{"PRN":319,"gnssid":2,"svid":19,"az":251.0,"el":22.0,"prRes":25.1,"qual":1,"ss":0.0,"used":false,"health":1},{"PRN":326,"gnssid":2,"svid":26,"az":188.0,"el":37.0,"prRes":18.8,"qual":7,"ss":36.0,"used":true,"health":1},{"PRN":327,"gnssid":2,"svid":27,"az":135.0,"el":2.0,"prRes":13.5,"qual":7,"ss":36.0,"used":false,"health":1},{"PRN":330,"gnssid":2,"svid":30,"az":86.0,"el":15.0,"prRes":8.6,"qual":7,"ss":35.0,"used":true,"health":1},{"PRN":333,"gnssid":2,"svid":33,"az":262.0,"el":57.0,"prRes":26.2,"qual":4,"ss":21.0,"used":true,"health":1},{"PRN":402,"gnssid":3,"svid":2,"az":106.0,"el":6.0,"prRes":10.6,"qual":0,"ss":0.0,"used":false,"health":1},{"PRN":405,"gnssid":3,"svid":5,"az":128.0,"el":22.0,"prRes":12.8,"qual":0,"ss":0.0,"used":false,"health":1},{"PRN":406,"gnssid":3,"svid":6,"az":47.0,"el":15.0,"prRes":4.7,"qual":0,"ss":0.0,"used":false,"health":1},{"PRN":409,"gnssid":3,"svid":9,"az":50.0,"el":31.0,"prRes":5.0,"qual":4,"ss":26.0,"used":true,"health":1},{"PRN":414,"gnssid":3,"svid":14,"az":66.0,"el":67.0,"prRes":6.6,"qual":0,"ss":0.0,"used":false,"health":1},{"PRN":416,"gnssid":3,"svid":16,"az":45.0,"el":8.0,"prRes":4.5,"qual":0,"ss":0.0,"used":false,"health":1},{"PRN":424,"gnssid":3,"svid":24,"az":128.0,"el":33.0,"prRes":12.8,"qual":7,"ss":36.0,"used":true,"health":1},{"PRN":425,"gnssid":3,"svid":25,"az":176.0,"el":3.0,"prRes":17.6,"qual":0,"ss":0.0,"used":false,"health":1},{"PRN":426,"gnssid":3,"svid":26,"az":71.0,"el":33.0,"prRes":7.1,"qual":7,"ss":35.0,"used":true,"health":1},{"PRN":427,"gnssid":3,"svid":27,"az":305.0,"el":24.0,"prRes":30.5,"qual":4,"ss":18.0,"used":false,"health":1},{"PRN":428,"gnssid":3,"svid":28,"az":249.0,"el":32.0,"prRes":24.9,"qual":4,"ss":19.0,"used":true,"health":1},{"PRN":433,"gnssid":3,"svid":33,"az":321.0,"el":76.0,"prRes":32.1,"qual":4,"ss":12.0,"used":false,"health":1},{"PRN":65,"gnssid":6,"svid":1,"az":277.0,"el":21.0,"prRes":27.7,"qual":4,"ss":22.0,"used":false,"health":1},{"PRN":70,"gnssid":6,"svid":6,"az":80.0,"el":1.0,"prRes":8.0,"qual":1,"ss":0.0,"used":false,"health":1},{"PRN":71,"gnssid":6,"svid":7,"az":57.0,"el":44.0,"prRes":5.7,"qual":4,"ss":23.0,"used":true,"health":1}]}
{"class":"SKY","time":"2022-10-11T11:04:25.000Z","gdop":2.53,"hdop":1.11,"pdop":2.16,"tdop":1.33,"xdop":0.83,"ydop":0.73,"vdop":1.85}
$GPZDA,110425.00,11,10,2022,00,00*66
$GPGGA,110425.00,4707.7455620,N,01512.7225920,E,5,19,1.11,826.56,M,44.866,M,,*68
$GPRMC,110425.00,A,4707.7455620,N,1512.7225920,E,0.0233,197.951,111022,4.1,E*52
$GPGSA,A,3,3,4,6,7,9,26,,,,,,,2.2,1.1,1.9*01
$GPGBS,110425.00,12.450,10.950,0.777,,,,*4A
{"class":"TPV","status":4,"mode":3,"time":"2022-10-11T11:04:25.000Z","leapseconds":18,"ept":0.005,"lat":47.129092700,"lon":15.212043200,"altHAE":869.2180,"altMSL":826.5600,"alt":826.5600,"epx":12.450,"epy":10.950,"epv":0.777,"track":197.9506,"magtrack":202.0768,"magvar":4.1,"speed":0.012,"climb":0.011,"eps":24.60,"epc":1.32,"ecefx":4195432.03,"ecefy":1140820.66,"ecefz":4652177.70,"ecefvx":0.01,"ecefvy":0.02,"ecefvz":0.03,"ecefpAcc":0.85,"ecefvAcc":0.37,"geoidSep":44.866,"eph":0.337,"sep":31.233}
$GPGSV,12,1,48,01,03,161,40,03,34,108,29,04,67,055,24,06,51,291,31*48
$GPGSV,12,2,48,07,23,183,37,09,71,256,25,11,23,315,15,16,04,090,00*4D
$GPGSV,12,3,48,17,03,225,00,19,14,248,22,20,02,299,00,26,11,064,27*47
$GPGSV,12,4,48,31,01,031,00,36,34,158,42,40,24,131,00,41,06,107,38*44
$GPGSV,12,5,48,49,35,194,34,302,10,036,00,307,55,060,28,308,04,066,20*73
$GPGSV,12,6,48,310,01,332,00,312,22,320,00,319,22,251,00,326,37,188,35*49
$GPGSV,12,7,48,327,02,135,36,330,15,086,36,333,57,262,21,402,06,106,00*4B
$GPGSV,12,8,48,405,22,128,00,406,15,047,00,409,31,050,26,414,67,066,00*4F
$GPGSV,12,9,48,416,08,045,00,424,33,128,35,425,03,176,00,426,33,071,35*4A
$GPGSV,12,10,48,427,24,305,18,428,32,249,19,433,76,321,10,65,21,277,23*40
$GPGSV,12,11,48,70,01,080,00,71,44,057,26,72,64,322,26,73,35,079,29*7F
$GPGSV,12,12,48,74,22,131,35,86,14,194,00,87,48,255,13,88,32,319,09*74
{"class":"SKY","time":"2022-10-11T11:04:26.000Z","gdop":2.01,"hdop":0.87,"pdop":1.73,"tdop":1.03,"xdop":0.56,"ydop":0.67,"vdop":1.49,"nSat":48,"uSat":16,"satellites":[{"PRN":1,"gnssid":0,"svid":1,"az":161.0,"el":3.0,"prRes":16.1,"qual":7,"ss":40.0,"used":false,"health":1},{"PRN":3,"gnssid":0,"svid":3,"az":108.0,"el":34.0,"prRes":10.8,"qual":7,"ss":29.0,"used":true,"health":1},{"PRN":4,"gnssid":0,"svid":4,"az":55.0,"el":67.0,"prRes":5.5,"qual":4,"ss":24.0,"used":true,"health":1},{"PRN":6,"gnssid":0,"svid":6,"az":291.0,"el":51.0,"prRes":29.1,"qual":7,"ss":31.0,"used":true,"health":1},{"PRN":7,"gnssid":0,"svid":7,"az":183.0,"el":23.0,"prRes":18.3,"qual":7,"ss":37.0,"used":true,"health":1},{"PRN":9,"gnssid":0,"svid":9,"az":256.0,"el":71.0,"prRes":25.6,"qual":4,"ss":25.0,"used":false,"health":1},{"PRN":11,"gnssid":0,"svid":11,"az":315.0,"el":23.0,"prRes":31.5,"qual":3,"ss":15.0,"used":false,"health":1},{"PRN":16,"gnssid":0,"svid":16,"az":90.0,"el":4.0,"prRes":9.0,"qual":0,"ss":0.0,"used":false,"health":1},{"PRN":17,"gnssid":0,"svid":17,"az":225.0,"el":3.0,"prRes":22.5,"qual":1,"ss":0.0,"used":false,"health":1},{"PRN":19,"gnssid":0,"svid":19,"az":248.0,"el":14.0,"prRes":24.8,"qual":3,"ss":22.0,"used":false,"health":1},{"PRN":20,"gnssid":0,"svid":20,"az":299.0,"el":2.0,"prRes":29.9,"qual":0,"ss":0.0,"used":false,"health":1},{"PRN":26,"gnssid":0,"svid":26,"az":64.0,"el":11.0,"prRes":6.4,"qual":6,"ss":27.0,"used":true,"health":1},{"PRN":31,"gnssid":0,"svid":31,"az":31.0,"el":1.0,"prRes":3.1,"qual":0,"ss":0.0,"used":false,"health":1},{"PRN":36,"gnssid":1,"svid":123,"az":158.0,"el":34.0,"prRes":15.8,"qual":7,"ss":42.0,"used":false,"health":1},{"PRN":40,"gnssid":1,"svid":127,"az":131.0,"el":24.0,"prRes":13.1,"qual":0,"ss":0.0,"used":false},{"PRN":41,"gnssid":1,"svid":128,"az":107.0,"el":6.0,"prRes":10.7,"qual":7,"ss":38.0,"used":false},{"PRN":49,"gnssid":1,"svid":136,"az":194.0,"el":35.0,"prRes":19.4,"qual":7,"ss":34.0,"used":false,"health":1},{"PRN":302,"gnssid":2,"svid":2,"az":36.0,"el":10.0,"prRes":3.6,"qual":1,"ss":0.0,"used":false,"health":1},{"PRN":307,"gnssid":2,"svid":7,"az":60.0,"el":55.0,"prRes":6.0,"qual":7,"ss":28.0,"used":true,"health":1},{"PRN":308,"gnssid":2,"svid":8,"az":66.0,"el":4.0,"prRes":6.6,"qual":4,"ss":20.0,"used":false,"health":1},{"PRN":310,"gnssid":2,"svid":10,"az":332.0,"el":1.0,"prRes":33.2,"qual":0,"ss":0.0,"used":false,"health":1},{"PRN":312,"gnssid":2,"svid":12,"az":320.0,"el":22.0,"prRes":32.0,"qual":1,"ss":0.0,"used":false,"health":1},{"PRN":319,"gnssid":2,"svid":19,"az":251.0,"el":22.0,"prRes":25.1,"qual":1,"ss":0.0,"used":false,"health":1},{"PRN":326,"gnssid":2,"svid":26,"az":188.0,"el":37.0,"prRes":18.8,"qual":7,"ss":35.0,"used":true,"health":1},{"PRN":327,"gnssid":2,"svid":27,"az":135.0,"el":2.0,"prRes":13.5,"qual":7,"ss":36.0,"used":false,"health":1},{"PRN":330,"gnssid":2,"svid":30,"az":86.0,"el":15.0,"prRes":8.6,"qual":7,"ss":36.0,"used":true,"health":1},{"PRN":333,"gnssid":2,"svid":33,"az":262.0,"el":57.0,"prRes":26.2,"qual":4,"ss":21.0,"used":true,"health":1},{"PRN":402,"gnssid":3,"svid":2,"az":106.0,"el":6.0,"prRes":10.6,"qual":0,"ss":0.0,"used":false,"health":1},{"PRN":405,"gnssid":3,"svid":5,"az":128.0,"el":22.0,"prRes":12.8,"qual":0,"ss":0.0,"used":false,"health":1},{"PRN":406,"gnssid":3,"svid":6,"az":47.0,"el":15.0,"prRes":4.7,"qual":0,"ss":0.0,"used":false,"health":1},{"PRN":409,"gnssid":3,"svid":9,"az":50.0,"el":31.0,"prRes":5.0,"qual":4,"ss":26.0,"used":true,"health":1},{"PRN":414,"gnssid":3,"svid":14,"az":66.0,"el":67.0,"prRes":6.6,"qual":0,"ss":0.0,"used":false,"health":1},{"PRN":416,"gnssid":3,"svid":16,"az":45.0,"el":8.0,"prRes":4.5,"qual":0,"ss":0.0,"used":false,"health":1},{"PRN":424,"gnssid":3,"svid":24,"az":128.0,"el":33.0,"prRes":12.8,"qual":7,"ss":35.0,"used":true,"health":1},{"PRN":425,"gnssid":3,"svid":25,"az":176.0,"el":3.0,"prRes":17.6,"qual":0,"ss":0.0,"used":false,"health":1},{"PRN":426,"gnssid":3,"svid":26,"az":71.0,"el":33.0,"prRes":7.1,"qual":7,"ss":35.0,"used":true,"health":1},{"PRN":427,"gnssid":3,"svid":27,"az":305.0,"el":24.0,"prRes":30.5,"qual":4,"ss":18.0,"used":false,"health":1},{"PRN":428,"gnssid":3,"svid":28,"az":249.0,"el":32.0,"prRes":24.9,"qual":4,"ss":19.0,"used":true,"health":1},{"PRN":433,"gnssid":3,"svid":33,"az":321.0,"el":76.0,"prRes":32.1,"qual":4,"ss":10.0,"used":false,"health":1},{"PRN":65,"gnssid":6,"svid":1,"az":277.0,"el":21.0,"prRes":27.7,"qual":4,"ss":23.0,"used":false,"health":1},{"PRN":70,"gnssid":6,"svid":6,"az":80.0,"el":1.0,"prRes":8.0,"qual":1,"ss":0.0,"used":false,"health":1},{"PRN":71,"gnssid":6,"svid":7,"az":57.0,"el":44.0,"prRes":5.7,"qual":5,"ss":26.0,"used":true,"health":1}]}
{"class":"SKY","time":"2022-10-11T11:04:26.000Z","gdop":2.55,"hdop":1.18,"pdop":2.18,"tdop":1.33,"xdop":0.87,"ydop":0.79,"vdop":1.83}
$GPZDA,110426.00,11,10,2022,00,00*65
$GPGGA,110426.00,4707.7455560,N,01512.7225860,E,5,17,1.18,826.54,M,44.866,M,,*6C
$GPRMC,110426.00,A,4707.7455560,N,1512.7225860,E,0.0039,197.951,111022,4.1,E*5B
$GPGSA,A,3,3,4,6,7,26,,,,,,,,2.2,1.2,1.8*3A
$GPGBS,110426.00,13.050,11.850,0.836,,,,*46
{"class":"TPV","status":4,"mode":3,"time":"2022-10-11T11:04:26.000Z","leapseconds":18,"ept":0.005,"lat":47.129092600,"lon":15.212043100,"altHAE":869.1980,"altMSL":826.5410,"alt":826.5410,"epx":13.050,"epy":11.850,"epv":0.836,"track":197.9506,"magtrack":202.0768,"magvar":4.1,"speed":0.002,"climb":-0.020,"eps":25.50,"epc":1.61,"ecefx":4195432.02,"ecefy":1140820.64,"ecefz":4652177.68,"ecefvx":0.00,"ecefvy":0.00,"ecefvz":0.00,"ecefpAcc":0.90,"ecefvAcc":0.26,"geoidSep":44.866,"eph":0.336,"sep":32.864}
$GPGSV,12,1,48,01,03,161,40,03,34,108,30,04,66,055,24,06,51,291,31*41
$GPGSV,12,2,48,07,23,183,37,09,71,256,25,11,23,315,17,16,04,090,00*4F
$GPGSV,12,3,48,17,03,225,00,19,14,248,22,20,02,299,00,26,11,064,29*49
$GPGSV,12,4,48,31,01,031,00,36,34,158,42,40,24,131,00,41,06,107,38*44
$GPGSV,12,5,48,49,35,194,34,302,10,036,00,307,55,060,28,308,04,066,20*73
$GPGSV,12,6,48,310,01,332,00,312,22,320,00,319,22,251,00,326,37,188,35*49
$GPGSV,12,7,48,327,02,135,36,330,15,086,37,333,57,262,20,402,06,106,00*4B
$GPGSV,12,8,48,405,22,128,00,406,15,047,00,409,31,050,26,414,67,066,00*4F
$GPGSV,12,9,48,416,08,045,00,424,33,128,35,425,03,176,00,426,33,071,34*4B
$GPGSV,12,10,48,427,24,305,17,428,32,249,20,433,76,321,10,65,21,277,23*45
$GPGSV,12,11,48,70,01,080,00,71,44,057,26,72,64,322,26,73,35,079,27*71
$GPGSV,12,12,48,74,22,131,38,86,14,194,00,87,48,255,13,88,32,319,15*74
{"class":"SKY","time":"2022-10-11T11:04:27.000Z","gdop":1.93,"hdop":0.85,"pdop":1.66,"tdop":1.00,"xdop":0.53,"ydop":0.67,"vdop":1.42,"nSat":48,"uSat":18,"satellites":[{"PRN":1,"gnssid":0,"svid":1,"az":161.0,"el":3.0,"prRes":16.1,"qual":7,"ss":40.0,"used":false,"health":1},{"PRN":3,"gnssid":0,"svid":3,"az":108.0,"el":34.0,"prRes":10.8,"qual":7,"ss":30.0,"used":true,"health":1},{"PRN":4,"gnssid":0,"svid":4,"az":55.0,"el":66.0,"prRes":5.5,"qual":4,"ss":24.0,"used":true,"health":1},{"PRN":6,"gnssid":0,"svid":6,"az":291.0,"el":51.0,"prRes":29.1,"qual":7,"ss":31.0,"used":true,"health":1},{"PRN":7,"gnssid":0,"svid":7,"az":183.0,"el":23.0,"prRes":18.3,"qual":7,"ss":37.0,"used":true,"health":1},{"PRN":9,"gnssid":0,"svid":9,"az":256.0,"el":71.0,"prRes":25.6,"qual":4,"ss":25.0,"used":true,"health":1},{"PRN":11,"gnssid":0,"svid":11,"az":315.0,"el":23.0,"prRes":31.5,"qual":3,"ss":17.0,"used":false,"health":1},{"PRN":16,"gnssid":0,"svid":16,"az":90.0,"el":4.0,"prRes":9.0,"qual":0,"ss":0.0,"used":false,"health":1},{"PRN":17,"gnssid":0,"svid":17,"az":225.0,"el":3.0,"prRes":22.5,"qual":0,"ss":0.0,"used":false,"health":1},{"PRN":19,"gnssid":0,"svid":19,"az":248.0,"el":14.0,"prRes":24.8,"qual":3,"ss":22.0,"used":false,"health":1},{"PRN":20,"gnssid":0,"svid":20,"az":299.0,"el":2.0,"prRes":29.9,"qual":0,"ss":0.0,"used":false,"health":1},{"PRN":26,"gnssid":0,"svid":26,"az":64.0,"el":11.0,"prRes":6.4,"qual":6,"ss":29.0,"used":true,"health":1},{"PRN":31,"gnssid":0,"svid":31,"az":31.0,"el":1.0,"prRes":3.1,"qual":0,"ss":0.0,"used":false,"health":1},{"PRN":36,"gnssid":1,"svid":123,"az":158.0,"el":34.0,"prRes":15.8,"qual":7,"ss":42.0,"used":false,"health":1},{"PRN":40,"gnssid":1,"svid":127,"az":131.0,"el":24.0,"prRes":13.1,"qual":0,"ss":0.0,"used":false},{"PRN":41,"gnssid":1,"svid":128,"az":107.0,"el":6.0,"prRes":10.7,"qual":7,"ss":38.0,"used":false},{"PRN":49,"gnssid":1,"svid":136,"az":194.0,"el":35.0,"prRes":19.4,"qual":7,"ss":34.0,"used":false,"health":1},{"PRN":302,"gnssid":2,"svid":2,"az":36.0,"el":10.0,"prRes":3.6,"qual":1,"ss":0.0,"used":false,"health":1},{"PRN":307,"gnssid":2,"svid":7,"az":60.0,"el":55.0,"prRes":6.0,"qual":7,"ss":28.0,"used":true,"health":1},{"PRN":308,"gnssid":2,"svid":8,"az":66.0,"el":4.0,"prRes":6.6,"qual":4,"ss":20.0,"used":false,"health":1},{"PRN":310,"gnssid":2,"svid":10,"az":332.0,"el":1.0,"prRes":33.2,"qual":0,"ss":0.0,"used":false,"health":1},{"PRN":312,"gnssid":2,"svid":12,"az":320.0,"el":22.0,"prRes":32.0,"qual":1,"ss":0.0,"used":false,"health":1},{"PRN":319,"gnssid":2,"svid":19,"az":251.0,"el":22.0,"prRes":25.1,"qual":1,"ss":0.0,"used":false,"health":1},{"PRN":326,"gnssid":2,"svid":26,"az":188.0,"el":37.0,"prRes":18.8,"qual":7,"ss":35.0,"used":true,"health":1},{"PRN":327,"gnssid":2,"svid":27,"az":135.0,"el":2.0,"prRes":13.5,"qual":7,"ss":36.0,"used":false,"health":1},{"PRN":330,"gnssid":2,"svid":30,"az":86.0,"el":15.0,"prRes":8.6,"qual":7,"ss":37.0,"used":true,"health":1},{"PRN":333,"gnssid":2,"svid":33,"az":262.0,"el":57.0,"prRes":26.2,"qual":4,"ss":20.0,"used":true,"health":1},{"PRN":402,"gnssid":3,"svid":2,"az":106.0,"el":6.0,"prRes":10.6,"qual":0,"ss":0.0,"used":false,"health":1},{"PRN":405,"gnssid":3,"svid":5,"az":128.0,"el":22.0,"prRes":12.8,"qual":0,"ss":0.0,"used":false,"health":1},{"PRN":406,"gnssid":3,"svid":6,"az":47.0,"el":15.0,"prRes":4.7,"qual":0,"ss":0.0,"used":false,"health":1},{"PRN":409,"gnssid":3,"svid":9,"az":50.0,"el":31.0,"prRes":5.0,"qual":4,"ss":26.0,"used":true,"health":1},{"PRN":414,"gnssid":3,"svid":14,"az":66.0,"el":67.0,"prRes":6.6,"qual":0,"ss":0.0,"used":false,"health":1},{"PRN":416,"gnssid":3,"svid":16,"az":45.0,"el":8.0,"prRes":4.5,"qual":0,"ss":0.0,"used":false,"health":1},{"PRN":424,"gnssid":3,"svid":24,"az":128.0,"el":33.0,"prRes":12.8,"qual":7,"ss":35.0,"used":true,"health":1},{"PRN":425,"gnssid":3,"svid":25,"az":176.0,"el":3.0,"prRes":17.6,"qual":0,"ss":0.0,"used":false,"health":1},{"PRN":426,"gnssid":3,"svid":26,"az":71.0,"el":33.0,"prRes":7.1,"qual":7,"ss":34.0,"used":true,"health":1},{"PRN":427,"gnssid":3,"svid":27,"az":305.0,"el":24.0,"prRes":30.5,"qual":4,"ss":17.0,"used":false,"health":1},{"PRN":428,"gnssid":3,"svid":28,"az":249.0,"el":32.0,"prRes":24.9,"qual":4,"ss":20.0,"used":true,"health":1},{"PRN":433,"gnssid":3,"svid":33,"az":321.0,"el":76.0,"prRes":32.1,"qual":4,"ss":10.0,"used":false,"health":1},{"PRN":65,"gnssid":6,"svid":1,"az":277.0,"el":21.0,"prRes":27.7,"qual":4,"ss":23.0,"used":false,"health":1},{"PRN":70,"gnssid":6,"svid":6,"az":80.0,"el":1.0,"prRes":8.0,"qual":1,"ss":0.0,"used":false,"health":1},{"PRN":71,"gnssid":6,"svid":7,"az":57.0,"el":44.0,"prRes":5.7,"qual":7,"ss":26.0,"used":true,"health":1}]}
{"class":"SKY","time":"2022-10-11T11:04:27.000Z","gdop":2.50,"hdop":1.11,"pdop":2.13,"tdop":1.33,"xdop":0.80,"ydop":0.76,"vdop":1.82}
$GPZDA,110427.00,11,10,2022,00,00*64
$GPGGA,110427.00,4707.7455560,N,01512.7225860,E,5,19,1.11,826.53,M,44.866,M,,*6D
$GPRMC,110427.00,A,4707.7455560,N,1512.7225860,E,0.0175,197.951,111022,4.1,E*53
$GPGSA,A,3,3,4,6,7,9,26,,,,,,,2.1,1.1,1.8*03
$GPGBS,110427.00,12.000,11.400,0.841,,,,*4A
{"class":"TPV","status":4,"mode":3,"time":"2022-10-11T11:04:27.000Z","leapseconds":18,"ept":0.005,"lat":47.129092600,"lon":15.212043100,"altHAE":869.1920,"altMSL":826.5350,"alt":826.5350,"epx":12.000,"epy":11.400,"epv":0.841,"track":197.9506,"magtrack":202.0768,"magvar":4.1,"speed":0.009,"climb":-0.006,"eps":25.05,"epc":1.68,"ecefx":4195432.02,"ecefy":1140820.64,"ecefz":4652177.67,"ecefvx":0.01,"ecefvy":0.01,"ecefvz":0.01,"ecefpAcc":0.91,"ecefvAcc":0.38,"geoidSep":44.866,"eph":0.337,"sep":31.492}
$GPGSV,12,1,48,01,03,161,40,03,34,108,31,04,66,055,25,06,51,291,31*41
$GPGSV,12,2,48,07,23,183,38,09,71,256,23,11,23,315,17,16,04,090,00*46
$GPGSV,12,3,48,17,03,225,00,19,14,248,20,20,02,299,00,26,11,064,30*43
$GPGSV,12,4,48,31,01,031,00,36,34,158,42,40,24,131,00,41,06,107,38*44
$GPGSV,12,5,48,49,35,194,34,302,10,036,00,307,55,060,28,308,04,066,20*73
$GPGSV,12,6,48,310,01,332,00,312,22,320,00,319,22,251,00,326,37,188,35*49
$GPGSV,12,7,48,327,02,135,36,330,15,086,37,333,57,262,20,402,06,106,00*4B
$GPGSV,12,8,48,405,22,128,00,406,15,047,00,409,31,050,27,414,67,066,00*4E
$GPGSV,12,9,48,416,08,045,00,424,33,128,35,425,03,176,00,426,33,071,34*4B
$GPGSV,12,10,48,427,24,305,16,428,32,249,21,433,76,321,11,65,21,277,22*45
$GPGSV,12,11,48,70,01,080,00,71,44,057,23,72,64,322,25,73,35,079,26*76
$GPGSV,12,12,48,74,22,131,38,86,14,194,00,87,48,255,14,88,32,319,18*7E
{"class":"SKY","time":"2022-10-11T11:04:28.000Z","gdop":1.88,"hdop":0.85,"pdop":1.61,"tdop":0.97,"xdop":0.53,"ydop":0.67,"vdop":1.36,"nSat":48,"uSat":19,"satellites":[{"PRN":1,"gnssid":0,"svid":1,"az":161.0,"el":3.0,"prRes":16.1,"qual":7,"ss":40.0,"used":false,"health":1},{"PRN":3,"gnssid":0,"svid":3,"az":108.0,"el":34.0,"prRes":10.8,"qual":7,"ss":31.0,"used":true,"health":1},{"PRN":4,"gnssid":0,"svid":4,"az":55.0,"el":66.0,"prRes":5.5,"qual":4,"ss":25.0,"used":true,"health":1},{"PRN":6,"gnssid":0,"svid":6,"az":291.0,"el":51.0,"prRes":29.1,"qual":7,"ss":31.0,"used":true,"health":1},{"PRN":7,"gnssid":0,"svid":7,"az":183.0,"el":23.0,"prRes":18.3,"qual":7,"ss":38.0,"used":true,"health":1},{"PRN":9,"gnssid":0,"svid":9,"az":256.0,"el":71.0,"prRes":25.6,"qual":4,"ss":23.0,"used":true,"health":1},{"PRN":11,"gnssid":0,"svid":11,"az":315.0,"el":23.0,"prRes":31.5,"qual":3,"ss":17.0,"used":false,"health":1},{"PRN":16,"gnssid":0,"svid":16,"az":90.0,"el":4.0,"prRes":9.0,"qual":0,"ss":0.0,"used":false,"health":1},{"PRN":17,"gnssid":0,"svid":17,"az":225.0,"el":3.0,"prRes":22.5,"qual":1,"ss":0.0,"used":false,"health":1},{"PRN":19,"gnssid":0,"svid":19,"az":248.0,"el":14.0,"prRes":24.8,"qual":3,"ss":20.0,"used":false,"health":1},{"PRN":20,"gnssid":0,"svid":20,"az":299.0,"el":2.0,"prRes":29.9,"qual":0,"ss":0.0,"used":false,"health":1},{"PRN":26,"gnssid":0,"svid":26,"az":64.0,"el":11.0,"prRes":6.4,"qual":6,"ss":30.0,"used":true,"health":1},{"PRN":31,"gnssid":0,"svid":31,"az":31.0,"el":1.0,"prRes":3.1,"qual":0,"ss":0.0,"used":false,"health":1},{"PRN":36,"gnssid":1,"svid":123,"az":158.0,"el":34.0,"prRes":15.8,"qual":7,"ss":42.0,"used":false,"health":1},{"PRN":40,"gnssid":1,"svid":127,"az":131.0,"el":24.0,"prRes":13.1,"qual":0,"ss":0.0,"used":false},{"PRN":41,"gnssid":1,"svid":128,"az":107.0,"el":6.0,"prRes":10.7,"qual":7,"ss":38.0,"used":false},{"PRN":49,"gnssid":1,"svid":136,"az":194.0,"el":35.0,"prRes":19.4,"qual":7,"ss":34.0,"used":false,"health":1},{"PRN":302,"gnssid":2,"svid":2,"az":36.0,"el":10.0,"prRes":3.6,"qual":1,"ss":0.0,"used":false,"health":1},{"PRN":307,"gnssid":2,"svid":7,"az":60.0,"el":55.0,"prRes":6.0,"qual":7,"ss":28.0,"used":true,"health":1},{"PRN":308,"gnssid":2,"svid":8,"az":66.0,"el":4.0,"prRes":6.6,"qual":4,"ss":20.0,"used":false,"health":1},{"PRN":310,"gnssid":2,"svid":10,"az":332.0,"el":1.0,"prRes":33.2,"qual":0,"ss":0.0,"used":false,"health":1},{"PRN":312,"gnssid":2,"svid":12,"az":320.0,"el":22.0,"prRes":32.0,"qual":1,"ss":0.0,"used":false,"health":1},{"PRN":319,"gnssid":2,"svid":19,"az":251.0,"el":22.0,"prRes":25.1,"qual":1,"ss":0.0,"used":false,"health":1},{"PRN":326,"gnssid":2,"svid":26,"az":188.0,"el":37.0,"prRes":18.8,"qual":7,"ss":35.0,"used":true,"health":1},{"PRN":327,"gnssid":2,"svid":27,"az":135.0,"el":2.0,"prRes":13.5,"qual":7,"ss":36.0,"used":false,"health":1},{"PRN":330,"gnssid":2,"svid":30,"az":86.0,"el":15.0,"prRes":8.6,"qual":7,"ss":37.0,"used":true,"health":1},{"PRN":333,"gnssid":2,"svid":33,"az":262.0,"el":57.0,"prRes":26.2,"qual":4,"ss":20.0,"used":true,"health":1},{"PRN":402,"gnssid":3,"svid":2,"az":106.0,"el":6.0,"prRes":10.6,"qual":0,"ss":0.0,"used":false,"health":1},{"PRN":405,"gnssid":3,"svid":5,"az":128.0,"el":22.0,"prRes":12.8,"qual":0,"ss":0.0,"used":false,"health":1},{"PRN":406,"gnssid":3,"svid":6,"az":47.0,"el":15.0,"prRes":4.7,"qual":0,"ss":0.0,"used":false,"health":1},{"PRN":409,"gnssid":3,"svid":9,"az":50.0,"el":31.0,"prRes":5.0,"qual":4,"ss":27.0,"used":true,"health":1},{"PRN":414,"gnssid":3,"svid":14,"az":66.0,"el":67.0,"prRes":6.6,"qual":0,"ss":0.0,"used":false,"health":1},{"PRN":416,"gnssid":3,"svid":16,"az":45.0,"el":8.0,"prRes":4.5,"qual":0,"ss":0.0,"used":false,"health":1},{"PRN":424,"gnssid":3,"svid":24,"az":128.0,"el":33.0,"prRes":12.8,"qual":7,"ss":35.0,"used":true,"health":1},{"PRN":425,"gnssid":3,"svid":25,"az":176.0,"el":3.0,"prRes":17.6,"qual":0,"ss":0.0,"used":false,"health":1},{"PRN":426,"gnssid":3,"svid":26,"az":71.0,"el":33.0,"prRes":7.1,"qual":7,"ss":34.0,"used":true,"health":1},{"PRN":427,"gnssid":3,"svid":27,"az":305.0,"el":24.0,"prRes":30.5,"qual":4,"ss":16.0,"used":false,"health":1},{"PRN":428,"gnssid":3,"svid":28,"az":249.0,"el":32.0,"prRes":24.9,"qual":4,"ss":21.0,"used":true,"health":1},{"PRN":433,"gnssid":3,"svid":33,"az":321.0,"el":76.0,"prRes":32.1,"qual":4,"ss":11.0,"used":true,"health":1},{"PRN":65,"gnssid":6,"svid":1,"az":277.0,"el":21.0,"prRes":27.7,"qual":4,"ss":22.0,"used":false,"health":1},{"PRN":70,"gnssid":6,"svid":6,"az":80.0,"el":1.0,"prRes":8.0,"qual":1,"ss":0.0,"used":false,"health":1},{"PRN":71,"gnssid":6,"svid":7,"az":57.0,"el":44.0,"prRes":5.7,"qual":4,"ss":23.0,"used":true,"health":1}]}
{"class":"SKY","time":"2022-10-11T11:04:28.000Z","gdop":2.93,"hdop":1.19,"pdop":2.52,"tdop":1.48,"xdop":0.89,"ydop":0.80,"vdop":2.22}
$GPZDA,110428.00,11,10,2022,00,00*6B
$GPGGA,110428.00,4707.7455560,N,01512.7225860,E,5,20,1.19,826.53,M,44.866,M,,*60
$GPRMC,110428.00,A,4707.7455560,N,1512.7225860,E,0.0233,197.951,111022,4.1,E*5D
$GPGSA,A,3,3,4,6,7,9,26,,,,,,,2.5,1.2,2.2*0D
$GPGBS,110428.00,13.350,12.000,0.833,,,,*40
{"class":"TPV","status":4,"mode":3,"time":"2022-10-11T11:04:28.000Z","leapseconds":18,"ept":0.005,"lat":47.129092600,"lon":15.212043100,"altHAE":869.1910,"altMSL":826.5330,"alt":826.5330,"epx":13.350,"epy":12.000,"epv":0.833,"track":197.9506,"magtrack":202.0768,"magvar":4.1,"speed":0.012,"climb":-0.001,"eps":25.35,"epc":1.67,"ecefx":4195432.02,"ecefy":1140820.65,"ecefz":4652177.68,"ecefvx":0.00,"ecefvy":0.00,"ecefvz":0.02,"ecefpAcc":0.90,"ecefvAcc":0.31,"geoidSep":44.866,"eph":0.336,"sep":30.510}
$GPGSV,12,1,48,01,03,161,40,03,34,108,32,04,66,055,25,06,51,290,31*43
$GPGSV,12,2,48,07,23,183,38,09,71,256,22,11,23,315,15,16,04,090,00*45
$GPGSV,12,3,48,17,03,225,00,19,14,248,17,20,02,299,00,26,11,064,31*46
$GPGSV,12,4,48,31,01,031,00,36,34,158,42,40,24,131,00,41,06,107,38*44
$GPGSV,12,5,48,49,35,194,34,302,10,036,00,307,55,060,28,308,04,066,19*79
$GPGSV,12,6,48,310,01,332,00,312,22,320,00,319,22,251,00,326,37,188,35*49
$GPGSV,12,7,48,327,02,135,36,330,15,086,37,333,57,262,20,402,06,106,00*4B
$GPGSV,12,8,48,405,22,128,00,406,15,047,00,409,31,050,27,414,67,066,00*4E
$GPGSV,12,9,48,416,08,045,00,424,33,128,36,425,03,176,00,426,33,071,34*48
$GPGSV,12,10,48,427,24,305,13,428,32,249,21,433,76,321,13,65,21,277,19*4A
$GPGSV,12,11,48,70,01,080,00,71,44,057,21,72,64,322,26,73,35,079,26*77
$GPGSV,12,12,48,74,22,131,38,86,14,194,00,87,48,255,16,88,32,319,20*77
{"class":"SKY","time":"2022-10-11T11:04:29.000Z","gdop":1.93,"hdop":0.85,"pdop":1.66,"tdop":1.00,"xdop":0.53,"ydop":0.67,"vdop":1.42,"nSat":48,"uSat":18,"satellites":[{"PRN":1,"gnssid":0,"svid":1,"az":161.0,"el":3.0,"prRes":16.1,"qual":7,"ss":40.0,"used":false,"health":1},{"PRN":3,"gnssid":0,"svid":3,"az":108.0,"el":34.0,"prRes":10.8,"qual":7,"ss":32.0,"used":true,"health":1},{"PRN":4,"gnssid":0,"svid":4,"az":55.0,"el":66.0,"prRes":5.5,"qual":4,"ss":25.0,"used":true,"health":1},{"PRN":6,"gnssid":0,"svid":6,"az":290.0,"el":51.0,"prRes":29.0,"qual":7,"ss":31.0,"used":true,"health":1},{"PRN":7,"gnssid":0,"svid":7,"az":183.0,"el":23.0,"prRes":18.3,"qual":7,"ss":38.0,"used":true,"health":1},{"PRN":9,"gnssid":0,"svid":9,"az":256.0,"el":71.0,"prRes":25.6,"qual":4,"ss":22.0,"used":true,"health":1},{"PRN":11,"gnssid":0,"svid":11,"az":315.0,"el":23.0,"prRes":31.5,"qual":3,"ss":15.0,"used":false,"health":1},{"PRN":16,"gnssid":0,"svid":16,"az":90.0,"el":4.0,"prRes":9.0,"qual":0,"ss":0.0,"used":false,"health":1},{"PRN":17,"gnssid":0,"svid":17,"az":225.0,"el":3.0,"prRes":22.5,"qual":1,"ss":0.0,"used":false,"health":1},{"PRN":19,"gnssid":0,"svid":19,"az":248.0,"el":14.0,"prRes":24.8,"qual":3,"ss":17.0,"used":false,"health":1},{"PRN":20,"gnssid":0,"svid":20,"az":299.0,"el":2.0,"prRes":29.9,"qual":0,"ss":0.0,"used":false,"health":1},{"PRN":26,"gnssid":0,"svid":26,"az":64.0,"el":11.0,"prRes":6.4,"qual":6,"ss":31.0,"used":true,"health":1},{"PRN":31,"gnssid":0,"svid":31,"az":31.0,"el":1.0,"prRes":3.1,"qual":0,"ss":0.0,"used":false,"health":1},{"PRN":36,"gnssid":1,"svid":123,"az":158.0,"el":34.0,"prRes":15.8,"qual":7,"ss":42.0,"used":false,"health":1},{"PRN":40,"gnssid":1,"svid":127,"az":131.0,"el":24.0,"prRes":13.1,"qual":0,"ss":0.0,"used":false},{"PRN":41,"gnssid":1,"svid":128,"az":107.0,"el":6.0,"prRes":10.7,"qual":7,"ss":38.0,"used":false},{"PRN":49,"gnssid":1,"svid":136,"az":194.0,"el":35.0,"prRes":19.4,"qual":7,"ss":34.0,"used":false,"health":1},{"PRN":302,"gnssid":2,"svid":2,"az":36.0,"el":10.0,"prRes":3.6,"qual":1,"ss":0.0,"used":false,"health":1},{"PRN":307,"gnssid":2,"svid":7,"az":60.0,"el":55.0,"prRes":6.0,"qual":7,"ss":28.0,"used":true,"health":1},{"PRN":308,"gnssid":2,"svid":8,"az":66.0,"el":4.0,"prRes":6.6,"qual":4,"ss":19.0,"used":false,"health":1},{"PRN":310,"gnssid":2,"svid":10,"az":332.0,"el":1.0,"prRes":33.2,"qual":0,"ss":0.0,"used":false,"health":1},{"PRN":312,"gnssid":2,"svid":12,"az":320.0,"el":22.0,"prRes":32.0,"qual":1,"ss":0.0,"used":false,"health":1},{"PRN":319,"gnssid":2,"svid":19,"az":251.0,"el":22.0,"prRes":25.1,"qual":1,"ss":0.0,"used":false,"health":1},{"PRN":326,"gnssid":2,"svid":26,"az":188.0,"el":37.0,"prRes":18.8,"qual":7,"ss":35.0,"used":true,"health":1},{"PRN":327,"gnssid":2,"svid":27,"az":135.0,"el":2.0,"prRes":13.5,"qual":7,"ss":36.0,"used":false,"health":1},{"PRN":330,"gnssid":2,"svid":30,"az":86.0,"el":15.0,"prRes":8.6,"qual":7,"ss":37.0,"used":true,"health":1},{"PRN":333,"gnssid":2,"svid":33,"az":262.0,"el":57.0,"prRes":26.2,"qual":4,"ss":20.0,"used":true,"health":1},{"PRN":402,"gnssid":3,"svid":2,"az":106.0,"el":6.0,"prRes":10.6,"qual":0,"ss":0.0,"used":false,"health":1},{"PRN":405,"gnssid":3,"svid":5,"az":128.0,"el":22.0,"prRes":12.8,"qual":0,"ss":0.0,"used":false,"health":1},{"PRN":406,"gnssid":3,"svid":6,"az":47.0,"el":15.0,"prRes":4.7,"qual":0,"ss":0.0,"used":false,"health":1},{"PRN":409,"gnssid":3,"svid":9,"az":50.0,"el":31.0,"prRes":5.0,"qual":6,"ss":27.0,"used":true,"health":1},{"PRN":414,"gnssid":3,"svid":14,"az":66.0,"el":67.0,"prRes":6.6,"qual":0,"ss":0.0,"used":false,"health":1},{"PRN":416,"gnssid":3,"svid":16,"az":45.0,"el":8.0,"prRes":4.5,"qual":0,"ss":0.0,"used":false,"health":1},{"PRN":424,"gnssid":3,"svid":24,"az":128.0,"el":33.0,"prRes":12.8,"qual":7,"ss":36.0,"used":true,"health":1},{"PRN":425,"gnssid":3,"svid":25,"az":176.0,"el":3.0,"prRes":17.6,"qual":0,"ss":0.0,"used":false,"health":1},{"PRN":426,"gnssid":3,"svid":26,"az":71.0,"el":33.0,"prRes":7.1,"qual":7,"ss":34.0,"used":true,"health":1},{"PRN":427,"gnssid":3,"svid":27,"az":305.0,"el":24.0,"prRes":30.5,"qual":4,"ss":13.0,"used":false,"health":1},{"PRN":428,"gnssid":3,"svid":28,"az":249.0,"el":32.0,"prRes":24.9,"qual":4,"ss":21.0,"used":true,"health":1},{"PRN":433,"gnssid":3,"svid":33,"az":321.0,"el":76.0,"prRes":32.1,"qual":4,"ss":13.0,"used":false,"health":1},{"PRN":65,"gnssid":6,"svid":1,"az":277.0,"el":21.0,"prRes":27.7,"qual":4,"ss":19.0,"used":false,"health":1},{"PRN":70,"gnssid":6,"svid":6,"az":80.0,"el":1.0,"prRes":8.0,"qual":1,"ss":0.0,"used":false,"health":1},{"PRN":71,"gnssid":6,"svid":7,"az":57.0,"el":44.0,"prRes":5.7,"qual":4,"ss":21.0,"used":true,"health":1}]}
{"class":"SKY","time":"2022-10-11T11:04:29.000Z","gdop":2.83,"hdop":1.14,"pdop":2.42,"tdop":1.48,"xdop":0.85,"ydop":0.77,"vdop":2.13}
$GPZDA,110429.00,11,10,2022,00,00*6A
$GPGGA,110429.00,4707.7455620,N,01512.7225860,E,5,19,1.14,826.51,M,44.866,M,,*63
$GPRMC,110429.00,A,4707.7455620,N,1512.7225860,E,0.0369,197.951,111022,4.1,E*55
$GPGSA,A,3,3,4,6,7,9,26,,,,,,,2.4,1.1,2.1*0C
$GPGBS,110429.00,12.750,11.550,0.713,,,,*4A
{"class":"TPV","status":4,"mode":3,"time":"2022-10-11T11:04:29.000Z","leapseconds":18,"ept":0.005,"lat":47.129092700,"lon":15.212043100,"altHAE":869.1710,"altMSL":826.5130,"alt":826.5130,"epx":12.750,"epy":11.550,"epv":0.713,"track":197.9506,"magtrack":202.0768,"magvar":4.1,"speed":0.019,"climb":-0.020,"eps":26.10,"epc":1.55,"ecefx":4195432.00,"ecefy":1140820.64,"ecefz":4652177.66,"ecefvx":0.01,"ecefvy":0.01,"ecefvz":-0.01,"ecefpAcc":0.77,"ecefvAcc":0.28,"geoidSep":44.866,"eph":0.286,"sep":31.505}
$GPGSV,12,1,48,01,03,161,39,03,34,108,32,04,66,055,24,06,51,290,30*4D
$GPGSV,12,2,48,07,24,183,37,09,71,256,21,11,23,315,00,16,04,090,00*4A
$GPGSV,12,3,48,17,03,225,00,19,14,248,17,20,02,299,00,26,11,064,30*47
$GPGSV,12,4,48,31,01,031,00,36,34,158,42,40,24,131,00,41,06,107,38*44
$GPGSV,12,5,48,49,35,194,34,302,10,036,00,307,55,060,26,308,04,066,19*77
$GPGSV,12,6,48,310,01,332,00,312,22,320,00,319,22,251,00,326,37,188,35*49
$GPGSV,12,7,48,327,02,135,35,330,15,086,37,333,57,262,20,402,06,106,00*48
$GPGSV,12,8,48,405,22,128,00,406,15,047,00,409,31,050,27,414,67,066,00*4E
$GPGSV,12,9,48,416,08,045,00,424,33,128,35,425,03,176,00,426,33,071,33*4C
$GPGSV,12,10,48,427,24,305,00,428,32,249,21,433,76,321,15,65,21,277,12*45
$GPGSV,12,11,48,70,01,080,00,71,44,057,19,72,64,322,26,73,35,079,28*72
$GPGSV,12,12,48,74,22,131,38,86,14,194,00,87,48,255,18,88,32,319,20*79
{"class":"SKY","time":"2022-10-11T11:04:30.000Z","gdop":1.88,"hdop":0.85,"pdop":1.61,"tdop":0.98,"xdop":0.53,"ydop":0.67,"vdop":1.37,"nSat":48,"uSat":19,"satellites":[{"PRN":1,"gnssid":0,"svid":1,"az":161.0,"el":3.0,"prRes":16.1,"qual":7,"ss":39.0,"used":false,"health":1},{"PRN":3,"gnssid":0,"svid":3,"az":108.0,"el":34.0,"prRes":10.8,"qual":7,"ss":32.0,"used":true,"health":1},{"PRN":4,"gnssid":0,"svid":4,"az":55.0,"el":66.0,"prRes":5.5,"qual":4,"ss":24.0,"used":true,"health":1},{"PRN":6,"gnssid":0,"svid":6,"az":290.0,"el":51.0,"prRes":29.0,"qual":7,"ss":30.0,"used":true,"health":1},{"PRN":7,"gnssid":0,"svid":7,"az":183.0,"el":24.0,"prRes":18.3,"qual":7,"ss":37.0,"used":true,"health":1},{"PRN":9,"gnssid":0,"svid":9,"az":256.0,"el":71.0,"prRes":25.6,"qual":4,"ss":21.0,"used":true,"health":1},{"PRN":11,"gnssid":0,"svid":11,"az":315.0,"el":23.0,"prRes":31.5,"qual":1,"ss":0.0,"used":false,"health":1},{"PRN":16,"gnssid":0,"svid":16,"az":90.0,"el":4.0,"prRes":9.0,"qual":0,"ss":0.0,"used":false,"health":1},{"PRN":17,"gnssid":0,"svid":17,"az":225.0,"el":3.0,"prRes":22.5,"qual":1,"ss":0.0,"used":false,"health":1},{"PRN":19,"gnssid":0,"svid":19,"az":248.0,"el":14.0,"prRes":24.8,"qual":4,"ss":17.0,"used":false,"health":1},{"PRN":20,"gnssid":0,"svid":20,"az":299.0,"el":2.0,"prRes":29.9,"qual":0,"ss":0.0,"used":false,"health":1},{"PRN":26,"gnssid":0,"svid":26,"az":64.0,"el":11.0,"prRes":6.4,"qual":6,"ss":30.0,"used":true,"health":1},{"PRN":31,"gnssid":0,"svid":31,"az":31.0,"el":1.0,"prRes":3.1,"qual":0,"ss":0.0,"used":false,"health":1},{"PRN":36,"gnssid":1,"svid":123,"az":158.0,"el":34.0,"prRes":15.8,"qual":7,"ss":42.0,"used":false,"health":1},{"PRN":40,"gnssid":1,"svid":127,"az":131.0,"el":24.0,"prRes":13.1,"qual":0,"ss":0.0,"used":false},{"PRN":41,"gnssid":1,"svid":128,"az":107.0,"el":6.0,"prRes":10.7,"qual":7,"ss":38.0,"used":false},{"PRN":49,"gnssid":1,"svid":136,"az":194.0,"el":35.0,"prRes":19.4,"qual":7,"ss":34.0,"used":false,"health":1},{"PRN":302,"gnssid":2,"svid":2,"az":36.0,"el":10.0,"prRes":3.6,"qual":1,"ss":0.0,"used":false,"health":1},{"PRN":307,"gnssid":2,"svid":7,"az":60.0,"el":55.0,"prRes":6.0,"qual":7,"ss":26.0,"used":true,"health":1},{"PRN":308,"gnssid":2,"svid":8,"az":66.0,"el":4.0,"prRes":6.6,"qual":4,"ss":19.0,"used":false,"health":1},{"PRN":310,"gnssid":2,"svid":10,"az":332.0,"el":1.0,"prRes":33.2,"qual":0,"ss":0.0,"used":false,"health":1},{"PRN":312,"gnssid":2,"svid":12,"az":320.0,"el":22.0,"prRes":32.0,"qual":1,"ss":0.0,"used":false,"health":1},{"PRN":319,"gnssid":2,"svid":19,"az":251.0,"el":22.0,"prRes":25.1,"qual":1,"ss":0.0,"used":false,"health":1},{"PRN":326,"gnssid":2,"svid":26,"az":188.0,"el":37.0,"prRes":18.8,"qual":7,"ss":35.0,"used":true,"health":1},{"PRN":327,"gnssid":2,"svid":27,"az":135.0,"el":2.0,"prRes":13.5,"qual":7,"ss":35.0,"used":false,"health":1},{"PRN":330,"gnssid":2,"svid":30,"az":86.0,"el":15.0,"prRes":8.6,"qual":7,"ss":37.0,"used":true,"health":1},{"PRN":333,"gnssid":2,"svid":33,"az":262.0,"el":57.0,"prRes":26.2,"qual":4,"ss":20.0,"used":true,"health":1},{"PRN":402,"gnssid":3,"svid":2,"az":106.0,"el":6.0,"prRes":10.6,"qual":0,"ss":0.0,"used":false,"health":1},{"PRN":405,"gnssid":3,"svid":5,"az":128.0,"el":22.0,"prRes":12.8,"qual":0,"ss":0.0,"used":false,"health":1},{"PRN":406,"gnssid":3,"svid":6,"az":47.0,"el":15.0,"prRes":4.7,"qual":0,"ss":0.0,"used":false,"health":1},{"PRN":409,"gnssid":3,"svid":9,"az":50.0,"el":31.0,"prRes":5.0,"qual":6,"ss":27.0,"used":true,"health":1},{"PRN":414,"gnssid":3,"svid":14,"az":66.0,"el":67.0,"prRes":6.6,"qual":0,"ss":0.0,"used":false,"health":1},{"PRN":416,"gnssid":3,"svid":16,"az":45.0,"el":8.0,"prRes":4.5,"qual":0,"ss":0.0,"used":false,"health":1},{"PRN":424,"gnssid":3,"svid":24,"az":128.0,"el":33.0,"prRes":12.8,"qual":7,"ss":35.0,"used":true,"health":1},{"PRN":425,"gnssid":3,"svid":25,"az":176.0,"el":3.0,"prRes":17.6,"qual":0,"ss":0.0,"used":false,"health":1},{"PRN":426,"gnssid":3,"svid":26,"az":71.0,"el":33.0,"prRes":7.1,"qual":7,"ss":33.0,"used":true,"health":1},{"PRN":427,"gnssid":3,"svid":27,"az":305.0,"el":24.0,"prRes":30.5,"qual":1,"ss":0.0,"used":false,"health":1},{"PRN":428,"gnssid":3,"svid":28,"az":249.0,"el":32.0,"prRes":24.9,"qual":4,"ss":21.0,"used":true,"health":1},{"PRN":433,"gnssid":3,"svid":33,"az":321.0,"el":76.0,"prRes":32.1,"qual":4,"ss":15.0,"used":true,"health":1},{"PRN":65,"gnssid":6,"svid":1,"az":277.0,"el":21.0,"prRes":27.7,"qual":4,"ss":12.0,"used":false,"health":1},{"PRN":70,"gnssid":6,"svid":6,"az":80.0,"el":1.0,"prRes":8.0,"qual":1,"ss":0.0,"used":false,"health":1},{"PRN":71,"gnssid":6,"svid":7,"az":57.0,"el":44.0,"prRes":5.7,"qual":4,"ss":19.0,"used":true,"health":1}]}
{"class":"SKY","time":"2022-10-11T11:04:30.000Z","gdop":2.83,"hdop":1.15,"pdop":2.42,"tdop":1.48,"xdop":0.85,"ydop":0.77,"vdop":2.13}
$GPZDA,110430.00,11,10,2022,00,00*62
$GPGGA,110430.00,4707.7455680,N,01512.7225860,E,5,20,1.15,826.49,M,44.866,M,,*63
$GPRMC,110430.00,A,4707.7455680,N,1512.7225860,E,0.0272,197.951,111022,4.1,E*5C
$GPGSA,A,3,3,4,6,7,9,26,,,,,,,2.4,1.1,2.1*0C
$GPGBS,110430.00,12.750,11.550,0.667,,,,*40
{"class":"TPV","status":4,"mode":3,"time":"2022-10-11T11:04:30.000Z","leapseconds":18,"ept":0.005,"lat":47.129092800,"lon":15.212043100,"altHAE":869.1460,"altMSL":826.4880,"alt":826.4880,"epx":12.750,"epy":11.550,"epv":0.667,"track":197.9506,"magtrack":202.0768,"magvar":4.1,"speed":0.014,"climb":-0.025,"eps":25.50,"epc":1.38,"ecefx":4195431.98,"ecefy":1140820.64,"ecefz":4652177.65,"ecefvx":-0.02,"ecefvy":0.00,"ecefvz":0.00,"ecefpAcc":0.72,"ecefvAcc":0.30,"geoidSep":44.866,"eph":0.274,"sep":30.587}
$GPGSV,12,1,48,01,03,161,39,03,34,108,32,04,66,055,23,06,51,290,30*4A
$GPGSV,12,2,48,07,24,183,38,09,71,256,20,11,23,315,00,16,04,090,00*44
$GPGSV,12,3,48,17,03,225,00,19,14,248,18,20,02,299,00,26,11,064,30*48
$GPGSV,12,4,48,31,01,031,00,36,34,158,42,40,24,131,00,41,06,107,38*44
$GPGSV,12,5,48,49,35,194,34,302,10,036,00,307,55,060,24,308,04,066,19*75
$GPGSV,12,6,48,310,01,332,00,312,22,320,00,319,22,251,00,326,37,188,35*49
$GPGSV,12,7,48,327,02,135,36,330,15,086,37,333,57,262,20,402,06,106,00*4B
$GPGSV,12,8,48,405,22,128,00,406,15,047,00,409,31,050,27,414,67,066,00*4E
$GPGSV,12,9,48,416,08,045,00,424,33,128,35,425,03,176,00,426,33,071,33*4C
$GPGSV,12,10,48,427,24,305,00,428,32,249,22,433,76,321,15,65,21,277,00*45
$GPGSV,12,11,48,70,01,080,00,71,44,057,17,72,64,322,25,73,35,079,32*74
$GPGSV,12,12,48,74,22,131,38,86,14,194,00,87,48,255,18,88,32,319,21*78
{"class":"SKY","time":"2022-10-11T11:04:31.000Z","gdop":1.94,"hdop":0.82,"pdop":1.66,"tdop":1.00,"xdop":0.53,"ydop":0.63,"vdop":1.44,"nSat":48,"uSat":18,"satellites":[{"PRN":1,"gnssid":0,"svid":1,"az":161.0,"el":3.0,"prRes":16.1,"qual":7,"ss":39.0,"used":false,"health":1},{"PRN":3,"gnssid":0,"svid":3,"az":108.0,"el":34.0,"prRes":10.8,"qual":7,"ss":32.0,"used":true,"health":1},{"PRN":4,"gnssid":0,"svid":4,"az":55.0,"el":66.0,"prRes":5.5,"qual":4,"ss":23.0,"used":true,"health":1},{"PRN":6,"gnssid":0,"svid":6,"az":290.0,"el":51.0,"prRes":29.0,"qual":7,"ss":30.0,"used":true,"health":1},{"PRN":7,"gnssid":0,"svid":7,"az":183.0,"el":24.0,"prRes":18.3,"qual":7,"ss":38.0,"used":true,"health":1},{"PRN":9,"gnssid":0,"svid":9,"az":256.0,"el":71.0,"prRes":25.6,"qual":4,"ss":20.0,"used":true,"health":1},{"PRN":11,"gnssid":0,"svid":11,"az":315.0,"el":23.0,"prRes":31.5,"qual":1,"ss":0.0,"used":false,"health":1},{"PRN":16,"gnssid":0,"svid":16,"az":90.0,"el":4.0,"prRes":9.0,"qual":0,"ss":0.0,"used":false,"health":1},{"PRN":17,"gnssid":0,"svid":17,"az":225.0,"el":3.0,"prRes":22.5,"qual":1,"ss":0.0,"used":false,"health":1},{"PRN":19,"gnssid":0,"svid":19,"az":248.0,"el":14.0,"prRes":24.8,"qual":4,"ss":18.0,"used":false,"health":1},{"PRN":20,"gnssid":0,"svid":20,"az":299.0,"el":2.0,"prRes":29.9,"qual":0,"ss":0.0,"used":false,"health":1},{"PRN":26,"gnssid":0,"svid":26,"az":64.0,"el":11.0,"prRes":6.4,"qual":7,"ss":30.0,"used":true,"health":1},{"PRN":31,"gnssid":0,"svid":31,"az":31.0,"el":1.0,"prRes":3.1,"qual":0,"ss":0.0,"used":false,"health":1},{"PRN":36,"gnssid":1,"svid":123,"az":158.0,"el":34.0,"prRes":15.8,"qual":7,"ss":42.0,"used":false,"health":1},{"PRN":40,"gnssid":1,"svid":127,"az":131.0,"el":24.0,"prRes":13.1,"qual":0,"ss":0.0,"used":false},{"PRN":41,"gnssid":1,"svid":128,"az":107.0,"el":6.0,"prRes":10.7,"qual":7,"ss":38.0,"used":false},{"PRN":49,"gnssid":1,"svid":136,"az":194.0,"el":35.0,"prRes":19.4,"qual":7,"ss":34.0,"used":false,"health":1},{"PRN":302,"gnssid":2,"svid":2,"az":36.0,"el":10.0,"prRes":3.6,"qual":1,"ss":0.0,"used":false,"health":1},{"PRN":307,"gnssid":2,"svid":7,"az":60.0,"el":55.0,"prRes":6.0,"qual":4,"ss":24.0,"used":true,"health":1},{"PRN":308,"gnssid":2,"svid":8,"az":66.0,"el":4.0,"prRes":6.6,"qual":4,"ss":19.0,"used":false,"health":1},{"PRN":310,"gnssid":2,"svid":10,"az":332.0,"el":1.0,"prRes":33.2,"qual":0,"ss":0.0,"used":false,"health":1},{"PRN":312,"gnssid":2,"svid":12,"az":320.0,"el":22.0,"prRes":32.0,"qual":1,"ss":0.0,"used":false,"health":1},{"PRN":319,"gnssid":2,"svid":19,"az":251.0,"el":22.0,"prRes":25.1,"qual":1,"ss":0.0,"used":false,"health":1},{"PRN":326,"gnssid":2,"svid":26,"az":188.0,"el":37.0,"prRes":18.8,"qual":7,"ss":35.0,"used":true,"health":1},{"PRN":327,"gnssid":2,"svid":27,"az":135.0,"el":2.0,"prRes":13.5,"qual":7,"ss":36.0,"used":false,"health":1},{"PRN":330,"gnssid":2,"svid":30,"az":86.0,"el":15.0,"prRes":8.6,"qual":7,"ss":37.0,"used":true,"health":1},{"PRN":333,"gnssid":2,"svid":33,"az":262.0,"el":57.0,"prRes":26.2,"qual":4,"ss":20.0,"used":true,"health":1},{"PRN":402,"gnssid":3,"svid":2,"az":106.0,"el":6.0,"prRes":10.6,"qual":0,"ss":0.0,"used":false,"health":1},{"PRN":405,"gnssid":3,"svid":5,"az":128.0,"el":22.0,"prRes":12.8,"qual":0,"ss":0.0,"used":false,"health":1},{"PRN":406,"gnssid":3,"svid":6,"az":47.0,"el":15.0,"prRes":4.7,"qual":0,"ss":0.0,"used":false,"health":1},{"PRN":409,"gnssid":3,"svid":9,"az":50.0,"el":31.0,"prRes":5.0,"qual":6,"ss":27.0,"used":true,"health":1},{"PRN":414,"gnssid":3,"svid":14,"az":66.0,"el":67.0,"prRes":6.6,"qual":0,"ss":0.0,"used":false,"health":1},{"PRN":416,"gnssid":3,"svid":16,"az":45.0,"el":8.0,"prRes":4.5,"qual":0,"ss":0.0,"used":false,"health":1},{"PRN":424,"gnssid":3,"svid":24,"az":128.0,"el":33.0,"prRes":12.8,"qual":7,"ss":35.0,"used":true,"health":1},{"PRN":425,"gnssid":3,"svid":25,"az":176.0,"el":3.0,"prRes":17.6,"qual":0,"ss":0.0,"used":false,"health":1},{"PRN":426,"gnssid":3,"svid":26,"az":71.0,"el":33.0,"prRes":7.1,"qual":7,"ss":33.0,"used":true,"health":1},{"PRN":427,"gnssid":3,"svid":27,"az":305.0,"el":24.0,"prRes":30.5,"qual":1,"ss":0.0,"used":false,"health":1},{"PRN":428,"gnssid":3,"svid":28,"az":249.0,"el":32.0,"prRes":24.9,"qual":4,"ss":22.0,"used":true,"health":1},{"PRN":433,"gnssid":3,"svid":33,"az":321.0,"el":76.0,"prRes":32.1,"qual":4,"ss":15.0,"used":false,"health":1},{"PRN":65,"gnssid":6,"svid":1,"az":277.0,"el":21.0,"prRes":27.7,"qual":1,"ss":0.0,"used":false,"health":1},{"PRN":70,"gnssid":6,"svid":6,"az":80.0,"el":1.0,"prRes":8.0,"qual":1,"ss":0.0,"used":false,"health":1},{"PRN":71,"gnssid":6,"svid":7,"az":57.0,"el":44.0,"prRes":5.7,"qual":4,"ss":17.0,"used":false,"health":1}]}
{"class":"SKY","time":"2022-10-11T11:04:31.000Z","gdop":2.89,"hdop":1.12,"pdop":2.48,"tdop":1.48,"xdop":0.85,"ydop":0.73,"vdop":2.22}
$GPZDA,110431.00,11,10,2022,00,00*63
$GPGGA,110431.00,4707.7455740,N,01512.7225800,E,5,19,1.12,826.49,M,44.866,M,,*64
$GPRMC,110431.00,A,4707.7455740,N,1512.7225800,E,0.0700,197.951,111022,4.1,E*56
$GPGSA,A,3,3,4,6,7,9,26,,,,,,,2.5,1.1,2.2*0E
$GPGBS,110431.00,12.750,10.950,0.658,,,,*40
{"class":"TPV","status":4,"mode":3,"time":"2022-10-11T11:04:31.000Z","leapseconds":18,"ept":0.005,"lat":47.129092900,"lon":15.212043000,"altHAE":869.1510,"altMSL":826.4940,"alt":826.4940,"epx":12.750,"epy":10.950,"epv":0.658,"track":197.9506,"magtrack":202.0768,"magvar":4.1,"speed":0.036,"climb":0.005,"eps":25.50,"epc":1.33,"ecefx":4195431.98,"ecefy":1140820.63,"ecefz":4652177.66,"ecefvx":-0.01,"ecefvy":-0.03,"ecefvz":0.01,"ecefpAcc":0.71,"ecefvAcc":0.29,"geoidSep":44.866,"eph":0.280,"sep":31.469}
$GPGSV,12,1,48,01,03,161,39,03,34,108,33,04,66,055,23,06,51,290,30*4B
$GPGSV,12,2,48,07,24,183,37,09,72,258,20,11,23,315,17,16,04,090,00*40
$GPGSV,12,3,48,17,03,225,00,19,14,248,19,20,02,299,00,26,11,064,29*41
$GPGSV,12,4,48,31,01,031,00,36,34,158,42,40,24,131,00,41,06,107,38*44
$GPGSV,12,5,48,49,35,194,34,302,10,036,00,307,55,060,23,308,04,066,18*73
$GPGSV,12,6,48,310,01,332,00,312,22,320,00,319,22,251,00,326,37,188,35*49
$GPGSV,12,7,48,327,02,135,36,330,15,086,37,333,57,262,21,402,06,106,00*4A
$GPGSV,12,8,48,405,22,128,00,406,15,047,00,409,31,050,28,414,67,066,00*41
$GPGSV,12,9,48,416,08,045,00,424,33,128,35,425,03,176,00,426,33,071,33*4C
$GPGSV,12,10,48,427,24,305,00,428,32,249,23,433,76,321,15,65,21,277,00*44
$GPGSV,12,11,48,70,01,080,14,71,44,057,23,72,64,322,22,73,35,079,31*72
$GPGSV,12,12,48,74,22,131,35,86,14,194,00,87,48,255,19,88,32,319,23*76
{"class":"SKY","time":"2022-10-11T11:04:32.000Z","gdop":1.88,"hdop":0.84,"pdop":1.61,"tdop":0.98,"xdop":0.53,"ydop":0.65,"vdop":1.38,"nSat":48,"uSat":18,"satellites":[{"PRN":1,"gnssid":0,"svid":1,"az":161.0,"el":3.0,"prRes":16.1,"qual":7,"ss":39.0,"used":false,"health":1},{"PRN":3,"gnssid":0,"svid":3,"az":108.0,"el":34.0,"prRes":10.8,"qual":7,"ss":33.0,"used":true,"health":1},{"PRN":4,"gnssid":0,"svid":4,"az":55.0,"el":66.0,"prRes":5.5,"qual":4,"ss":23.0,"used":true,"health":1},{"PRN":6,"gnssid":0,"svid":6,"az":290.0,"el":51.0,"prRes":29.0,"qual":7,"ss":30.0,"used":true,"health":1},{"PRN":7,"gnssid":0,"svid":7,"az":183.0,"el":24.0,"prRes":18.3,"qual":7,"ss":37.0,"used":true,"health":1},{"PRN":9,"gnssid":0,"svid":9,"az":258.0,"el":72.0,"prRes":25.8,"qual":4,"ss":20.0,"used":true,"health":1},{"PRN":11,"gnssid":0,"svid":11,"az":315.0,"el":23.0,"prRes":31.5,"qual":3,"ss":17.0,"used":false,"health":1},{"PRN":16,"gnssid":0,"svid":16,"az":90.0,"el":4.0,"prRes":9.0,"qual":0,"ss":0.0,"used":false,"health":1},{"PRN":17,"gnssid":0,"svid":17,"az":225.0,"el":3.0,"prRes":22.5,"qual":1,"ss":0.0,"used":false,"health":1},{"PRN":19,"gnssid":0,"svid":19,"az":248.0,"el":14.0,"prRes":24.8,"qual":4,"ss":19.0,"used":false,"health":1},{"PRN":20,"gnssid":0,"svid":20,"az":299.0,"el":2.0,"prRes":29.9,"qual":0,"ss":0.0,"used":false,"health":1},{"PRN":26,"gnssid":0,"svid":26,"az":64.0,"el":11.0,"prRes":6.4,"qual":7,"ss":29.0,"used":true,"health":1},{"PRN":31,"gnssid":0,"svid":31,"az":31.0,"el":1.0,"prRes":3.1,"qual":0,"ss":0.0,"used":false,"health":1},{"PRN":36,"gnssid":1,"svid":123,"az":158.0,"el":34.0,"prRes":15.8,"qual":7,"ss":42.0,"used":false,"health":1},{"PRN":40,"gnssid":1,"svid":127,"az":131.0,"el":24.0,"prRes":13.1,"qual":0,"ss":0.0,"used":false},{"PRN":41,"gnssid":1,"svid":128,"az":107.0,"el":6.0,"prRes":10.7,"qual":7,"ss":38.0,"used":false},{"PRN":49,"gnssid":1,"svid":136,"az":194.0,"el":35.0,"prRes":19.4,"qual":7,"ss":34.0,"used":false,"health":1},{"PRN":302,"gnssid":2,"svid":2,"az":36.0,"el":10.0,"prRes":3.6,"qual":1,"ss":0.0,"used":false,"health":1},{"PRN":307,"gnssid":2,"svid":7,"az":60.0,"el":55.0,"prRes":6.0,"qual":4,"ss":23.0,"used":true,"health":1},{"PRN":308,"gnssid":2,"svid":8,"az":66.0,"el":4.0,"prRes":6.6,"qual":4,"ss":18.0,"used":false,"health":1},{"PRN":310,"gnssid":2,"svid":10,"az":332.0,"el":1.0,"prRes":33.2,"qual":0,"ss":0.0,"used":false,"health":1},{"PRN":312,"gnssid":2,"svid":12,"az":320.0,"el":22.0,"prRes":32.0,"qual":1,"ss":0.0,"used":false,"health":1},{"PRN":319,"gnssid":2,"svid":19,"az":251.0,"el":22.0,"prRes":25.1,"qual":1,"ss":0.0,"used":false,"health":1},{"PRN":326,"gnssid":2,"svid":26,"az":188.0,"el":37.0,"prRes":18.8,"qual":7,"ss":35.0,"used":true,"health":1},{"PRN":327,"gnssid":2,"svid":27,"az":135.0,"el":2.0,"prRes":13.5,"qual":7,"ss":36.0,"used":false,"health":1},{"PRN":330,"gnssid":2,"svid":30,"az":86.0,"el":15.0,"prRes":8.6,"qual":7,"ss":37.0,"used":true,"health":1},{"PRN":333,"gnssid":2,"svid":33,"az":262.0,"el":57.0,"prRes":26.2,"qual":4,"ss":21.0,"used":true,"health":1},{"PRN":402,"gnssid":3,"svid":2,"az":106.0,"el":6.0,"prRes":10.6,"qual":0,"ss":0.0,"used":false,"health":1},{"PRN":405,"gnssid":3,"svid":5,"az":128.0,"el":22.0,"prRes":12.8,"qual":0,"ss":0.0,"used":false,"health":1},{"PRN":406,"gnssid":3,"svid":6,"az":47.0,"el":15.0,"prRes":4.7,"qual":0,"ss":0.0,"used":false,"health":1},{"PRN":409,"gnssid":3,"svid":9,"az":50.0,"el":31.0,"prRes":5.0,"qual":6,"ss":28.0,"used":true,"health":1},{"PRN":414,"gnssid":3,"svid":14,"az":66.0,"el":67.0,"prRes":6.6,"qual":0,"ss":0.0,"used":false,"health":1},{"PRN":416,"gnssid":3,"svid":16,"az":45.0,"el":8.0,"prRes":4.5,"qual":0,"ss":0.0,"used":false,"health":1},{"PRN":424,"gnssid":3,"svid":24,"az":128.0,"el":33.0,"prRes":12.8,"qual":7,"ss":35.0,"used":true,"health":1},{"PRN":425,"gnssid":3,"svid":25,"az":176.0,"el":3.0,"prRes":17.6,"qual":0,"ss":0.0,"used":false,"health":1},{"PRN":426,"gnssid":3,"svid":26,"az":71.0,"el":33.0,"prRes":7.1,"qual":7,"ss":33.0,"used":true,"health":1},{"PRN":427,"gnssid":3,"svid":27,"az":305.0,"el":24.0,"prRes":30.5,"qual":1,"ss":0.0,"used":false,"health":1},{"PRN":428,"gnssid":3,"svid":28,"az":249.0,"el":32.0,"prRes":24.9,"qual":4,"ss":23.0,"used":true,"health":1},{"PRN":433,"gnssid":3,"svid":33,"az":321.0,"el":76.0,"prRes":32.1,"qual":4,"ss":15.0,"used":true,"health":1},{"PRN":65,"gnssid":6,"svid":1,"az":277.0,"el":21.0,"prRes":27.7,"qual":1,"ss":0.0,"used":false,"health":1},{"PRN":70,"gnssid":6,"svid":6,"az":80.0,"el":1.0,"prRes":8.0,"qual":3,"ss":14.0,"used":false,"health":1},{"PRN":71,"gnssid":6,"svid":7,"az":57.0,"el":44.0,"prRes":5.7,"qual":4,"ss":23.0,"used":false,"health":1}]}
{"class":"SKY","time":"2022-10-11T11:04:32.000Z","gdop":2.89,"hdop":1.12,"pdop":2.48,"tdop":1.48,"xdop":0.85,"ydop":0.73,"vdop":2.22}
$GPZDA,110432.00,11,10,2022,00,00*60
$GPGGA,110432.00,4707.7455740,N,01512.7225980,E,5,19,1.12,826.53,M,44.866,M,,*65
$GPRMC,110432.00,A,4707.7455740,N,1512.7225980,E,0.0136,197.951,111022,4.1,E*5F
$GPGSA,A,3,3,4,6,7,9,26,,,,,,,2.5,1.1,2.2*0E
$GPGBS,110432.00,12.750,10.950,0.649,,,,*43
{"class":"TPV","status":4,"mode":3,"time":"2022-10-11T11:04:32.000Z","leapseconds":18,"ept":0.005,"lat":47.129092900,"lon":15.212043300,"altHAE":869.1900,"altMSL":826.5320,"alt":826.5320,"epx":12.750,"epy":10.950,"epv":0.649,"track":197.9506,"magtrack":202.0768,"magvar":4.1,"speed":0.007,"climb":0.039,"eps":25.50,"epc":1.31,"ecefx":4195431.99,"ecefy":1140820.65,"ecefz":4652177.69,"ecefvx":-0.01,"ecefvy":0.00,"ecefvz":0.00,"ecefpAcc":0.71,"ecefvAcc":0.25,"geoidSep":44.866,"eph":0.277,"sep":30.612}
$GPGSV,12,1,48,01,03,161,38,03,34,108,31,04,66,055,23,06,51,290,29*40
$GPGSV,12,2,48,07,24,183,38,09,72,258,20,11,23,315,16,16,04,090,00*4E
$GPGSV,12,3,48,17,03,225,00,19,14,248,19,20,02,299,00,26,11,064,29*41
$GPGSV,12,4,48,31,01,031,00,36,34,158,42,40,24,131,00,41,06,107,38*44
$GPGSV,12,5,48,49,35,194,34,302,10,036,00,307,55,060,23,308,04,066,19*72
$GPGSV,12,6,48,310,01,332,00,312,22,320,00,319,22,251,00,326,37,188,36*4A
$GPGSV,12,7,48,327,02,135,36,330,15,086,37,333,57,262,20,402,06,106,00*4B
$GPGSV,12,8,48,405,22,128,00,406,15,047,00,409,31,050,27,414,67,066,00*4E
$GPGSV,12,9,48,416,08,045,00,424,33,128,35,425,03,176,00,426,33,071,33*4C
$GPGSV,12,10,48,427,24,305,00,428,32,249,23,433,76,321,17,65,21,277,00*46
$GPGSV,12,11,48,70,01,080,11,71,44,057,31,72,64,322,21,73,35,079,30*76
$GPGSV,12,12,48,74,22,131,33,86,14,194,00,87,48,255,16,88,32,319,22*7E
