$GNRMC,000653.00,A,4404.12994,N,12118.84613,W,0.052,,090624,,,A,V*08
{"class":"TPV","mode":2,"time":"2024-06-09T00:06:53.000Z","ept":0.005,"lat":44.068832333,"lon":-121.314102167,"magvar":14.4,"speed":0.027}
$GNGGA,000653.00,4404.12994,N,12118.84613,W,1,29,0.69,1109.2,M,,M,,*71
{"class":"TPV","mode":3,"time":"2024-06-09T00:06:53.000Z","ept":0.005,"lat":44.068832333,"lon":-121.314102167,"altHAE":1087.0455,"altMSL":1109.2000,"alt":1109.2000,"magvar":14.4,"speed":0.027,"geoidSep":-22.155,"eph":13.110}
{"class":"SKY","hdop":0.69,"uSat":29}
$GNGSA,A,3,08,10,23,27,32,24,28,21,44,48,18,,1.05,0.69,0.79,1*02
{"class":"TPV","mode":3,"time":"2024-06-09T00:06:53.000Z","ept":0.005,"lat":44.068832333,"lon":-121.314102167,"altHAE":1087.0455,"altMSL":1109.2000,"alt":1109.2000,"epv":18.170,"magvar":14.4,"speed":0.027,"geoidSep":-22.155,"eph":13.110,"sep":19.950}
$GNGSA,A,3,85,68,69,84,83,,,,,,,,1.05,0.69,0.79,2*0C
{"class":"TPV","mode":3,"time":"2024-06-09T00:06:53.000Z","ept":0.005,"lat":44.068832333,"lon":-121.314102167,"altHAE":1087.0455,"altMSL":1109.2000,"alt":1109.2000,"epv":18.170,"magvar":14.4,"speed":0.027,"geoidSep":-22.155,"eph":13.110,"sep":19.950}
{"class":"SKY","hdop":0.69,"pdop":1.05,"vdop":0.79,"uSat":29}
$GNGSA,A,3,21,34,19,12,44,11,35,36,22,,,,1.05,0.69,0.79,4*0D
{"class":"TPV","mode":3,"time":"2024-06-09T00:06:53.000Z","ept":0.005,"lat":44.068832333,"lon":-121.314102167,"altHAE":1087.0455,"altMSL":1109.2000,"alt":1109.2000,"epv":18.170,"magvar":14.4,"speed":0.027,"geoidSep":-22.155,"eph":13.110,"sep":19.950}
{"class":"SKY","hdop":0.69,"pdop":1.05,"vdop":0.79,"uSat":29}
$GNGSA,A,3,12,33,04,19,,,,,,,,,1.05,0.69,0.79,3*09
{"class":"TPV","mode":3,"time":"2024-06-09T00:06:53.000Z","ept":0.005,"lat":44.068832333,"lon":-121.314102167,"altHAE":1087.0455,"altMSL":1109.2000,"alt":1109.2000,"epv":18.170,"magvar":14.4,"speed":0.027,"geoidSep":-22.155,"eph":13.110,"sep":19.950}
{"class":"SKY","hdop":0.69,"pdop":1.05,"vdop":0.79,"uSat":29}
$GNGSA,A,3,,,,,,,,,,,,,1.05,0.69,0.79,5*00
{"class":"TPV","mode":3,"time":"2024-06-09T00:06:53.000Z","ept":0.005,"lat":44.068832333,"lon":-121.314102167,"altHAE":1087.0455,"altMSL":1109.2000,"alt":1109.2000,"epv":18.170,"magvar":14.4,"speed":0.027,"geoidSep":-22.155,"eph":13.110,"sep":19.950}
{"class":"SKY","hdop":0.69,"pdop":1.05,"vdop":0.79,"uSat":29}
$GPGSV,4,1,13,02,07,310,,08,38,280,47,10,73,012,41,18,16,127,16,1*60
$GPGSV,4,2,13,21,23,309,33,23,43,065,29,24,20,058,28,27,41,233,37,1*63
$GPGSV,4,3,13,28,01,165,36,32,63,184,46,44,39,173,37,48,39,185,37,1*63
$GPGSV,4,4,13,51,37,160,,1*51
{"class":"SKY","gdop":1.66,"hdop":0.69,"pdop":1.05,"tdop":0.77,"xdop":0.58,"ydop":0.57,"vdop":0.79,"nSat":13,"uSat":11,"satellites":[{"PRN":2,"gnssid":0,"svid":2,"az":310.0,"el":7.0,"ss":0.0,"used":false},{"PRN":8,"gnssid":0,"svid":8,"az":280.0,"el":38.0,"ss":47.0,"used":true},{"PRN":10,"gnssid":0,"svid":10,"az":12.0,"el":73.0,"ss":41.0,"used":true},{"PRN":18,"gnssid":0,"svid":18,"az":127.0,"el":16.0,"ss":16.0,"used":true},{"PRN":21,"gnssid":0,"svid":21,"az":309.0,"el":23.0,"ss":33.0,"used":true},{"PRN":23,"gnssid":0,"svid":23,"az":65.0,"el":43.0,"ss":29.0,"used":true},{"PRN":24,"gnssid":0,"svid":24,"az":58.0,"el":20.0,"ss":28.0,"used":true},{"PRN":27,"gnssid":0,"svid":27,"az":233.0,"el":41.0,"ss":37.0,"used":true},{"PRN":28,"gnssid":0,"svid":28,"az":165.0,"el":1.0,"ss":36.0,"used":true},{"PRN":32,"gnssid":0,"svid":32,"az":184.0,"el":63.0,"ss":46.0,"used":true},{"PRN":44,"gnssid":1,"svid":131,"az":173.0,"el":39.0,"ss":37.0,"used":true},{"PRN":48,"gnssid":1,"svid":135,"az":185.0,"el":39.0,"ss":37.0,"used":true},{"PRN":51,"gnssid":1,"svid":138,"az":160.0,"el":37.0,"ss":0.0,"used":false}]}
$GPGSV,4,1,13,02,07,310,,08,38,280,37,10,73,012,33,18,16,127,,8*6C
$GPGSV,4,2,13,21,23,309,,23,43,065,31,24,20,058,,27,41,233,26,8*69
$GPGSV,4,3,13,28,01,165,,32,63,184,,44,39,173,,48,39,185,,8*6D
$GPGSV,4,4,13,51,37,160,,8*58
{"class":"SKY","gdop":1.66,"hdop":0.69,"pdop":1.05,"tdop":0.77,"xdop":0.58,"ydop":0.57,"vdop":0.79,"nSat":26,"uSat":15,"satellites":[{"PRN":2,"gnssid":0,"svid":2,"az":310.0,"el":7.0,"ss":0.0,"used":false},{"PRN":8,"gnssid":0,"svid":8,"az":280.0,"el":38.0,"ss":47.0,"used":true},{"PRN":10,"gnssid":0,"svid":10,"az":12.0,"el":73.0,"ss":41.0,"used":true},{"PRN":18,"gnssid":0,"svid":18,"az":127.0,"el":16.0,"ss":16.0,"used":true},{"PRN":21,"gnssid":0,"svid":21,"az":309.0,"el":23.0,"ss":33.0,"used":true},{"PRN":23,"gnssid":0,"svid":23,"az":65.0,"el":43.0,"ss":29.0,"used":true},{"PRN":24,"gnssid":0,"svid":24,"az":58.0,"el":20.0,"ss":28.0,"used":true},{"PRN":27,"gnssid":0,"svid":27,"az":233.0,"el":41.0,"ss":37.0,"used":true},{"PRN":28,"gnssid":0,"svid":28,"az":165.0,"el":1.0,"ss":36.0,"used":true},{"PRN":32,"gnssid":0,"svid":32,"az":184.0,"el":63.0,"ss":46.0,"used":true},{"PRN":44,"gnssid":1,"svid":131,"az":173.0,"el":39.0,"ss":37.0,"used":true},{"PRN":48,"gnssid":1,"svid":135,"az":185.0,"el":39.0,"ss":37.0,"used":true},{"PRN":51,"gnssid":1,"svid":138,"az":160.0,"el":37.0,"ss":0.0,"used":false},{"PRN":2,"gnssid":0,"svid":2,"sigid":7,"az":310.0,"el":7.0,"ss":0.0,"used":false},{"PRN":8,"gnssid":0,"svid":8,"sigid":7,"az":280.0,"el":38.0,"ss":37.0,"used":true},{"PRN":10,"gnssid":0,"svid":10,"sigid":7,"az":12.0,"el":73.0,"ss":33.0,"used":true},{"PRN":18,"gnssid":0,"svid":18,"sigid":7,"az":127.0,"el":16.0,"ss":0.0,"used":false},{"PRN":21,"gnssid":0,"svid":21,"sigid":7,"az":309.0,"el":23.0,"ss":0.0,"used":false},{"PRN":23,"gnssid":0,"svid":23,"sigid":7,"az":65.0,"el":43.0,"ss":31.0,"used":true},{"PRN":24,"gnssid":0,"svid":24,"sigid":7,"az":58.0,"el":20.0,"ss":0.0,"used":false},{"PRN":27,"gnssid":0,"svid":27,"sigid":7,"az":233.0,"el":41.0,"ss":26.0,"used":true},{"PRN":28,"gnssid":0,"svid":28,"sigid":7,"az":165.0,"el":1.0,"ss":0.0,"used":false},{"PRN":32,"gnssid":0,"svid":32,"sigid":7,"az":184.0,"el":63.0,"ss":0.0,"used":false},{"PRN":44,"gnssid":1,"svid":131,"sigid":7,"az":173.0,"el":39.0,"ss":0.0,"used":false},{"PRN":48,"gnssid":1,"svid":135,"sigid":7,"az":185.0,"el":39.0,"ss":0.0,"used":false},{"PRN":51,"gnssid":1,"svid":138,"sigid":7,"az":160.0,"el":37.0,"ss":0.0,"used":false}]}
$GLGSV,2,1,08,68,40,036,38,69,78,283,37,70,16,232,,77,05,025,,1*7B
$GLGSV,2,2,08,83,31,149,28,84,80,313,30,85,22,326,42,89,,,42,1*42
{"class":"SKY","gdop":1.66,"hdop":0.69,"pdop":1.05,"tdop":0.77,"xdop":0.58,"ydop":0.57,"vdop":0.79,"nSat":34,"uSat":20,"satellites":[{"PRN":2,"gnssid":0,"svid":2,"az":310.0,"el":7.0,"ss":0.0,"used":false},{"PRN":8,"gnssid":0,"svid":8,"az":280.0,"el":38.0,"ss":47.0,"used":true},{"PRN":10,"gnssid":0,"svid":10,"az":12.0,"el":73.0,"ss":41.0,"used":true},{"PRN":18,"gnssid":0,"svid":18,"az":127.0,"el":16.0,"ss":16.0,"used":true},{"PRN":21,"gnssid":0,"svid":21,"az":309.0,"el":23.0,"ss":33.0,"used":true},{"PRN":23,"gnssid":0,"svid":23,"az":65.0,"el":43.0,"ss":29.0,"used":true},{"PRN":24,"gnssid":0,"svid":24,"az":58.0,"el":20.0,"ss":28.0,"used":true},{"PRN":27,"gnssid":0,"svid":27,"az":233.0,"el":41.0,"ss":37.0,"used":true},{"PRN":28,"gnssid":0,"svid":28,"az":165.0,"el":1.0,"ss":36.0,"used":true},{"PRN":32,"gnssid":0,"svid":32,"az":184.0,"el":63.0,"ss":46.0,"used":true},{"PRN":44,"gnssid":1,"svid":131,"az":173.0,"el":39.0,"ss":37.0,"used":true},{"PRN":48,"gnssid":1,"svid":135,"az":185.0,"el":39.0,"ss":37.0,"used":true},{"PRN":51,"gnssid":1,"svid":138,"az":160.0,"el":37.0,"ss":0.0,"used":false},{"PRN":2,"gnssid":0,"svid":2,"sigid":7,"az":310.0,"el":7.0,"ss":0.0,"used":false},{"PRN":8,"gnssid":0,"svid":8,"sigid":7,"az":280.0,"el":38.0,"ss":37.0,"used":true},{"PRN":10,"gnssid":0,"svid":10,"sigid":7,"az":12.0,"el":73.0,"ss":33.0,"used":true},{"PRN":18,"gnssid":0,"svid":18,"sigid":7,"az":127.0,"el":16.0,"ss":0.0,"used":false},{"PRN":21,"gnssid":0,"svid":21,"sigid":7,"az":309.0,"el":23.0,"ss":0.0,"used":false},{"PRN":23,"gnssid":0,"svid":23,"sigid":7,"az":65.0,"el":43.0,"ss":31.0,"used":true},{"PRN":24,"gnssid":0,"svid":24,"sigid":7,"az":58.0,"el":20.0,"ss":0.0,"used":false},{"PRN":27,"gnssid":0,"svid":27,"sigid":7,"az":233.0,"el":41.0,"ss":26.0,"used":true},{"PRN":28,"gnssid":0,"svid":28,"sigid":7,"az":165.0,"el":1.0,"ss":0.0,"used":false},{"PRN":32,"gnssid":0,"svid":32,"sigid":7,"az":184.0,"el":63.0,"ss":0.0,"used":false},{"PRN":44,"gnssid":1,"svid":131,"sigid":7,"az":173.0,"el":39.0,"ss":0.0,"used":false},{"PRN":48,"gnssid":1,"svid":135,"sigid":7,"az":185.0,"el":39.0,"ss":0.0,"used":false},{"PRN":51,"gnssid":1,"svid":138,"sigid":7,"az":160.0,"el":37.0,"ss":0.0,"used":false},{"PRN":68,"gnssid":6,"svid":4,"az":36.0,"el":40.0,"ss":38.0,"used":true},{"PRN":69,"gnssid":6,"svid":5,"az":283.0,"el":78.0,"ss":37.0,"used":true},{"PRN":70,"gnssid":6,"svid":6,"az":232.0,"el":16.0,"ss":0.0,"used":false},{"PRN":77,"gnssid":6,"svid":13,"az":25.0,"el":5.0,"ss":0.0,"used":false},{"PRN":83,"gnssid":6,"svid":19,"az":149.0,"el":31.0,"ss":28.0,"used":true},{"PRN":84,"gnssid":6,"svid":20,"az":313.0,"el":80.0,"ss":30.0,"used":true},{"PRN":85,"gnssid":6,"svid":21,"az":326.0,"el":22.0,"ss":42.0,"used":true},{"PRN":89,"gnssid":6,"svid":25,"az":0.0,"el":0.0,"ss":42.0,"used":false}]}
$GBGSV,4,1,14,07,01,332,,11,23,316,30,12,68,259,34,19,17,055,21,1*7D
$GBGSV,4,2,14,21,51,245,45,22,70,042,31,34,44,300,40,35,20,161,30,1*72
$GBGSV,4,3,14,36,02,097,25,40,11,330,,42,03,239,,43,03,322,,1*74
$GBGSV,4,4,14,44,59,199,40,46,03,052,,1*7C
{"class":"SKY","gdop":1.66,"hdop":0.69,"pdop":1.05,"tdop":0.77,"xdop":0.58,"ydop":0.57,"vdop":0.79,"nSat":48,"uSat":29,"satellites":[{"PRN":2,"gnssid":0,"svid":2,"az":310.0,"el":7.0,"ss":0.0,"used":false},{"PRN":8,"gnssid":0,"svid":8,"az":280.0,"el":38.0,"ss":47.0,"used":true},{"PRN":10,"gnssid":0,"svid":10,"az":12.0,"el":73.0,"ss":41.0,"used":true},{"PRN":18,"gnssid":0,"svid":18,"az":127.0,"el":16.0,"ss":16.0,"used":true},{"PRN":21,"gnssid":0,"svid":21,"az":309.0,"el":23.0,"ss":33.0,"used":true},{"PRN":23,"gnssid":0,"svid":23,"az":65.0,"el":43.0,"ss":29.0,"used":true},{"PRN":24,"gnssid":0,"svid":24,"az":58.0,"el":20.0,"ss":28.0,"used":true},{"PRN":27,"gnssid":0,"svid":27,"az":233.0,"el":41.0,"ss":37.0,"used":true},{"PRN":28,"gnssid":0,"svid":28,"az":165.0,"el":1.0,"ss":36.0,"used":true},{"PRN":32,"gnssid":0,"svid":32,"az":184.0,"el":63.0,"ss":46.0,"used":true},{"PRN":44,"gnssid":1,"svid":131,"az":173.0,"el":39.0,"ss":37.0,"used":true},{"PRN":48,"gnssid":1,"svid":135,"az":185.0,"el":39.0,"ss":37.0,"used":true},{"PRN":51,"gnssid":1,"svid":138,"az":160.0,"el":37.0,"ss":0.0,"used":false},{"PRN":2,"gnssid":0,"svid":2,"sigid":7,"az":310.0,"el":7.0,"ss":0.0,"used":false},{"PRN":8,"gnssid":0,"svid":8,"sigid":7,"az":280.0,"el":38.0,"ss":37.0,"used":true},{"PRN":10,"gnssid":0,"svid":10,"sigid":7,"az":12.0,"el":73.0,"ss":33.0,"used":true},{"PRN":18,"gnssid":0,"svid":18,"sigid":7,"az":127.0,"el":16.0,"ss":0.0,"used":false},{"PRN":21,"gnssid":0,"svid":21,"sigid":7,"az":309.0,"el":23.0,"ss":0.0,"used":false},{"PRN":23,"gnssid":0,"svid":23,"sigid":7,"az":65.0,"el":43.0,"ss":31.0,"used":true},{"PRN":24,"gnssid":0,"svid":24,"sigid":7,"az":58.0,"el":20.0,"ss":0.0,"used":false},{"PRN":27,"gnssid":0,"svid":27,"sigid":7,"az":233.0,"el":41.0,"ss":26.0,"used":true},{"PRN":28,"gnssid":0,"svid":28,"sigid":7,"az":165.0,"el":1.0,"ss":0.0,"used":false},{"PRN":32,"gnssid":0,"svid":32,"sigid":7,"az":184.0,"el":63.0,"ss":0.0,"used":false},{"PRN":44,"gnssid":1,"svid":131,"sigid":7,"az":173.0,"el":39.0,"ss":0.0,"used":false},{"PRN":48,"gnssid":1,"svid":135,"sigid":7,"az":185.0,"el":39.0,"ss":0.0,"used":false},{"PRN":51,"gnssid":1,"svid":138,"sigid":7,"az":160.0,"el":37.0,"ss":0.0,"used":false},{"PRN":68,"gnssid":6,"svid":4,"az":36.0,"el":40.0,"ss":38.0,"used":true},{"PRN":69,"gnssid":6,"svid":5,"az":283.0,"el":78.0,"ss":37.0,"used":true},{"PRN":70,"gnssid":6,"svid":6,"az":232.0,"el":16.0,"ss":0.0,"used":false},{"PRN":77,"gnssid":6,"svid":13,"az":25.0,"el":5.0,"ss":0.0,"used":false},{"PRN":83,"gnssid":6,"svid":19,"az":149.0,"el":31.0,"ss":28.0,"used":true},{"PRN":84,"gnssid":6,"svid":20,"az":313.0,"el":80.0,"ss":30.0,"used":true},{"PRN":85,"gnssid":6,"svid":21,"az":326.0,"el":22.0,"ss":42.0,"used":true},{"PRN":89,"gnssid":6,"svid":25,"az":0.0,"el":0.0,"ss":42.0,"used":false},{"PRN":407,"gnssid":3,"svid":7,"az":332.0,"el":1.0,"ss":0.0,"used":false},{"PRN":411,"gnssid":3,"svid":11,"az":316.0,"el":23.0,"ss":30.0,"used":true},{"PRN":412,"gnssid":3,"svid":12,"az":259.0,"el":68.0,"ss":34.0,"used":true},{"PRN":419,"gnssid":3,"svid":19,"az":55.0,"el":17.0,"ss":21.0,"used":true},{"PRN":421,"gnssid":3,"svid":21,"az":245.0,"el":51.0,"ss":45.0,"used":true},{"PRN":422,"gnssid":3,"svid":22,"az":42.0,"el":70.0,"ss":31.0,"used":true},{"PRN":434,"gnssid":3,"svid":34,"az":300.0,"el":44.0,"ss":40.0,"used":true},{"PRN":435,"gnssid":3,"svid":35,"az":161.0,"el":20.0,"ss":30.0,"used":true},{"PRN":436,"gnssid":3,"svid":36,"az":97.0,"el":2.0,"ss":25.0,"used":true},{"PRN":440,"gnssid":3,"svid":40,"az":330.0,"el":11.0,"ss":0.0,"used":false},{"PRN":442,"gnssid":3,"svid":42,"az":239.0,"el":3.0,"ss":0.0,"used":false},{"PRN":443,"gnssid":3,"svid":43,"az":322.0,"el":3.0,"ss":0.0,"used":false},{"PRN":444,"gnssid":3,"svid":44,"az":199.0,"el":59.0,"ss":40.0,"used":true},{"PRN":446,"gnssid":3,"svid":46,"az":52.0,"el":3.0,"ss":0.0,"used":false}]}
$GBGSV,4,1,14,07,01,332,,11,23,316,,12,68,259,,19,17,055,23,5*7F
$GBGSV,4,2,14,21,51,245,30,22,70,042,,34,44,300,44,35,20,161,,5*71
$GBGSV,4,3,14,36,02,097,,40,11,330,,42,03,239,,43,03,322,,5*77
$GBGSV,4,4,14,44,59,199,,46,03,052,,5*7C
{"class":"SKY","gdop":1.66,"hdop":0.69,"pdop":1.05,"tdop":0.77,"xdop":0.58,"ydop":0.57,"vdop":0.79,"nSat":62,"uSat":32,"satellites":[{"PRN":2,"gnssid":0,"svid":2,"az":310.0,"el":7.0,"ss":0.0,"used":false},{"PRN":8,"gnssid":0,"svid":8,"az":280.0,"el":38.0,"ss":47.0,"used":true},{"PRN":10,"gnssid":0,"svid":10,"az":12.0,"el":73.0,"ss":41.0,"used":true},{"PRN":18,"gnssid":0,"svid":18,"az":127.0,"el":16.0,"ss":16.0,"used":true},{"PRN":21,"gnssid":0,"svid":21,"az":309.0,"el":23.0,"ss":33.0,"used":true},{"PRN":23,"gnssid":0,"svid":23,"az":65.0,"el":43.0,"ss":29.0,"used":true},{"PRN":24,"gnssid":0,"svid":24,"az":58.0,"el":20.0,"ss":28.0,"used":true},{"PRN":27,"gnssid":0,"svid":27,"az":233.0,"el":41.0,"ss":37.0,"used":true},{"PRN":28,"gnssid":0,"svid":28,"az":165.0,"el":1.0,"ss":36.0,"used":true},{"PRN":32,"gnssid":0,"svid":32,"az":184.0,"el":63.0,"ss":46.0,"used":true},{"PRN":44,"gnssid":1,"svid":131,"az":173.0,"el":39.0,"ss":37.0,"used":true},{"PRN":48,"gnssid":1,"svid":135,"az":185.0,"el":39.0,"ss":37.0,"used":true},{"PRN":51,"gnssid":1,"svid":138,"az":160.0,"el":37.0,"ss":0.0,"used":false},{"PRN":2,"gnssid":0,"svid":2,"sigid":7,"az":310.0,"el":7.0,"ss":0.0,"used":false},{"PRN":8,"gnssid":0,"svid":8,"sigid":7,"az":280.0,"el":38.0,"ss":37.0,"used":true},{"PRN":10,"gnssid":0,"svid":10,"sigid":7,"az":12.0,"el":73.0,"ss":33.0,"used":true},{"PRN":18,"gnssid":0,"svid":18,"sigid":7,"az":127.0,"el":16.0,"ss":0.0,"used":false},{"PRN":21,"gnssid":0,"svid":21,"sigid":7,"az":309.0,"el":23.0,"ss":0.0,"used":false},{"PRN":23,"gnssid":0,"svid":23,"sigid":7,"az":65.0,"el":43.0,"ss":31.0,"used":true},{"PRN":24,"gnssid":0,"svid":24,"sigid":7,"az":58.0,"el":20.0,"ss":0.0,"used":false},{"PRN":27,"gnssid":0,"svid":27,"sigid":7,"az":233.0,"el":41.0,"ss":26.0,"used":true},{"PRN":28,"gnssid":0,"svid":28,"sigid":7,"az":165.0,"el":1.0,"ss":0.0,"used":false},{"PRN":32,"gnssid":0,"svid":32,"sigid":7,"az":184.0,"el":63.0,"ss":0.0,"used":false},{"PRN":44,"gnssid":1,"svid":131,"sigid":7,"az":173.0,"el":39.0,"ss":0.0,"used":false},{"PRN":48,"gnssid":1,"svid":135,"sigid":7,"az":185.0,"el":39.0,"ss":0.0,"used":false},{"PRN":51,"gnssid":1,"svid":138,"sigid":7,"az":160.0,"el":37.0,"ss":0.0,"used":false},{"PRN":68,"gnssid":6,"svid":4,"az":36.0,"el":40.0,"ss":38.0,"used":true},{"PRN":69,"gnssid":6,"svid":5,"az":283.0,"el":78.0,"ss":37.0,"used":true},{"PRN":70,"gnssid":6,"svid":6,"az":232.0,"el":16.0,"ss":0.0,"used":false},{"PRN":77,"gnssid":6,"svid":13,"az":25.0,"el":5.0,"ss":0.0,"used":false},{"PRN":83,"gnssid":6,"svid":19,"az":149.0,"el":31.0,"ss":28.0,"used":true},{"PRN":84,"gnssid":6,"svid":20,"az":313.0,"el":80.0,"ss":30.0,"used":true},{"PRN":85,"gnssid":6,"svid":21,"az":326.0,"el":22.0,"ss":42.0,"used":true},{"PRN":89,"gnssid":6,"svid":25,"az":0.0,"el":0.0,"ss":42.0,"used":false},{"PRN":407,"gnssid":3,"svid":7,"az":332.0,"el":1.0,"ss":0.0,"used":false},{"PRN":411,"gnssid":3,"svid":11,"az":316.0,"el":23.0,"ss":30.0,"used":true},{"PRN":412,"gnssid":3,"svid":12,"az":259.0,"el":68.0,"ss":34.0,"used":true},{"PRN":419,"gnssid":3,"svid":19,"az":55.0,"el":17.0,"ss":21.0,"used":true},{"PRN":421,"gnssid":3,"svid":21,"az":245.0,"el":51.0,"ss":45.0,"used":true},{"PRN":422,"gnssid":3,"svid":22,"az":42.0,"el":70.0,"ss":31.0,"used":true},{"PRN":434,"gnssid":3,"svid":34,"az":300.0,"el":44.0,"ss":40.0,"used":true},{"PRN":435,"gnssid":3,"svid":35,"az":161.0,"el":20.0,"ss":30.0,"used":true},{"PRN":436,"gnssid":3,"svid":36,"az":97.0,"el":2.0,"ss":25.0,"used":true},{"PRN":440,"gnssid":3,"svid":40,"az":330.0,"el":11.0,"ss":0.0,"used":false},{"PRN":442,"gnssid":3,"svid":42,"az":239.0,"el":3.0,"ss":0.0,"used":false},{"PRN":443,"gnssid":3,"svid":43,"az":322.0,"el":3.0,"ss":0.0,"used":false},{"PRN":444,"gnssid":3,"svid":44,"az":199.0,"el":59.0,"ss":40.0,"used":true},{"PRN":446,"gnssid":3,"svid":46,"az":52.0,"el":3.0,"ss":0.0,"used":false},{"PRN":407,"gnssid":3,"svid":7,"sigid":4,"az":332.0,"el":1.0,"ss":0.0,"used":false},{"PRN":411,"gnssid":3,"svid":11,"sigid":4,"az":316.0,"el":23.0,"ss":0.0,"used":false},{"PRN":412,"gnssid":3,"svid":12,"sigid":4,"az":259.0,"el":68.0,"ss":0.0,"used":false},{"PRN":419,"gnssid":3,"svid":19,"sigid":4,"az":55.0,"el":17.0,"ss":23.0,"used":true},{"PRN":421,"gnssid":3,"svid":21,"sigid":4,"az":245.0,"el":51.0,"ss":30.0,"used":true},{"PRN":422,"gnssid":3,"svid":22,"sigid":4,"az":42.0,"el":70.0,"ss":0.0,"used":false},{"PRN":434,"gnssid":3,"svid":34,"sigid":4,"az":300.0,"el":44.0,"ss":44.0,"used":true},{"PRN":435,"gnssid":3,"svid":35,"sigid":4,"az":161.0,"el":20.0,"ss":0.0,"used":false},{"PRN":436,"gnssid":3,"svid":36,"sigid":4,"az":97.0,"el":2.0,"ss":0.0,"used":false},{"PRN":440,"gnssid":3,"svid":40,"sigid":4,"az":330.0,"el":11.0,"ss":0.0,"used":false},{"PRN":442,"gnssid":3,"svid":42,"sigid":4,"az":239.0,"el":3.0,"ss":0.0,"used":false},{"PRN":443,"gnssid":3,"svid":43,"sigid":4,"az":322.0,"el":3.0,"ss":0.0,"used":false},{"PRN":444,"gnssid":3,"svid":44,"sigid":4,"az":199.0,"el":59.0,"ss":0.0,"used":false},{"PRN":446,"gnssid":3,"svid":46,"sigid":4,"az":52.0,"el":3.0,"ss":0.0,"used":false}]}
$GAGSV,3,1,09,04,06,211,34,07,10,041,,10,31,309,,11,05,308,,7*7B
$GAGSV,3,2,09,12,56,312,43,19,60,183,35,25,01,315,,26,14,126,,7*7B
$GAGSV,3,3,09,33,63,121,35,7*4B
{"class":"SKY","gdop":1.66,"hdop":0.69,"pdop":1.05,"tdop":0.77,"xdop":0.58,"ydop":0.57,"vdop":0.79,"nSat":71,"uSat":36,"satellites":[{"PRN":2,"gnssid":0,"svid":2,"az":310.0,"el":7.0,"ss":0.0,"used":false},{"PRN":8,"gnssid":0,"svid":8,"az":280.0,"el":38.0,"ss":47.0,"used":true},{"PRN":10,"gnssid":0,"svid":10,"az":12.0,"el":73.0,"ss":41.0,"used":true},{"PRN":18,"gnssid":0,"svid":18,"az":127.0,"el":16.0,"ss":16.0,"used":true},{"PRN":21,"gnssid":0,"svid":21,"az":309.0,"el":23.0,"ss":33.0,"used":true},{"PRN":23,"gnssid":0,"svid":23,"az":65.0,"el":43.0,"ss":29.0,"used":true},{"PRN":24,"gnssid":0,"svid":24,"az":58.0,"el":20.0,"ss":28.0,"used":true},{"PRN":27,"gnssid":0,"svid":27,"az":233.0,"el":41.0,"ss":37.0,"used":true},{"PRN":28,"gnssid":0,"svid":28,"az":165.0,"el":1.0,"ss":36.0,"used":true},{"PRN":32,"gnssid":0,"svid":32,"az":184.0,"el":63.0,"ss":46.0,"used":true},{"PRN":44,"gnssid":1,"svid":131,"az":173.0,"el":39.0,"ss":37.0,"used":true},{"PRN":48,"gnssid":1,"svid":135,"az":185.0,"el":39.0,"ss":37.0,"used":true},{"PRN":51,"gnssid":1,"svid":138,"az":160.0,"el":37.0,"ss":0.0,"used":false},{"PRN":2,"gnssid":0,"svid":2,"sigid":7,"az":310.0,"el":7.0,"ss":0.0,"used":false},{"PRN":8,"gnssid":0,"svid":8,"sigid":7,"az":280.0,"el":38.0,"ss":37.0,"used":true},{"PRN":10,"gnssid":0,"svid":10,"sigid":7,"az":12.0,"el":73.0,"ss":33.0,"used":true},{"PRN":18,"gnssid":0,"svid":18,"sigid":7,"az":127.0,"el":16.0,"ss":0.0,"used":false},{"PRN":21,"gnssid":0,"svid":21,"sigid":7,"az":309.0,"el":23.0,"ss":0.0,"used":false},{"PRN":23,"gnssid":0,"svid":23,"sigid":7,"az":65.0,"el":43.0,"ss":31.0,"used":true},{"PRN":24,"gnssid":0,"svid":24,"sigid":7,"az":58.0,"el":20.0,"ss":0.0,"used":false},{"PRN":27,"gnssid":0,"svid":27,"sigid":7,"az":233.0,"el":41.0,"ss":26.0,"used":true},{"PRN":28,"gnssid":0,"svid":28,"sigid":7,"az":165.0,"el":1.0,"ss":0.0,"used":false},{"PRN":32,"gnssid":0,"svid":32,"sigid":7,"az":184.0,"el":63.0,"ss":0.0,"used":false},{"PRN":44,"gnssid":1,"svid":131,"sigid":7,"az":173.0,"el":39.0,"ss":0.0,"used":false},{"PRN":48,"gnssid":1,"svid":135,"sigid":7,"az":185.0,"el":39.0,"ss":0.0,"used":false},{"PRN":51,"gnssid":1,"svid":138,"sigid":7,"az":160.0,"el":37.0,"ss":0.0,"used":false},{"PRN":68,"gnssid":6,"svid":4,"az":36.0,"el":40.0,"ss":38.0,"used":true},{"PRN":69,"gnssid":6,"svid":5,"az":283.0,"el":78.0,"ss":37.0,"used":true},{"PRN":70,"gnssid":6,"svid":6,"az":232.0,"el":16.0,"ss":0.0,"used":false},{"PRN":77,"gnssid":6,"svid":13,"az":25.0,"el":5.0,"ss":0.0,"used":false},{"PRN":83,"gnssid":6,"svid":19,"az":149.0,"el":31.0,"ss":28.0,"used":true},{"PRN":84,"gnssid":6,"svid":20,"az":313.0,"el":80.0,"ss":30.0,"used":true},{"PRN":85,"gnssid":6,"svid":21,"az":326.0,"el":22.0,"ss":42.0,"used":true},{"PRN":89,"gnssid":6,"svid":25,"az":0.0,"el":0.0,"ss":42.0,"used":false},{"PRN":407,"gnssid":3,"svid":7,"az":332.0,"el":1.0,"ss":0.0,"used":false},{"PRN":411,"gnssid":3,"svid":11,"az":316.0,"el":23.0,"ss":30.0,"used":true},{"PRN":412,"gnssid":3,"svid":12,"az":259.0,"el":68.0,"ss":34.0,"used":true},{"PRN":419,"gnssid":3,"svid":19,"az":55.0,"el":17.0,"ss":21.0,"used":true},{"PRN":421,"gnssid":3,"svid":21,"az":245.0,"el":51.0,"ss":45.0,"used":true},{"PRN":422,"gnssid":3,"svid":22,"az":42.0,"el":70.0,"ss":31.0,"used":true},{"PRN":434,"gnssid":3,"svid":34,"az":300.0,"el":44.0,"ss":40.0,"used":true},{"PRN":435,"gnssid":3,"svid":35,"az":161.0,"el":20.0,"ss":30.0,"used":true},{"PRN":436,"gnssid":3,"svid":36,"az":97.0,"el":2.0,"ss":25.0,"used":true},{"PRN":440,"gnssid":3,"svid":40,"az":330.0,"el":11.0,"ss":0.0,"used":false},{"PRN":442,"gnssid":3,"svid":42,"az":239.0,"el":3.0,"ss":0.0,"used":false},{"PRN":443,"gnssid":3,"svid":43,"az":322.0,"el":3.0,"ss":0.0,"used":false},{"PRN":444,"gnssid":3,"svid":44,"az":199.0,"el":59.0,"ss":40.0,"used":true},{"PRN":446,"gnssid":3,"svid":46,"az":52.0,"el":3.0,"ss":0.0,"used":false},{"PRN":407,"gnssid":3,"svid":7,"sigid":4,"az":332.0,"el":1.0,"ss":0.0,"used":false},{"PRN":411,"gnssid":3,"svid":11,"sigid":4,"az":316.0,"el":23.0,"ss":0.0,"used":false},{"PRN":412,"gnssid":3,"svid":12,"sigid":4,"az":259.0,"el":68.0,"ss":0.0,"used":false},{"PRN":419,"gnssid":3,"svid":19,"sigid":4,"az":55.0,"el":17.0,"ss":23.0,"used":true},{"PRN":421,"gnssid":3,"svid":21,"sigid":4,"az":245.0,"el":51.0,"ss":30.0,"used":true},{"PRN":422,"gnssid":3,"svid":22,"sigid":4,"az":42.0,"el":70.0,"ss":0.0,"used":false},{"PRN":434,"gnssid":3,"svid":34,"sigid":4,"az":300.0,"el":44.0,"ss":44.0,"used":true},{"PRN":435,"gnssid":3,"svid":35,"sigid":4,"az":161.0,"el":20.0,"ss":0.0,"used":false},{"PRN":436,"gnssid":3,"svid":36,"sigid":4,"az":97.0,"el":2.0,"ss":0.0,"used":false},{"PRN":440,"gnssid":3,"svid":40,"sigid":4,"az":330.0,"el":11.0,"ss":0.0,"used":false},{"PRN":442,"gnssid":3,"svid":42,"sigid":4,"az":239.0,"el":3.0,"ss":0.0,"used":false},{"PRN":443,"gnssid":3,"svid":43,"sigid":4,"az":322.0,"el":3.0,"ss":0.0,"used":false},{"PRN":444,"gnssid":3,"svid":44,"sigid":4,"az":199.0,"el":59.0,"ss":0.0,"used":false},{"PRN":446,"gnssid":3,"svid":46,"sigid":4,"az":52.0,"el":3.0,"ss":0.0,"used":false},{"PRN":304,"gnssid":2,"svid":4,"az":211.0,"el":6.0,"ss":34.0,"used":true},{"PRN":307,"gnssid":2,"svid":7,"az":41.0,"el":10.0,"ss":0.0,"used":false},{"PRN":310,"gnssid":2,"svid":10,"az":309.0,"el":31.0,"ss":0.0,"used":false},{"PRN":311,"gnssid":2,"svid":11,"az":308.0,"el":5.0,"ss":0.0,"used":false},{"PRN":312,"gnssid":2,"svid":12,"az":312.0,"el":56.0,"ss":43.0,"used":true},{"PRN":319,"gnssid":2,"svid":19,"az":183.0,"el":60.0,"ss":35.0,"used":true},{"PRN":325,"gnssid":2,"svid":25,"az":315.0,"el":1.0,"ss":0.0,"used":false},{"PRN":326,"gnssid":2,"svid":26,"az":126.0,"el":14.0,"ss":0.0,"used":false},{"PRN":333,"gnssid":2,"svid":33,"az":121.0,"el":63.0,"ss":35.0,"used":true}]}
$GAGSV,3,1,09,04,06,211,30,07,10,041,,10,31,309,,11,05,308,,1*79
$GAGSV,3,2,09,12,56,312,41,19,60,183,,25,01,315,,26,14,126,,1*79
$GAGSV,3,3,09,33,63,121,23,1*4A
{"class":"SKY","gdop":1.66,"hdop":0.69,"pdop":1.05,"tdop":0.77,"xdop":0.58,"ydop":0.57,"vdop":0.79,"nSat":80,"uSat":39,"satellites":[{"PRN":2,"gnssid":0,"svid":2,"az":310.0,"el":7.0,"ss":0.0,"used":false},{"PRN":8,"gnssid":0,"svid":8,"az":280.0,"el":38.0,"ss":47.0,"used":true},{"PRN":10,"gnssid":0,"svid":10,"az":12.0,"el":73.0,"ss":41.0,"used":true},{"PRN":18,"gnssid":0,"svid":18,"az":127.0,"el":16.0,"ss":16.0,"used":true},{"PRN":21,"gnssid":0,"svid":21,"az":309.0,"el":23.0,"ss":33.0,"used":true},{"PRN":23,"gnssid":0,"svid":23,"az":65.0,"el":43.0,"ss":29.0,"used":true},{"PRN":24,"gnssid":0,"svid":24,"az":58.0,"el":20.0,"ss":28.0,"used":true},{"PRN":27,"gnssid":0,"svid":27,"az":233.0,"el":41.0,"ss":37.0,"used":true},{"PRN":28,"gnssid":0,"svid":28,"az":165.0,"el":1.0,"ss":36.0,"used":true},{"PRN":32,"gnssid":0,"svid":32,"az":184.0,"el":63.0,"ss":46.0,"used":true},{"PRN":44,"gnssid":1,"svid":131,"az":173.0,"el":39.0,"ss":37.0,"used":true},{"PRN":48,"gnssid":1,"svid":135,"az":185.0,"el":39.0,"ss":37.0,"used":true},{"PRN":51,"gnssid":1,"svid":138,"az":160.0,"el":37.0,"ss":0.0,"used":false},{"PRN":2,"gnssid":0,"svid":2,"sigid":7,"az":310.0,"el":7.0,"ss":0.0,"used":false},{"PRN":8,"gnssid":0,"svid":8,"sigid":7,"az":280.0,"el":38.0,"ss":37.0,"used":true},{"PRN":10,"gnssid":0,"svid":10,"sigid":7,"az":12.0,"el":73.0,"ss":33.0,"used":true},{"PRN":18,"gnssid":0,"svid":18,"sigid":7,"az":127.0,"el":16.0,"ss":0.0,"used":false},{"PRN":21,"gnssid":0,"svid":21,"sigid":7,"az":309.0,"el":23.0,"ss":0.0,"used":false},{"PRN":23,"gnssid":0,"svid":23,"sigid":7,"az":65.0,"el":43.0,"ss":31.0,"used":true},{"PRN":24,"gnssid":0,"svid":24,"sigid":7,"az":58.0,"el":20.0,"ss":0.0,"used":false},{"PRN":27,"gnssid":0,"svid":27,"sigid":7,"az":233.0,"el":41.0,"ss":26.0,"used":true},{"PRN":28,"gnssid":0,"svid":28,"sigid":7,"az":165.0,"el":1.0,"ss":0.0,"used":false},{"PRN":32,"gnssid":0,"svid":32,"sigid":7,"az":184.0,"el":63.0,"ss":0.0,"used":false},{"PRN":44,"gnssid":1,"svid":131,"sigid":7,"az":173.0,"el":39.0,"ss":0.0,"used":false},{"PRN":48,"gnssid":1,"svid":135,"sigid":7,"az":185.0,"el":39.0,"ss":0.0,"used":false},{"PRN":51,"gnssid":1,"svid":138,"sigid":7,"az":160.0,"el":37.0,"ss":0.0,"used":false},{"PRN":68,"gnssid":6,"svid":4,"az":36.0,"el":40.0,"ss":38.0,"used":true},{"PRN":69,"gnssid":6,"svid":5,"az":283.0,"el":78.0,"ss":37.0,"used":true},{"PRN":70,"gnssid":6,"svid":6,"az":232.0,"el":16.0,"ss":0.0,"used":false},{"PRN":77,"gnssid":6,"svid":13,"az":25.0,"el":5.0,"ss":0.0,"used":false},{"PRN":83,"gnssid":6,"svid":19,"az":149.0,"el":31.0,"ss":28.0,"used":true},{"PRN":84,"gnssid":6,"svid":20,"az":313.0,"el":80.0,"ss":30.0,"used":true},{"PRN":85,"gnssid":6,"svid":21,"az":326.0,"el":22.0,"ss":42.0,"used":true},{"PRN":89,"gnssid":6,"svid":25,"az":0.0,"el":0.0,"ss":42.0,"used":false},{"PRN":407,"gnssid":3,"svid":7,"az":332.0,"el":1.0,"ss":0.0,"used":false},{"PRN":411,"gnssid":3,"svid":11,"az":316.0,"el":23.0,"ss":30.0,"used":true},{"PRN":412,"gnssid":3,"svid":12,"az":259.0,"el":68.0,"ss":34.0,"used":true},{"PRN":419,"gnssid":3,"svid":19,"az":55.0,"el":17.0,"ss":21.0,"used":true},{"PRN":421,"gnssid":3,"svid":21,"az":245.0,"el":51.0,"ss":45.0,"used":true},{"PRN":422,"gnssid":3,"svid":22,"az":42.0,"el":70.0,"ss":31.0,"used":true},{"PRN":434,"gnssid":3,"svid":34,"az":300.0,"el":44.0,"ss":40.0,"used":true},{"PRN":435,"gnssid":3,"svid":35,"az":161.0,"el":20.0,"ss":30.0,"used":true},{"PRN":436,"gnssid":3,"svid":36,"az":97.0,"el":2.0,"ss":25.0,"used":true},{"PRN":440,"gnssid":3,"svid":40,"az":330.0,"el":11.0,"ss":0.0,"used":false},{"PRN":442,"gnssid":3,"svid":42,"az":239.0,"el":3.0,"ss":0.0,"used":false},{"PRN":443,"gnssid":3,"svid":43,"az":322.0,"el":3.0,"ss":0.0,"used":false},{"PRN":444,"gnssid":3,"svid":44,"az":199.0,"el":59.0,"ss":40.0,"used":true},{"PRN":446,"gnssid":3,"svid":46,"az":52.0,"el":3.0,"ss":0.0,"used":false},{"PRN":407,"gnssid":3,"svid":7,"sigid":4,"az":332.0,"el":1.0,"ss":0.0,"used":false},{"PRN":411,"gnssid":3,"svid":11,"sigid":4,"az":316.0,"el":23.0,"ss":0.0,"used":false},{"PRN":412,"gnssid":3,"svid":12,"sigid":4,"az":259.0,"el":68.0,"ss":0.0,"used":false},{"PRN":419,"gnssid":3,"svid":19,"sigid":4,"az":55.0,"el":17.0,"ss":23.0,"used":true},{"PRN":421,"gnssid":3,"svid":21,"sigid":4,"az":245.0,"el":51.0,"ss":30.0,"used":true},{"PRN":422,"gnssid":3,"svid":22,"sigid":4,"az":42.0,"el":70.0,"ss":0.0,"used":false},{"PRN":434,"gnssid":3,"svid":34,"sigid":4,"az":300.0,"el":44.0,"ss":44.0,"used":true},{"PRN":435,"gnssid":3,"svid":35,"sigid":4,"az":161.0,"el":20.0,"ss":0.0,"used":false},{"PRN":436,"gnssid":3,"svid":36,"sigid":4,"az":97.0,"el":2.0,"ss":0.0,"used":false},{"PRN":440,"gnssid":3,"svid":40,"sigid":4,"az":330.0,"el":11.0,"ss":0.0,"used":false},{"PRN":442,"gnssid":3,"svid":42,"sigid":4,"az":239.0,"el":3.0,"ss":0.0,"used":false},{"PRN":443,"gnssid":3,"svid":43,"sigid":4,"az":322.0,"el":3.0,"ss":0.0,"used":false},{"PRN":444,"gnssid":3,"svid":44,"sigid":4,"az":199.0,"el":59.0,"ss":0.0,"used":false},{"PRN":446,"gnssid":3,"svid":46,"sigid":4,"az":52.0,"el":3.0,"ss":0.0,"used":false},{"PRN":304,"gnssid":2,"svid":4,"az":211.0,"el":6.0,"ss":34.0,"used":true},{"PRN":307,"gnssid":2,"svid":7,"az":41.0,"el":10.0,"ss":0.0,"used":false},{"PRN":310,"gnssid":2,"svid":10,"az":309.0,"el":31.0,"ss":0.0,"used":false},{"PRN":311,"gnssid":2,"svid":11,"az":308.0,"el":5.0,"ss":0.0,"used":false},{"PRN":312,"gnssid":2,"svid":12,"az":312.0,"el":56.0,"ss":43.0,"used":true},{"PRN":319,"gnssid":2,"svid":19,"az":183.0,"el":60.0,"ss":35.0,"used":true},{"PRN":325,"gnssid":2,"svid":25,"az":315.0,"el":1.0,"ss":0.0,"used":false},{"PRN":326,"gnssid":2,"svid":26,"az":126.0,"el":14.0,"ss":0.0,"used":false},{"PRN":333,"gnssid":2,"svid":33,"az":121.0,"el":63.0,"ss":35.0,"used":true},{"PRN":304,"gnssid":2,"svid":4,"az":211.0,"el":6.0,"ss":30.0,"used":true},{"PRN":307,"gnssid":2,"svid":7,"az":41.0,"el":10.0,"ss":0.0,"used":false},{"PRN":310,"gnssid":2,"svid":10,"az":309.0,"el":31.0,"ss":0.0,"used":false},{"PRN":311,"gnssid":2,"svid":11,"az":308.0,"el":5.0,"ss":0.0,"used":false},{"PRN":312,"gnssid":2,"svid":12,"az":312.0,"el":56.0,"ss":41.0,"used":true},{"PRN":319,"gnssid":2,"svid":19,"az":183.0,"el":60.0,"ss":0.0,"used":false},{"PRN":325,"gnssid":2,"svid":25,"az":315.0,"el":1.0,"ss":0.0,"used":false},{"PRN":326,"gnssid":2,"svid":26,"az":126.0,"el":14.0,"ss":0.0,"used":false},{"PRN":333,"gnssid":2,"svid":33,"az":121.0,"el":63.0,"ss":23.0,"used":true}]}
$GNTXT,01,01,01,0,500482,0000,80A0,80A0,-37.847,0*67
$GNTXT,01,01,02,0,00,10000,00,01,17,01,0001,0000,0.000*57
$SNRSTAT,1,1,0,0*5D
$GYOACC,090624,000653.10,0.004960,-0.001510,0.005386,100,-3.358145,-8.120926,4.427577,100,35,0,100,0*21
{"class":"TPV","mode":3,"time":"2024-06-09T00:06:53.000Z","ept":0.005,"lat":44.068832333,"lon":-121.314102167,"altHAE":1087.0455,"altMSL":1109.2000,"alt":1109.2000,"epx":8.688,"epy":8.552,"epv":18.170,"magvar":14.4,"speed":0.027,"geoidSep":-22.155,"eph":13.110,"sep":19.950}
{"class":"ATT","time":"2024-06-09T00:06:53.100Z","acc_x":-3.35814,"acc_y":-8.12093,"acc_z":4.42758,"gyro_x":0.00496,"gyro_y":-0.00151,"gyro_z":0.00539}
{"class":"SKY","gdop":1.66,"hdop":0.69,"pdop":1.05,"tdop":0.77,"xdop":0.58,"ydop":0.57,"vdop":0.79,"uSat":29}
$GYOACC,090624,000653.20,0.004095,-0.000825,0.004308,100,-3.358414,-8.111950,4.426634,100,35,0,100,0*2B
{"class":"TPV","mode":3,"time":"2024-06-09T00:06:53.000Z","ept":0.005,"lat":44.068832333,"lon":-121.314102167,"altHAE":1087.0455,"altMSL":1109.2000,"alt":1109.2000,"epx":8.688,"epy":8.552,"epv":18.170,"magvar":14.4,"speed":0.027,"geoidSep":-22.155,"eph":13.110,"sep":19.950}
{"class":"ATT","time":"2024-06-09T00:06:53.200Z","acc_x":-3.35841,"acc_y":-8.11195,"acc_z":4.42663,"gyro_x":0.00409,"gyro_y":-0.00082,"gyro_z":0.00431}
$GYOACC,090624,000653.30,0.004874,-0.001391,0.003376,100,-3.356709,-8.121734,4.426769,100,35,0,100,0*21
{"class":"TPV","mode":3,"time":"2024-06-09T00:06:53.000Z","ept":0.005,"lat":44.068832333,"lon":-121.314102167,"altHAE":1087.0455,"altMSL":1109.2000,"alt":1109.2000,"epx":8.688,"epy":8.552,"epv":18.170,"magvar":14.4,"speed":0.027,"geoidSep":-22.155,"eph":13.110,"sep":19.950}
{"class":"ATT","time":"2024-06-09T00:06:53.300Z","acc_x":-3.35671,"acc_y":-8.12173,"acc_z":4.42677,"gyro_x":0.00487,"gyro_y":-0.00139,"gyro_z":0.00338}
$PDTINFO,UM621-02,G1B1L1E1,V1.2,R6.0.0.0Build2810,2310414000033,PC12B4231700429*73
$GNTXT,01,01,00,PDTINFO*1F
$GYOACC,090624,000653.40,0.004494,-0.000878,0.004001,100,-3.360434,-8.118233,4.430090,100,35,0,100,0*2B
{"class":"TPV","mode":3,"time":"2024-06-09T00:06:53.000Z","ept":0.005,"lat":44.068832333,"lon":-121.314102167,"altHAE":1087.0455,"altMSL":1109.2000,"alt":1109.2000,"epx":8.688,"epy":8.552,"epv":18.170,"magvar":14.4,"speed":0.027,"geoidSep":-22.155,"eph":13.110,"sep":19.950}
{"class":"ATT","time":"2024-06-09T00:06:53.400Z","acc_x":-3.36043,"acc_y":-8.11823,"acc_z":4.43009,"gyro_x":0.00449,"gyro_y":-0.00088,"gyro_z":0.00400}
$GYOACC,090624,000653.50,0.004787,-0.002063,0.004274,100,-3.371083,-8.120862,4.424809,100,35,0,100,0*2B
{"class":"TPV","mode":3,"time":"2024-06-09T00:06:53.000Z","ept":0.005,"lat":44.068832333,"lon":-121.314102167,"altHAE":1087.0455,"altMSL":1109.2000,"alt":1109.2000,"epx":8.688,"epy":8.552,"epv":18.170,"magvar":14.4,"speed":0.027,"geoidSep":-22.155,"eph":13.110,"sep":19.950}
{"class":"ATT","time":"2024-06-09T00:06:53.500Z","acc_x":-3.37108,"acc_y":-8.12086,"acc_z":4.42481,"gyro_x":0.00479,"gyro_y":-0.00206,"gyro_z":0.00427}
$GYOACC,090624,000653.60,0.005140,-0.002549,0.004388,100,-3.358683,-8.111726,4.427846,100,35,0,100,0*23
{"class":"TPV","mode":3,"time":"2024-06-09T00:06:53.000Z","ept":0.005,"lat":44.068832333,"lon":-121.314102167,"altHAE":1087.0455,"altMSL":1109.2000,"alt":1109.2000,"epx":8.688,"epy":8.552,"epv":18.170,"magvar":14.4,"speed":0.027,"geoidSep":-22.155,"eph":13.110,"sep":19.950}
{"class":"ATT","time":"2024-06-09T00:06:53.600Z","acc_x":-3.35868,"acc_y":-8.11173,"acc_z":4.42785,"gyro_x":0.00514,"gyro_y":-0.00255,"gyro_z":0.00439}
$GYOACC,090624,000653.70,0.004594,-0.001790,0.003582,100,-3.368602,-8.119445,4.426500,100,35,0,100,0*2A
{"class":"TPV","mode":3,"time":"2024-06-09T00:06:53.000Z","ept":0.005,"lat":44.068832333,"lon":-121.314102167,"altHAE":1087.0455,"altMSL":1109.2000,"alt":1109.2000,"epx":8.688,"epy":8.552,"epv":18.170,"magvar":14.4,"speed":0.027,"geoidSep":-22.155,"eph":13.110,"sep":19.950}
{"class":"ATT","time":"2024-06-09T00:06:53.700Z","acc_x":-3.36860,"acc_y":-8.11945,"acc_z":4.42650,"gyro_x":0.00459,"gyro_y":-0.00179,"gyro_z":0.00358}
$GYOACC,090624,000653.80,0.003968,-0.001610,0.003682,100,-3.358818,-8.112309,4.427397,100,35,0,100,0*2C
{"class":"TPV","mode":3,"time":"2024-06-09T00:06:53.000Z","ept":0.005,"lat":44.068832333,"lon":-121.314102167,"altHAE":1087.0455,"altMSL":1109.2000,"alt":1109.2000,"epx":8.688,"epy":8.552,"epv":18.170,"magvar":14.4,"speed":0.027,"geoidSep":-22.155,"eph":13.110,"sep":19.950}
{"class":"ATT","time":"2024-06-09T00:06:53.800Z","acc_x":-3.35882,"acc_y":-8.11231,"acc_z":4.42740,"gyro_x":0.00397,"gyro_y":-0.00161,"gyro_z":0.00368}
$GYOACC,090624,000653.90,0.004274,-0.000975,0.003132,100,-3.358145,-8.120567,4.417210,100,35,0,100,0*2E
{"class":"TPV","mode":3,"time":"2024-06-09T00:06:53.000Z","ept":0.005,"lat":44.068832333,"lon":-121.314102167,"altHAE":1087.0455,"altMSL":1109.2000,"alt":1109.2000,"epx":8.688,"epy":8.552,"epv":18.170,"magvar":14.4,"speed":0.027,"geoidSep":-22.155,"eph":13.110,"sep":19.950}
{"class":"ATT","time":"2024-06-09T00:06:53.900Z","acc_x":-3.35814,"acc_y":-8.12057,"acc_z":4.41721,"gyro_x":0.00427,"gyro_y":-0.00097,"gyro_z":0.00313}
$GYOACC,090624,000654.00,0.003522,-0.001870,0.003376,100,-3.360397,-8.122785,4.417800,100,35,0,100,0*25
{"class":"TPV","mode":3,"time":"2024-06-09T00:06:53.000Z","ept":0.005,"lat":44.068832333,"lon":-121.314102167,"altHAE":1087.0455,"altMSL":1109.2000,"alt":1109.2000,"epx":8.688,"epy":8.552,"epv":18.170,"magvar":14.4,"speed":0.027,"geoidSep":-22.155,"eph":13.110,"sep":19.950}
{"class":"ATT","time":"2024-06-09T00:06:54.000Z","acc_x":-3.36040,"acc_y":-8.12279,"acc_z":4.41780,"gyro_x":0.00352,"gyro_y":-0.00187,"gyro_z":0.00338}
$GNRMC,000654.00,A,4404.12993,N,12118.84616,W,0.071,,090624,,,A,V*0C
$GNGGA,000654.00,4404.12993,N,12118.84616,W,1,29,0.63,1109.3,M,,M,,*7F
{"class":"TPV","mode":3,"time":"2024-06-09T00:06:54.000Z","ept":0.005,"lat":44.068832167,"lon":-121.314102667,"altHAE":1087.1455,"altMSL":1109.3000,"alt":1109.3000,"magvar":14.4,"speed":0.037,"climb":0.100,"geoidSep":-22.155,"eph":11.970}
{"class":"SKY","hdop":0.63,"uSat":29}
$GNGSA,A,3,08,10,23,27,32,24,28,21,44,48,18,,0.97,0.63,0.74,1*0F
{"class":"TPV","mode":3,"time":"2024-06-09T00:06:54.000Z","ept":0.005,"lat":44.068832167,"lon":-121.314102667,"altHAE":1087.1455,"altMSL":1109.3000,"alt":1109.3000,"epv":17.020,"magvar":14.4,"speed":0.037,"climb":0.100,"epc":35.19,"geoidSep":-22.155,"eph":11.970,"sep":18.430}
$GNGSA,A,3,85,68,69,84,83,,,,,,,,0.97,0.63,0.74,2*01
{"class":"TPV","mode":3,"time":"2024-06-09T00:06:54.000Z","ept":0.005,"lat":44.068832167,"lon":-121.314102667,"altHAE":1087.1455,"altMSL":1109.3000,"alt":1109.3000,"epv":17.020,"magvar":14.4,"speed":0.037,"climb":0.100,"epc":35.19,"geoidSep":-22.155,"eph":11.970,"sep":18.430}
{"class":"SKY","hdop":0.63,"pdop":0.97,"vdop":0.74,"uSat":29}
$GNGSA,A,3,21,34,19,12,44,11,35,36,22,,,,0.97,0.63,0.74,4*00
{"class":"TPV","mode":3,"time":"2024-06-09T00:06:54.000Z","ept":0.005,"lat":44.068832167,"lon":-121.314102667,"altHAE":1087.1455,"altMSL":1109.3000,"alt":1109.3000,"epv":17.020,"magvar":14.4,"speed":0.037,"climb":0.100,"epc":35.19,"geoidSep":-22.155,"eph":11.970,"sep":18.430}
{"class":"SKY","hdop":0.63,"pdop":0.97,"vdop":0.74,"uSat":29}
$GNGSA,A,3,12,33,04,19,,,,,,,,,0.97,0.63,0.74,3*04
{"class":"TPV","mode":3,"time":"2024-06-09T00:06:54.000Z","ept":0.005,"lat":44.068832167,"lon":-121.314102667,"altHAE":1087.1455,"altMSL":1109.3000,"alt":1109.3000,"epv":17.020,"magvar":14.4,"speed":0.037,"climb":0.100,"epc":35.19,"geoidSep":-22.155,"eph":11.970,"sep":18.430}
{"class":"SKY","hdop":0.63,"pdop":0.97,"vdop":0.74,"uSat":29}
$GNGSA,A,3,,,,,,,,,,,,,0.97,0.63,0.74,5*0D
{"class":"TPV","mode":3,"time":"2024-06-09T00:06:54.000Z","ept":0.005,"lat":44.068832167,"lon":-121.314102667,"altHAE":1087.1455,"altMSL":1109.3000,"alt":1109.3000,"epv":17.020,"magvar":14.4,"speed":0.037,"climb":0.100,"epc":35.19,"geoidSep":-22.155,"eph":11.970,"sep":18.430}
{"class":"SKY","hdop":0.63,"pdop":0.97,"vdop":0.74,"uSat":29}
$GPGSV,4,1,13,02,07,310,,08,38,280,47,10,73,012,41,18,16,127,16,1*60
$GPGSV,4,2,13,21,23,309,34,23,43,065,29,24,20,058,28,27,41,233,37,1*64
$GPGSV,4,3,13,28,01,165,36,32,63,184,47,44,39,173,38,48,39,185,37,1*6D
$GPGSV,4,4,13,51,37,160,,1*51
$GPGSV,4,1,13,02,07,310,,08,38,280,37,10,73,012,33,18,16,127,,8*6C
$GPGSV,4,2,13,21,23,309,,23,43,065,31,24,20,058,,27,41,233,26,8*69
$GPGSV,4,3,13,28,01,165,,32,63,184,,44,39,173,,48,39,185,,8*6D
$GPGSV,4,4,13,51,37,160,,8*58
$GLGSV,2,1,08,68,40,036,38,69,78,283,37,70,16,232,,77,05,025,,1*7B
$GLGSV,2,2,08,83,31,149,28,84,80,313,30,85,22,326,42,89,,,42,1*42
{"class":"TPV","mode":3,"time":"2024-06-09T00:06:54.000Z","ept":0.005,"lat":44.068832167,"lon":-121.314102667,"altHAE":1087.1455,"altMSL":1109.3000,"alt":1109.3000,"epx":6.577,"epy":6.524,"epv":17.020,"magvar":14.4,"speed":0.037,"climb":0.100,"eps":15.27,"epc":35.19,"geoidSep":-22.155,"eph":11.970,"sep":18.430}
{"class":"SKY","gdop":1.27,"hdop":0.63,"pdop":0.97,"tdop":0.62,"xdop":0.44,"ydop":0.43,"vdop":0.74,"nSat":34,"uSat":20,"satellites":[{"PRN":2,"gnssid":0,"svid":2,"az":310.0,"el":7.0,"ss":0.0,"used":false},{"PRN":8,"gnssid":0,"svid":8,"az":280.0,"el":38.0,"ss":47.0,"used":true},{"PRN":10,"gnssid":0,"svid":10,"az":12.0,"el":73.0,"ss":41.0,"used":true},{"PRN":18,"gnssid":0,"svid":18,"az":127.0,"el":16.0,"ss":16.0,"used":true},{"PRN":21,"gnssid":0,"svid":21,"az":309.0,"el":23.0,"ss":34.0,"used":true},{"PRN":23,"gnssid":0,"svid":23,"az":65.0,"el":43.0,"ss":29.0,"used":true},{"PRN":24,"gnssid":0,"svid":24,"az":58.0,"el":20.0,"ss":28.0,"used":true},{"PRN":27,"gnssid":0,"svid":27,"az":233.0,"el":41.0,"ss":37.0,"used":true},{"PRN":28,"gnssid":0,"svid":28,"az":165.0,"el":1.0,"ss":36.0,"used":true},{"PRN":32,"gnssid":0,"svid":32,"az":184.0,"el":63.0,"ss":47.0,"used":true},{"PRN":44,"gnssid":1,"svid":131,"az":173.0,"el":39.0,"ss":38.0,"used":true},{"PRN":48,"gnssid":1,"svid":135,"az":185.0,"el":39.0,"ss":37.0,"used":true},{"PRN":51,"gnssid":1,"svid":138,"az":160.0,"el":37.0,"ss":0.0,"used":false},{"PRN":2,"gnssid":0,"svid":2,"sigid":7,"az":310.0,"el":7.0,"ss":0.0,"used":false},{"PRN":8,"gnssid":0,"svid":8,"sigid":7,"az":280.0,"el":38.0,"ss":37.0,"used":true},{"PRN":10,"gnssid":0,"svid":10,"sigid":7,"az":12.0,"el":73.0,"ss":33.0,"used":true},{"PRN":18,"gnssid":0,"svid":18,"sigid":7,"az":127.0,"el":16.0,"ss":0.0,"used":false},{"PRN":21,"gnssid":0,"svid":21,"sigid":7,"az":309.0,"el":23.0,"ss":0.0,"used":false},{"PRN":23,"gnssid":0,"svid":23,"sigid":7,"az":65.0,"el":43.0,"ss":31.0,"used":true},{"PRN":24,"gnssid":0,"svid":24,"sigid":7,"az":58.0,"el":20.0,"ss":0.0,"used":false},{"PRN":27,"gnssid":0,"svid":27,"sigid":7,"az":233.0,"el":41.0,"ss":26.0,"used":true},{"PRN":28,"gnssid":0,"svid":28,"sigid":7,"az":165.0,"el":1.0,"ss":0.0,"used":false},{"PRN":32,"gnssid":0,"svid":32,"sigid":7,"az":184.0,"el":63.0,"ss":0.0,"used":false},{"PRN":44,"gnssid":1,"svid":131,"sigid":7,"az":173.0,"el":39.0,"ss":0.0,"used":false},{"PRN":48,"gnssid":1,"svid":135,"sigid":7,"az":185.0,"el":39.0,"ss":0.0,"used":false},{"PRN":51,"gnssid":1,"svid":138,"sigid":7,"az":160.0,"el":37.0,"ss":0.0,"used":false},{"PRN":68,"gnssid":6,"svid":4,"az":36.0,"el":40.0,"ss":38.0,"used":true},{"PRN":69,"gnssid":6,"svid":5,"az":283.0,"el":78.0,"ss":37.0,"used":true},{"PRN":70,"gnssid":6,"svid":6,"az":232.0,"el":16.0,"ss":0.0,"used":false},{"PRN":77,"gnssid":6,"svid":13,"az":25.0,"el":5.0,"ss":0.0,"used":false},{"PRN":83,"gnssid":6,"svid":19,"az":149.0,"el":31.0,"ss":28.0,"used":true},{"PRN":84,"gnssid":6,"svid":20,"az":313.0,"el":80.0,"ss":30.0,"used":true},{"PRN":85,"gnssid":6,"svid":21,"az":326.0,"el":22.0,"ss":42.0,"used":true},{"PRN":89,"gnssid":6,"svid":25,"az":0.0,"el":0.0,"ss":42.0,"used":false}]}
$GBGSV,4,1,14,07,01,332,,11,23,316,30,12,68,259,34,19,17,055,21,1*7D
$GBGSV,4,2,14,21,51,245,45,22,70,042,31,34,44,300,40,35,20,161,30,1*72
$GBGSV,4,3,14,36,02,097,25,40,11,330,,42,03,239,,43,03,322,,1*74
$GBGSV,4,4,14,44,59,199,40,46,03,052,,1*7C
{"class":"TPV","mode":3,"time":"2024-06-09T00:06:54.000Z","ept":0.005,"lat":44.068832167,"lon":-121.314102667,"altHAE":1087.1455,"altMSL":1109.3000,"alt":1109.3000,"epx":6.577,"epy":6.524,"epv":17.020,"magvar":14.4,"speed":0.037,"climb":0.100,"eps":15.27,"epc":35.19,"geoidSep":-22.155,"eph":11.970,"sep":18.430}
{"class":"SKY","gdop":1.27,"hdop":0.63,"pdop":0.97,"tdop":0.62,"xdop":0.44,"ydop":0.43,"vdop":0.74,"nSat":48,"uSat":29,"satellites":[{"PRN":2,"gnssid":0,"svid":2,"az":310.0,"el":7.0,"ss":0.0,"used":false},{"PRN":8,"gnssid":0,"svid":8,"az":280.0,"el":38.0,"ss":47.0,"used":true},{"PRN":10,"gnssid":0,"svid":10,"az":12.0,"el":73.0,"ss":41.0,"used":true},{"PRN":18,"gnssid":0,"svid":18,"az":127.0,"el":16.0,"ss":16.0,"used":true},{"PRN":21,"gnssid":0,"svid":21,"az":309.0,"el":23.0,"ss":34.0,"used":true},{"PRN":23,"gnssid":0,"svid":23,"az":65.0,"el":43.0,"ss":29.0,"used":true},{"PRN":24,"gnssid":0,"svid":24,"az":58.0,"el":20.0,"ss":28.0,"used":true},{"PRN":27,"gnssid":0,"svid":27,"az":233.0,"el":41.0,"ss":37.0,"used":true},{"PRN":28,"gnssid":0,"svid":28,"az":165.0,"el":1.0,"ss":36.0,"used":true},{"PRN":32,"gnssid":0,"svid":32,"az":184.0,"el":63.0,"ss":47.0,"used":true},{"PRN":44,"gnssid":1,"svid":131,"az":173.0,"el":39.0,"ss":38.0,"used":true},{"PRN":48,"gnssid":1,"svid":135,"az":185.0,"el":39.0,"ss":37.0,"used":true},{"PRN":51,"gnssid":1,"svid":138,"az":160.0,"el":37.0,"ss":0.0,"used":false},{"PRN":2,"gnssid":0,"svid":2,"sigid":7,"az":310.0,"el":7.0,"ss":0.0,"used":false},{"PRN":8,"gnssid":0,"svid":8,"sigid":7,"az":280.0,"el":38.0,"ss":37.0,"used":true},{"PRN":10,"gnssid":0,"svid":10,"sigid":7,"az":12.0,"el":73.0,"ss":33.0,"used":true},{"PRN":18,"gnssid":0,"svid":18,"sigid":7,"az":127.0,"el":16.0,"ss":0.0,"used":false},{"PRN":21,"gnssid":0,"svid":21,"sigid":7,"az":309.0,"el":23.0,"ss":0.0,"used":false},{"PRN":23,"gnssid":0,"svid":23,"sigid":7,"az":65.0,"el":43.0,"ss":31.0,"used":true},{"PRN":24,"gnssid":0,"svid":24,"sigid":7,"az":58.0,"el":20.0,"ss":0.0,"used":false},{"PRN":27,"gnssid":0,"svid":27,"sigid":7,"az":233.0,"el":41.0,"ss":26.0,"used":true},{"PRN":28,"gnssid":0,"svid":28,"sigid":7,"az":165.0,"el":1.0,"ss":0.0,"used":false},{"PRN":32,"gnssid":0,"svid":32,"sigid":7,"az":184.0,"el":63.0,"ss":0.0,"used":false},{"PRN":44,"gnssid":1,"svid":131,"sigid":7,"az":173.0,"el":39.0,"ss":0.0,"used":false},{"PRN":48,"gnssid":1,"svid":135,"sigid":7,"az":185.0,"el":39.0,"ss":0.0,"used":false},{"PRN":51,"gnssid":1,"svid":138,"sigid":7,"az":160.0,"el":37.0,"ss":0.0,"used":false},{"PRN":68,"gnssid":6,"svid":4,"az":36.0,"el":40.0,"ss":38.0,"used":true},{"PRN":69,"gnssid":6,"svid":5,"az":283.0,"el":78.0,"ss":37.0,"used":true},{"PRN":70,"gnssid":6,"svid":6,"az":232.0,"el":16.0,"ss":0.0,"used":false},{"PRN":77,"gnssid":6,"svid":13,"az":25.0,"el":5.0,"ss":0.0,"used":false},{"PRN":83,"gnssid":6,"svid":19,"az":149.0,"el":31.0,"ss":28.0,"used":true},{"PRN":84,"gnssid":6,"svid":20,"az":313.0,"el":80.0,"ss":30.0,"used":true},{"PRN":85,"gnssid":6,"svid":21,"az":326.0,"el":22.0,"ss":42.0,"used":true},{"PRN":89,"gnssid":6,"svid":25,"az":0.0,"el":0.0,"ss":42.0,"used":false},{"PRN":407,"gnssid":3,"svid":7,"az":332.0,"el":1.0,"ss":0.0,"used":false},{"PRN":411,"gnssid":3,"svid":11,"az":316.0,"el":23.0,"ss":30.0,"used":true},{"PRN":412,"gnssid":3,"svid":12,"az":259.0,"el":68.0,"ss":34.0,"used":true},{"PRN":419,"gnssid":3,"svid":19,"az":55.0,"el":17.0,"ss":21.0,"used":true},{"PRN":421,"gnssid":3,"svid":21,"az":245.0,"el":51.0,"ss":45.0,"used":true},{"PRN":422,"gnssid":3,"svid":22,"az":42.0,"el":70.0,"ss":31.0,"used":true},{"PRN":434,"gnssid":3,"svid":34,"az":300.0,"el":44.0,"ss":40.0,"used":true},{"PRN":435,"gnssid":3,"svid":35,"az":161.0,"el":20.0,"ss":30.0,"used":true},{"PRN":436,"gnssid":3,"svid":36,"az":97.0,"el":2.0,"ss":25.0,"used":true},{"PRN":440,"gnssid":3,"svid":40,"az":330.0,"el":11.0,"ss":0.0,"used":false},{"PRN":442,"gnssid":3,"svid":42,"az":239.0,"el":3.0,"ss":0.0,"used":false},{"PRN":443,"gnssid":3,"svid":43,"az":322.0,"el":3.0,"ss":0.0,"used":false},{"PRN":444,"gnssid":3,"svid":44,"az":199.0,"el":59.0,"ss":40.0,"used":true},{"PRN":446,"gnssid":3,"svid":46,"az":52.0,"el":3.0,"ss":0.0,"used":false}]}
$GBGSV,4,1,14,07,01,332,,11,23,316,,12,68,259,,19,17,055,23,5*7F
$GBGSV,4,2,14,21,51,245,30,22,70,042,,34,44,300,44,35,20,161,,5*71
$GBGSV,4,3,14,36,02,097,,40,11,330,,42,03,239,,43,03,322,,5*77
$GBGSV,4,4,14,44,59,199,,46,03,052,,5*7C
{"class":"TPV","mode":3,"time":"2024-06-09T00:06:54.000Z","ept":0.005,"lat":44.068832167,"lon":-121.314102667,"altHAE":1087.1455,"altMSL":1109.3000,"alt":1109.3000,"epx":6.577,"epy":6.524,"epv":17.020,"magvar":14.4,"speed":0.037,"climb":0.100,"eps":15.27,"epc":35.19,"geoidSep":-22.155,"eph":11.970,"sep":18.430}
{"class":"SKY","gdop":1.27,"hdop":0.63,"pdop":0.97,"tdop":0.62,"xdop":0.44,"ydop":0.43,"vdop":0.74,"nSat":62,"uSat":32,"satellites":[{"PRN":2,"gnssid":0,"svid":2,"az":310.0,"el":7.0,"ss":0.0,"used":false},{"PRN":8,"gnssid":0,"svid":8,"az":280.0,"el":38.0,"ss":47.0,"used":true},{"PRN":10,"gnssid":0,"svid":10,"az":12.0,"el":73.0,"ss":41.0,"used":true},{"PRN":18,"gnssid":0,"svid":18,"az":127.0,"el":16.0,"ss":16.0,"used":true},{"PRN":21,"gnssid":0,"svid":21,"az":309.0,"el":23.0,"ss":34.0,"used":true},{"PRN":23,"gnssid":0,"svid":23,"az":65.0,"el":43.0,"ss":29.0,"used":true},{"PRN":24,"gnssid":0,"svid":24,"az":58.0,"el":20.0,"ss":28.0,"used":true},{"PRN":27,"gnssid":0,"svid":27,"az":233.0,"el":41.0,"ss":37.0,"used":true},{"PRN":28,"gnssid":0,"svid":28,"az":165.0,"el":1.0,"ss":36.0,"used":true},{"PRN":32,"gnssid":0,"svid":32,"az":184.0,"el":63.0,"ss":47.0,"used":true},{"PRN":44,"gnssid":1,"svid":131,"az":173.0,"el":39.0,"ss":38.0,"used":true},{"PRN":48,"gnssid":1,"svid":135,"az":185.0,"el":39.0,"ss":37.0,"used":true},{"PRN":51,"gnssid":1,"svid":138,"az":160.0,"el":37.0,"ss":0.0,"used":false},{"PRN":2,"gnssid":0,"svid":2,"sigid":7,"az":310.0,"el":7.0,"ss":0.0,"used":false},{"PRN":8,"gnssid":0,"svid":8,"sigid":7,"az":280.0,"el":38.0,"ss":37.0,"used":true},{"PRN":10,"gnssid":0,"svid":10,"sigid":7,"az":12.0,"el":73.0,"ss":33.0,"used":true},{"PRN":18,"gnssid":0,"svid":18,"sigid":7,"az":127.0,"el":16.0,"ss":0.0,"used":false},{"PRN":21,"gnssid":0,"svid":21,"sigid":7,"az":309.0,"el":23.0,"ss":0.0,"used":false},{"PRN":23,"gnssid":0,"svid":23,"sigid":7,"az":65.0,"el":43.0,"ss":31.0,"used":true},{"PRN":24,"gnssid":0,"svid":24,"sigid":7,"az":58.0,"el":20.0,"ss":0.0,"used":false},{"PRN":27,"gnssid":0,"svid":27,"sigid":7,"az":233.0,"el":41.0,"ss":26.0,"used":true},{"PRN":28,"gnssid":0,"svid":28,"sigid":7,"az":165.0,"el":1.0,"ss":0.0,"used":false},{"PRN":32,"gnssid":0,"svid":32,"sigid":7,"az":184.0,"el":63.0,"ss":0.0,"used":false},{"PRN":44,"gnssid":1,"svid":131,"sigid":7,"az":173.0,"el":39.0,"ss":0.0,"used":false},{"PRN":48,"gnssid":1,"svid":135,"sigid":7,"az":185.0,"el":39.0,"ss":0.0,"used":false},{"PRN":51,"gnssid":1,"svid":138,"sigid":7,"az":160.0,"el":37.0,"ss":0.0,"used":false},{"PRN":68,"gnssid":6,"svid":4,"az":36.0,"el":40.0,"ss":38.0,"used":true},{"PRN":69,"gnssid":6,"svid":5,"az":283.0,"el":78.0,"ss":37.0,"used":true},{"PRN":70,"gnssid":6,"svid":6,"az":232.0,"el":16.0,"ss":0.0,"used":false},{"PRN":77,"gnssid":6,"svid":13,"az":25.0,"el":5.0,"ss":0.0,"used":false},{"PRN":83,"gnssid":6,"svid":19,"az":149.0,"el":31.0,"ss":28.0,"used":true},{"PRN":84,"gnssid":6,"svid":20,"az":313.0,"el":80.0,"ss":30.0,"used":true},{"PRN":85,"gnssid":6,"svid":21,"az":326.0,"el":22.0,"ss":42.0,"used":true},{"PRN":89,"gnssid":6,"svid":25,"az":0.0,"el":0.0,"ss":42.0,"used":false},{"PRN":407,"gnssid":3,"svid":7,"az":332.0,"el":1.0,"ss":0.0,"used":false},{"PRN":411,"gnssid":3,"svid":11,"az":316.0,"el":23.0,"ss":30.0,"used":true},{"PRN":412,"gnssid":3,"svid":12,"az":259.0,"el":68.0,"ss":34.0,"used":true},{"PRN":419,"gnssid":3,"svid":19,"az":55.0,"el":17.0,"ss":21.0,"used":true},{"PRN":421,"gnssid":3,"svid":21,"az":245.0,"el":51.0,"ss":45.0,"used":true},{"PRN":422,"gnssid":3,"svid":22,"az":42.0,"el":70.0,"ss":31.0,"used":true},{"PRN":434,"gnssid":3,"svid":34,"az":300.0,"el":44.0,"ss":40.0,"used":true},{"PRN":435,"gnssid":3,"svid":35,"az":161.0,"el":20.0,"ss":30.0,"used":true},{"PRN":436,"gnssid":3,"svid":36,"az":97.0,"el":2.0,"ss":25.0,"used":true},{"PRN":440,"gnssid":3,"svid":40,"az":330.0,"el":11.0,"ss":0.0,"used":false},{"PRN":442,"gnssid":3,"svid":42,"az":239.0,"el":3.0,"ss":0.0,"used":false},{"PRN":443,"gnssid":3,"svid":43,"az":322.0,"el":3.0,"ss":0.0,"used":false},{"PRN":444,"gnssid":3,"svid":44,"az":199.0,"el":59.0,"ss":40.0,"used":true},{"PRN":446,"gnssid":3,"svid":46,"az":52.0,"el":3.0,"ss":0.0,"used":false},{"PRN":407,"gnssid":3,"svid":7,"sigid":4,"az":332.0,"el":1.0,"ss":0.0,"used":false},{"PRN":411,"gnssid":3,"svid":11,"sigid":4,"az":316.0,"el":23.0,"ss":0.0,"used":false},{"PRN":412,"gnssid":3,"svid":12,"sigid":4,"az":259.0,"el":68.0,"ss":0.0,"used":false},{"PRN":419,"gnssid":3,"svid":19,"sigid":4,"az":55.0,"el":17.0,"ss":23.0,"used":true},{"PRN":421,"gnssid":3,"svid":21,"sigid":4,"az":245.0,"el":51.0,"ss":30.0,"used":true},{"PRN":422,"gnssid":3,"svid":22,"sigid":4,"az":42.0,"el":70.0,"ss":0.0,"used":false},{"PRN":434,"gnssid":3,"svid":34,"sigid":4,"az":300.0,"el":44.0,"ss":44.0,"used":true},{"PRN":435,"gnssid":3,"svid":35,"sigid":4,"az":161.0,"el":20.0,"ss":0.0,"used":false},{"PRN":436,"gnssid":3,"svid":36,"sigid":4,"az":97.0,"el":2.0,"ss":0.0,"used":false},{"PRN":440,"gnssid":3,"svid":40,"sigid":4,"az":330.0,"el":11.0,"ss":0.0,"used":false},{"PRN":442,"gnssid":3,"svid":42,"sigid":4,"az":239.0,"el":3.0,"ss":0.0,"used":false},{"PRN":443,"gnssid":3,"svid":43,"sigid":4,"az":322.0,"el":3.0,"ss":0.0,"used":false},{"PRN":444,"gnssid":3,"svid":44,"sigid":4,"az":199.0,"el":59.0,"ss":0.0,"used":false},{"PRN":446,"gnssid":3,"svid":46,"sigid":4,"az":52.0,"el":3.0,"ss":0.0,"used":false}]}
$GAGSV,3,1,09,04,06,211,34,07,10,041,,10,31,309,,11,05,308,,7*7B
$GAGSV,3,2,09,12,56,312,43,19,60,183,35,25,01,315,,26,14,126,,7*7B
$GAGSV,3,3,09,33,63,121,35,7*4B
{"class":"TPV","mode":3,"time":"2024-06-09T00:06:54.000Z","ept":0.005,"lat":44.068832167,"lon":-121.314102667,"altHAE":1087.1455,"altMSL":1109.3000,"alt":1109.3000,"epx":6.577,"epy":6.524,"epv":17.020,"magvar":14.4,"speed":0.037,"climb":0.100,"eps":15.27,"epc":35.19,"geoidSep":-22.155,"eph":11.970,"sep":18.430}
{"class":"SKY","gdop":1.27,"hdop":0.63,"pdop":0.97,"tdop":0.62,"xdop":0.44,"ydop":0.43,"vdop":0.74,"nSat":71,"uSat":36,"satellites":[{"PRN":2,"gnssid":0,"svid":2,"az":310.0,"el":7.0,"ss":0.0,"used":false},{"PRN":8,"gnssid":0,"svid":8,"az":280.0,"el":38.0,"ss":47.0,"used":true},{"PRN":10,"gnssid":0,"svid":10,"az":12.0,"el":73.0,"ss":41.0,"used":true},{"PRN":18,"gnssid":0,"svid":18,"az":127.0,"el":16.0,"ss":16.0,"used":true},{"PRN":21,"gnssid":0,"svid":21,"az":309.0,"el":23.0,"ss":34.0,"used":true},{"PRN":23,"gnssid":0,"svid":23,"az":65.0,"el":43.0,"ss":29.0,"used":true},{"PRN":24,"gnssid":0,"svid":24,"az":58.0,"el":20.0,"ss":28.0,"used":true},{"PRN":27,"gnssid":0,"svid":27,"az":233.0,"el":41.0,"ss":37.0,"used":true},{"PRN":28,"gnssid":0,"svid":28,"az":165.0,"el":1.0,"ss":36.0,"used":true},{"PRN":32,"gnssid":0,"svid":32,"az":184.0,"el":63.0,"ss":47.0,"used":true},{"PRN":44,"gnssid":1,"svid":131,"az":173.0,"el":39.0,"ss":38.0,"used":true},{"PRN":48,"gnssid":1,"svid":135,"az":185.0,"el":39.0,"ss":37.0,"used":true},{"PRN":51,"gnssid":1,"svid":138,"az":160.0,"el":37.0,"ss":0.0,"used":false},{"PRN":2,"gnssid":0,"svid":2,"sigid":7,"az":310.0,"el":7.0,"ss":0.0,"used":false},{"PRN":8,"gnssid":0,"svid":8,"sigid":7,"az":280.0,"el":38.0,"ss":37.0,"used":true},{"PRN":10,"gnssid":0,"svid":10,"sigid":7,"az":12.0,"el":73.0,"ss":33.0,"used":true},{"PRN":18,"gnssid":0,"svid":18,"sigid":7,"az":127.0,"el":16.0,"ss":0.0,"used":false},{"PRN":21,"gnssid":0,"svid":21,"sigid":7,"az":309.0,"el":23.0,"ss":0.0,"used":false},{"PRN":23,"gnssid":0,"svid":23,"sigid":7,"az":65.0,"el":43.0,"ss":31.0,"used":true},{"PRN":24,"gnssid":0,"svid":24,"sigid":7,"az":58.0,"el":20.0,"ss":0.0,"used":false},{"PRN":27,"gnssid":0,"svid":27,"sigid":7,"az":233.0,"el":41.0,"ss":26.0,"used":true},{"PRN":28,"gnssid":0,"svid":28,"sigid":7,"az":165.0,"el":1.0,"ss":0.0,"used":false},{"PRN":32,"gnssid":0,"svid":32,"sigid":7,"az":184.0,"el":63.0,"ss":0.0,"used":false},{"PRN":44,"gnssid":1,"svid":131,"sigid":7,"az":173.0,"el":39.0,"ss":0.0,"used":false},{"PRN":48,"gnssid":1,"svid":135,"sigid":7,"az":185.0,"el":39.0,"ss":0.0,"used":false},{"PRN":51,"gnssid":1,"svid":138,"sigid":7,"az":160.0,"el":37.0,"ss":0.0,"used":false},{"PRN":68,"gnssid":6,"svid":4,"az":36.0,"el":40.0,"ss":38.0,"used":true},{"PRN":69,"gnssid":6,"svid":5,"az":283.0,"el":78.0,"ss":37.0,"used":true},{"PRN":70,"gnssid":6,"svid":6,"az":232.0,"el":16.0,"ss":0.0,"used":false},{"PRN":77,"gnssid":6,"svid":13,"az":25.0,"el":5.0,"ss":0.0,"used":false},{"PRN":83,"gnssid":6,"svid":19,"az":149.0,"el":31.0,"ss":28.0,"used":true},{"PRN":84,"gnssid":6,"svid":20,"az":313.0,"el":80.0,"ss":30.0,"used":true},{"PRN":85,"gnssid":6,"svid":21,"az":326.0,"el":22.0,"ss":42.0,"used":true},{"PRN":89,"gnssid":6,"svid":25,"az":0.0,"el":0.0,"ss":42.0,"used":false},{"PRN":407,"gnssid":3,"svid":7,"az":332.0,"el":1.0,"ss":0.0,"used":false},{"PRN":411,"gnssid":3,"svid":11,"az":316.0,"el":23.0,"ss":30.0,"used":true},{"PRN":412,"gnssid":3,"svid":12,"az":259.0,"el":68.0,"ss":34.0,"used":true},{"PRN":419,"gnssid":3,"svid":19,"az":55.0,"el":17.0,"ss":21.0,"used":true},{"PRN":421,"gnssid":3,"svid":21,"az":245.0,"el":51.0,"ss":45.0,"used":true},{"PRN":422,"gnssid":3,"svid":22,"az":42.0,"el":70.0,"ss":31.0,"used":true},{"PRN":434,"gnssid":3,"svid":34,"az":300.0,"el":44.0,"ss":40.0,"used":true},{"PRN":435,"gnssid":3,"svid":35,"az":161.0,"el":20.0,"ss":30.0,"used":true},{"PRN":436,"gnssid":3,"svid":36,"az":97.0,"el":2.0,"ss":25.0,"used":true},{"PRN":440,"gnssid":3,"svid":40,"az":330.0,"el":11.0,"ss":0.0,"used":false},{"PRN":442,"gnssid":3,"svid":42,"az":239.0,"el":3.0,"ss":0.0,"used":false},{"PRN":443,"gnssid":3,"svid":43,"az":322.0,"el":3.0,"ss":0.0,"used":false},{"PRN":444,"gnssid":3,"svid":44,"az":199.0,"el":59.0,"ss":40.0,"used":true},{"PRN":446,"gnssid":3,"svid":46,"az":52.0,"el":3.0,"ss":0.0,"used":false},{"PRN":407,"gnssid":3,"svid":7,"sigid":4,"az":332.0,"el":1.0,"ss":0.0,"used":false},{"PRN":411,"gnssid":3,"svid":11,"sigid":4,"az":316.0,"el":23.0,"ss":0.0,"used":false},{"PRN":412,"gnssid":3,"svid":12,"sigid":4,"az":259.0,"el":68.0,"ss":0.0,"used":false},{"PRN":419,"gnssid":3,"svid":19,"sigid":4,"az":55.0,"el":17.0,"ss":23.0,"used":true},{"PRN":421,"gnssid":3,"svid":21,"sigid":4,"az":245.0,"el":51.0,"ss":30.0,"used":true},{"PRN":422,"gnssid":3,"svid":22,"sigid":4,"az":42.0,"el":70.0,"ss":0.0,"used":false},{"PRN":434,"gnssid":3,"svid":34,"sigid":4,"az":300.0,"el":44.0,"ss":44.0,"used":true},{"PRN":435,"gnssid":3,"svid":35,"sigid":4,"az":161.0,"el":20.0,"ss":0.0,"used":false},{"PRN":436,"gnssid":3,"svid":36,"sigid":4,"az":97.0,"el":2.0,"ss":0.0,"used":false},{"PRN":440,"gnssid":3,"svid":40,"sigid":4,"az":330.0,"el":11.0,"ss":0.0,"used":false},{"PRN":442,"gnssid":3,"svid":42,"sigid":4,"az":239.0,"el":3.0,"ss":0.0,"used":false},{"PRN":443,"gnssid":3,"svid":43,"sigid":4,"az":322.0,"el":3.0,"ss":0.0,"used":false},{"PRN":444,"gnssid":3,"svid":44,"sigid":4,"az":199.0,"el":59.0,"ss":0.0,"used":false},{"PRN":446,"gnssid":3,"svid":46,"sigid":4,"az":52.0,"el":3.0,"ss":0.0,"used":false},{"PRN":304,"gnssid":2,"svid":4,"az":211.0,"el":6.0,"ss":34.0,"used":true},{"PRN":307,"gnssid":2,"svid":7,"az":41.0,"el":10.0,"ss":0.0,"used":false},{"PRN":310,"gnssid":2,"svid":10,"az":309.0,"el":31.0,"ss":0.0,"used":false},{"PRN":311,"gnssid":2,"svid":11,"az":308.0,"el":5.0,"ss":0.0,"used":false},{"PRN":312,"gnssid":2,"svid":12,"az":312.0,"el":56.0,"ss":43.0,"used":true},{"PRN":319,"gnssid":2,"svid":19,"az":183.0,"el":60.0,"ss":35.0,"used":true},{"PRN":325,"gnssid":2,"svid":25,"az":315.0,"el":1.0,"ss":0.0,"used":false},{"PRN":326,"gnssid":2,"svid":26,"az":126.0,"el":14.0,"ss":0.0,"used":false},{"PRN":333,"gnssid":2,"svid":33,"az":121.0,"el":63.0,"ss":35.0,"used":true}]}
$GAGSV,3,1,09,04,06,211,30,07,10,041,,10,31,309,,11,05,308,,1*79
$GAGSV,3,2,09,12,56,312,41,19,60,183,,25,01,315,,26,14,126,,1*79
$GAGSV,3,3,09,33,63,121,23,1*4A
{"class":"TPV","mode":3,"time":"2024-06-09T00:06:54.000Z","ept":0.005,"lat":44.068832167,"lon":-121.314102667,"altHAE":1087.1455,"altMSL":1109.3000,"alt":1109.3000,"epx":6.577,"epy":6.524,"epv":17.020,"magvar":14.4,"speed":0.037,"climb":0.100,"eps":15.27,"epc":35.19,"geoidSep":-22.155,"eph":11.970,"sep":18.430}
