# Name: unicore-um621.log
# Chipset: Unicore UM621, SW R6.0.0.0Build2810, HW V1.2
#
# Submitter: Gary E. Miller <gem@rellim.com>
# Date: 2024-06-09
# Location: Bend, OR     44.06886183 N, 121.31410000 W     
#
# Notes: Start with fix, loses fix, regains fix.
#        Mixes $GNGSA with $GPGSV, $GLGSV, $GBGSV, and $GAGSV
#        Non-NMEA compliant: $SNRSTAT, $GYOACC  (Invalid talker IDs)
#        $$GYOACC is 100 Hz 6-axi gyro
#
# Copyright the GPSD project
# SPDX-License-Identifier: BSD-2-clause
#
# {"class":"DEVICE","path":"/dev/ttyAMA0","driver":"NMEA0183","subtype":"UM621-02, G1B1L1E1, 2310414000033","subtype1":"SW R6.0.0.0Build2810,HW V1.2","activated":"2024-06-07T00:42:17.812Z","flags":1,"native":0,"bps":115200,"parity":"N","stopbits":1,"cycle":1.00}
#
$GNRMC,000653.00,A,4404.12994,N,12118.84613,W,0.052,,090624,,,A,V*08
$GNGGA,000653.00,4404.12994,N,12118.84613,W,1,29,0.69,1109.2,M,,M,,*71
$GNGSA,A,3,08,10,23,27,32,24,28,21,44,48,18,,1.05,0.69,0.79,1*02
$GNGSA,A,3,85,68,69,84,83,,,,,,,,1.05,0.69,0.79,2*0C
$GNGSA,A,3,21,34,19,12,44,11,35,36,22,,,,1.05,0.69,0.79,4*0D
$GNGSA,A,3,12,33,04,19,,,,,,,,,1.05,0.69,0.79,3*09
$GNGSA,A,3,,,,,,,,,,,,,1.05,0.69,0.79,5*00
$GPGSV,4,1,13,02,07,310,,08,38,280,47,10,73,012,41,18,16,127,16,1*60
$GPGSV,4,2,13,21,23,309,33,23,43,065,29,24,20,058,28,27,41,233,37,1*63
$GPGSV,4,3,13,28,01,165,36,32,63,184,46,44,39,173,37,48,39,185,37,1*63
$GPGSV,4,4,13,51,37,160,,1*51
$GPGSV,4,1,13,02,07,310,,08,38,280,37,10,73,012,33,18,16,127,,8*6C
$GPGSV,4,2,13,21,23,309,,23,43,065,31,24,20,058,,27,41,233,26,8*69
$GPGSV,4,3,13,28,01,165,,32,63,184,,44,39,173,,48,39,185,,8*6D
$GPGSV,4,4,13,51,37,160,,8*58
$GLGSV,2,1,08,68,40,036,38,69,78,283,37,70,16,232,,77,05,025,,1*7B
$GLGSV,2,2,08,83,31,149,28,84,80,313,30,85,22,326,42,89,,,42,1*42
$GBGSV,4,1,14,07,01,332,,11,23,316,30,12,68,259,34,19,17,055,21,1*7D
$GBGSV,4,2,14,21,51,245,45,22,70,042,31,34,44,300,40,35,20,161,30,1*72
$GBGSV,4,3,14,36,02,097,25,40,11,330,,42,03,239,,43,03,322,,1*74
$GBGSV,4,4,14,44,59,199,40,46,03,052,,1*7C
$GBGSV,4,1,14,07,01,332,,11,23,316,,12,68,259,,19,17,055,23,5*7F
$GBGSV,4,2,14,21,51,245,30,22,70,042,,34,44,300,44,35,20,161,,5*71
$GBGSV,4,3,14,36,02,097,,40,11,330,,42,03,239,,43,03,322,,5*77
$GBGSV,4,4,14,44,59,199,,46,03,052,,5*7C
$GAGSV,3,1,09,04,06,211,34,07,10,041,,10,31,309,,11,05,308,,7*7B
$GAGSV,3,2,09,12,56,312,43,19,60,183,35,25,01,315,,26,14,126,,7*7B
$GAGSV,3,3,09,33,63,121,35,7*4B
$GAGSV,3,1,09,04,06,211,30,07,10,041,,10,31,309,,11,05,308,,1*79
$GAGSV,3,2,09,12,56,312,41,19,60,183,,25,01,315,,26,14,126,,1*79
$GAGSV,3,3,09,33,63,121,23,1*4A
$GNTXT,01,01,01,0,500482,0000,80A0,80A0,-37.847,0*67
$GNTXT,01,01,02,0,00,10000,00,01,17,01,0001,0000,0.000*57
$SNRSTAT,1,1,0,0*5D
$GYOACC,090624,000653.10,0.004960,-0.001510,0.005386,100,-3.358145,-8.120926,4.427577,100,35,0,100,0*21
$GYOACC,090624,000653.20,0.004095,-0.000825,0.004308,100,-3.358414,-8.111950,4.426634,100,35,0,100,0*2B
$GYOACC,090624,000653.30,0.004874,-0.001391,0.003376,100,-3.356709,-8.121734,4.426769,100,35,0,100,0*21
$PDTINFO,UM621-02,G1B1L1E1,V1.2,R6.0.0.0Build2810,2310414000033,PC12B4231700429*73
$GNTXT,01,01,00,PDTINFO*1F
$GYOACC,090624,000653.40,0.004494,-0.000878,0.004001,100,-3.360434,-8.118233,4.430090,100,35,0,100,0*2B
$GYOACC,090624,000653.50,0.004787,-0.002063,0.004274,100,-3.371083,-8.120862,4.424809,100,35,0,100,0*2B
$GYOACC,090624,000653.60,0.005140,-0.002549,0.004388,100,-3.358683,-8.111726,4.427846,100,35,0,100,0*23
$GYOACC,090624,000653.70,0.004594,-0.001790,0.003582,100,-3.368602,-8.119445,4.426500,100,35,0,100,0*2A
$GYOACC,090624,000653.80,0.003968,-0.001610,0.003682,100,-3.358818,-8.112309,4.427397,100,35,0,100,0*2C
$GYOACC,090624,000653.90,0.004274,-0.000975,0.003132,100,-3.358145,-8.120567,4.417210,100,35,0,100,0*2E
$GYOACC,090624,000654.00,0.003522,-0.001870,0.003376,100,-3.360397,-8.122785,4.417800,100,35,0,100,0*25
$GNRMC,000654.00,A,4404.12993,N,12118.84616,W,0.071,,090624,,,A,V*0C
$GNGGA,000654.00,4404.12993,N,12118.84616,W,1,29,0.63,1109.3,M,,M,,*7F
$GNGSA,A,3,08,10,23,27,32,24,28,21,44,48,18,,0.97,0.63,0.74,1*0F
$GNGSA,A,3,85,68,69,84,83,,,,,,,,0.97,0.63,0.74,2*01
$GNGSA,A,3,21,34,19,12,44,11,35,36,22,,,,0.97,0.63,0.74,4*00
$GNGSA,A,3,12,33,04,19,,,,,,,,,0.97,0.63,0.74,3*04
$GNGSA,A,3,,,,,,,,,,,,,0.97,0.63,0.74,5*0D
$GPGSV,4,1,13,02,07,310,,08,38,280,47,10,73,012,41,18,16,127,16,1*60
$GPGSV,4,2,13,21,23,309,34,23,43,065,29,24,20,058,28,27,41,233,37,1*64
$GPGSV,4,3,13,28,01,165,36,32,63,184,47,44,39,173,38,48,39,185,37,1*6D
$GPGSV,4,4,13,51,37,160,,1*51
$GPGSV,4,1,13,02,07,310,,08,38,280,37,10,73,012,33,18,16,127,,8*6C
$GPGSV,4,2,13,21,23,309,,23,43,065,31,24,20,058,,27,41,233,26,8*69
$GPGSV,4,3,13,28,01,165,,32,63,184,,44,39,173,,48,39,185,,8*6D
$GPGSV,4,4,13,51,37,160,,8*58
$GLGSV,2,1,08,68,40,036,38,69,78,283,37,70,16,232,,77,05,025,,1*7B
$GLGSV,2,2,08,83,31,149,28,84,80,313,30,85,22,326,42,89,,,42,1*42
$GBGSV,4,1,14,07,01,332,,11,23,316,30,12,68,259,34,19,17,055,21,1*7D
$GBGSV,4,2,14,21,51,245,45,22,70,042,31,34,44,300,40,35,20,161,30,1*72
$GBGSV,4,3,14,36,02,097,25,40,11,330,,42,03,239,,43,03,322,,1*74
$GBGSV,4,4,14,44,59,199,40,46,03,052,,1*7C
$GBGSV,4,1,14,07,01,332,,11,23,316,,12,68,259,,19,17,055,23,5*7F
$GBGSV,4,2,14,21,51,245,30,22,70,042,,34,44,300,44,35,20,161,,5*71
$GBGSV,4,3,14,36,02,097,,40,11,330,,42,03,239,,43,03,322,,5*77
$GBGSV,4,4,14,44,59,199,,46,03,052,,5*7C
$GAGSV,3,1,09,04,06,211,34,07,10,041,,10,31,309,,11,05,308,,7*7B
$GAGSV,3,2,09,12,56,312,43,19,60,183,35,25,01,315,,26,14,126,,7*7B
$GAGSV,3,3,09,33,63,121,35,7*4B
$GAGSV,3,1,09,04,06,211,30,07,10,041,,10,31,309,,11,05,308,,1*79
$GAGSV,3,2,09,12,56,312,41,19,60,183,,25,01,315,,26,14,126,,1*79
$GAGSV,3,3,09,33,63,121,23,1*4A
$GNTXT,01,01,01,0,500482,0000,80A0,80A0,-38.007,0*64
$GNTXT,01,01,02,0,00,10000,00,01,17,01,0001,0000,0.000*57
$SNRSTAT,1,1,0,0*5D
$GYOACC,090624,000654.10,0.004960,-0.001663,0.004381,100,-3.359536,-8.116438,4.425557,100,35,0,100,0*21
$GYOACC,090624,000654.20,0.004800,-0.001810,0.002963,100,-3.363979,-8.112174,4.432065,100,35,0,100,0*2A
$GYOACC,090624,000654.30,0.005033,-0.002256,0.003615,100,-3.357023,-8.112040,4.420217,100,35,0,100,0*25
$GYOACC,090624,000654.40,0.005380,-0.000612,0.004274,100,-3.352939,-8.119310,4.425288,100,35,0,100,0*22
$GYOACC,090624,000654.50,0.005306,-0.001703,0.003855,100,-3.365398,-8.117571,4.420065,100,35,0,100,0*2D
$GYOACC,090624,000654.60,0.005366,-0.001497,0.004720,100,-3.358145,-8.108001,4.419947,100,35,0,100,0*2F
$GYOACC,090624,000654.70,0.004487,-0.001510,0.003289,100,-3.360164,-8.114553,4.431392,100,35,0,100,0*27
$GYOACC,090624,000654.80,0.003981,-0.002369,0.003236,100,-3.356439,-8.121060,4.428071,100,35,0,100,0*26
$GYOACC,090624,000654.90,0.005160,-0.001976,0.004574,100,-3.366896,-8.117335,4.423538,100,35,0,100,0*28
$GYOACC,090624,000655.00,0.004574,-0.001950,0.004161,100,-3.365569,-8.116801,4.422202,100,35,0,100,0*28
$GNRMC,000655.00,A,4404.12993,N,12118.84616,W,0.068,,090624,,,A,V*05
$GNGGA,000655.00,4404.12993,N,12118.84616,W,1,29,0.60,1109.3,M,,M,,*7D
$GNGSA,A,3,08,10,23,27,32,24,28,21,44,48,18,,0.93,0.60,0.71,1*0D
$GNGSA,A,3,85,68,69,84,83,,,,,,,,0.93,0.60,0.71,2*03
$GNGSA,A,3,21,34,19,12,44,11,35,36,22,,,,0.93,0.60,0.71,4*02
$GNGSA,A,3,12,33,04,19,,,,,,,,,0.93,0.60,0.71,3*06
$GNGSA,A,3,,,,,,,,,,,,,0.93,0.60,0.71,5*0F
$GPGSV,4,1,13,02,07,310,,08,38,280,47,10,73,012,41,18,16,127,17,1*61
$GPGSV,4,2,13,21,23,309,33,23,43,065,28,24,20,058,28,27,41,233,37,1*62
$GPGSV,4,3,13,28,01,165,36,32,63,184,47,44,39,173,38,48,39,185,37,1*6D
$GPGSV,4,4,13,51,37,160,,1*51
$GPGSV,4,1,13,02,07,310,,08,38,280,37,10,73,012,33,18,16,127,,8*6C
$GPGSV,4,2,13,21,23,309,,23,43,065,31,24,20,058,,27,41,233,26,8*69
$GPGSV,4,3,13,28,01,165,,32,63,184,,44,39,173,,48,39,185,,8*6D
$GPGSV,4,4,13,51,37,160,,8*58
$GLGSV,2,1,08,68,40,036,38,69,78,283,37,70,16,232,,77,05,025,,1*7B
$GLGSV,2,2,08,83,31,149,28,84,80,313,30,85,22,326,42,89,,,42,1*42
$GBGSV,4,1,14,07,01,332,,11,23,316,30,12,68,259,34,19,17,055,21,1*7D
$GBGSV,4,2,14,21,51,245,45,22,70,042,31,34,44,300,40,35,20,161,30,1*72
$GBGSV,4,3,14,36,02,097,25,40,11,330,,42,03,239,,43,03,322,,1*74
$GBGSV,4,4,14,44,59,199,40,46,03,052,,1*7C
$GBGSV,4,1,14,07,01,332,,11,23,316,,12,68,259,,19,17,055,23,5*7F
$GBGSV,4,2,14,21,51,245,30,22,70,042,,34,44,300,44,35,20,161,,5*71
$GBGSV,4,3,14,36,02,097,,40,11,330,,42,03,239,,43,03,322,,5*77
$GBGSV,4,4,14,44,59,199,,46,03,052,,5*7C
$GAGSV,3,1,09,04,06,211,34,07,10,041,,10,31,309,,11,05,308,,7*7B
$GAGSV,3,2,09,12,56,312,43,19,60,183,35,25,01,315,,26,14,126,,7*7B
$GAGSV,3,3,09,33,63,121,35,7*4B
$GAGSV,3,1,09,04,06,211,30,07,10,041,,10,31,309,,11,05,308,,1*79
$GAGSV,3,2,09,12,56,312,41,19,60,183,,25,01,315,,26,14,126,,1*79
$GAGSV,3,3,09,33,63,121,22,1*4B
$GNTXT,01,01,01,0,500482,0000,80A0,80A0,-38.304,0*64
$GNTXT,01,01,02,0,00,10000,00,01,17,01,0001,0000,0.000*57
$SNRSTAT,1,1,0,0*5D
$GYOACC,090624,000655.10,0.005226,-0.002016,0.002916,100,-3.364473,-8.118368,4.421698,100,35,0,100,0*2B
$GYOACC,090624,000655.20,0.004361,-0.002150,0.003941,100,-3.356125,-8.126805,4.428385,100,35,0,100,0*21
$GYOACC,090624,000655.30,0.005133,-0.000771,0.004674,100,-3.358908,-8.118861,4.428160,100,35,0,100,0*22
$GYOACC,090624,000655.40,0.006578,-0.001264,0.003975,100,-3.360299,-8.121150,4.428205,100,35,0,100,0*2D
$GYOACC,090624,000655.50,-0.057909,-0.017536,-0.013614,100,-3.370399,-8.100046,4.435880,100,35,0,100,0*22
$GYOACC,090624,000655.60,-0.118743,-0.190701,0.005120,100,-3.392792,-8.144981,4.397822,100,35,0,100,0*0F
$GYOACC,090624,000655.70,0.074229,-0.069667,0.079049,100,-3.195816,-8.209338,4.312237,100,35,0,100,0*25
$GYOACC,090624,000655.80,0.248020,0.076233,0.010972,100,-3.221173,-8.228726,4.363803,100,35,0,100,0*01
$GYOACC,090624,000655.90,0.041479,0.010127,0.019161,100,-3.396068,-7.923187,4.707938,100,35,0,100,0*0D
$GYOACC,090624,000656.00,-0.053748,-0.019999,0.000692,100,-3.339197,-8.038113,4.586503,100,35,0,100,0*08
$GNRMC,000656.00,A,4404.12992,N,12118.84621,W,0.055,,090624,,,A,V*0D
$GNGGA,000656.00,4404.12992,N,12118.84621,W,1,29,0.62,1109.3,M,,M,,*79
$GNGSA,A,3,08,10,23,27,32,24,28,21,44,48,18,,0.94,0.62,0.71,1*08
$GNGSA,A,3,85,68,69,84,83,,,,,,,,0.94,0.62,0.71,2*06
$GNGSA,A,3,21,34,19,12,44,11,35,36,22,,,,0.94,0.62,0.71,4*07
$GNGSA,A,3,12,33,04,19,,,,,,,,,0.94,0.62,0.71,3*03
$GNGSA,A,3,,,,,,,,,,,,,0.94,0.62,0.71,5*0A
$GPGSV,4,1,13,02,07,310,,08,38,280,47,10,73,012,41,18,16,127,20,1*65
$GPGSV,4,2,13,21,23,309,33,23,43,065,28,24,20,058,28,27,41,233,38,1*6D
$GPGSV,4,3,13,28,01,165,37,32,63,184,47,44,39,173,38,48,39,185,37,1*6C
$GPGSV,4,4,13,51,37,160,,1*51
$GPGSV,4,1,13,02,07,310,,08,38,280,37,10,73,012,33,18,16,127,,8*6C
$GPGSV,4,2,13,21,23,309,,23,43,065,31,24,20,058,,27,41,233,26,8*69
$GPGSV,4,3,13,28,01,165,,32,63,184,,44,39,173,,48,39,185,,8*6D
$GPGSV,4,4,13,51,37,160,,8*58
$GLGSV,2,1,08,68,40,036,38,69,78,283,36,70,16,232,,77,05,025,,1*7A
$GLGSV,2,2,08,83,30,149,28,84,80,313,30,85,22,326,42,89,,,42,1*43
$GBGSV,4,1,14,07,01,332,,11,23,316,30,12,68,259,34,19,17,055,21,1*7D
$GBGSV,4,2,14,21,51,245,45,22,70,042,32,34,44,300,40,35,20,161,30,1*71
$GBGSV,4,3,14,36,02,097,25,40,11,330,,42,03,239,,43,03,322,,1*74
$GBGSV,4,4,14,44,59,199,40,46,03,052,,1*7C
$GBGSV,4,1,14,07,01,332,,11,23,316,,12,68,259,,19,17,055,23,5*7F
$GBGSV,4,2,14,21,51,245,30,22,70,042,,34,44,300,44,35,20,161,,5*71
$GBGSV,4,3,14,36,02,097,,40,11,330,,42,03,239,,43,03,322,,5*77
$GBGSV,4,4,14,44,59,199,,46,03,052,,5*7C
$GAGSV,3,1,09,04,06,211,34,07,10,041,,10,31,309,,11,05,308,,7*7B
$GAGSV,3,2,09,12,56,312,43,19,60,183,35,25,01,315,,26,14,126,,7*7B
$GAGSV,3,3,09,33,63,121,35,7*4B
$GAGSV,3,1,09,04,06,211,30,07,10,041,,10,31,309,,11,05,308,,1*79
$GAGSV,3,2,09,12,56,312,41,19,60,183,,25,01,315,,26,14,126,,1*79
$GAGSV,3,3,09,33,63,121,22,1*4B
$GNTXT,01,01,01,0,500482,0000,80A0,80A0,-38.176,0*63
$GNTXT,01,01,02,0,01,10600,00,01,17,01,0001,0000,0.000*50
$SNRSTAT,1,1,0,0*5D
$GYOACC,090624,000656.10,-0.061059,-0.018089,-0.018541,100,-3.342392,-8.026634,4.598253,100,35,0,100,0*24
$GYOACC,090624,000656.20,-0.553684,-0.153044,-0.124968,100,-3.186122,-8.298693,4.233473,100,35,0,100,0*28
$GYOACC,090624,000656.30,-0.216021,-0.066065,-0.031864,100,-3.089542,-8.445494,3.977167,100,35,0,100,0*29
$GYOACC,090624,000656.40,-0.116972,-0.028628,-0.044134,100,-3.072039,-8.478256,3.898583,100,35,0,100,0*2C
$GYOACC,090624,000656.50,-0.253430,-0.064980,-0.072824,100,-3.008415,-8.546618,3.801328,100,35,0,100,0*2E
$GYOACC,090624,000656.60,-0.108003,-0.105786,-0.011817,100,-2.918147,-8.629409,3.598026,100,35,0,100,0*2C
$GYOACC,090624,000656.70,-0.261581,-0.086432,-0.042257,100,-2.781804,-8.762342,3.498214,100,35,0,100,0*24
$GYOACC,090624,000656.80,-0.721336,-0.358793,-0.178877,100,-2.742893,-8.907482,3.078816,100,36,0,100,0*2E
$GYOACC,090624,000656.90,-0.041970,-0.057736,-0.007156,100,-2.506109,-9.142919,2.631997,100,36,0,100,0*2B
$GYOACC,090624,000657.00,0.028716,0.007297,-0.008241,100,-2.550773,-9.018236,2.904808,100,36,0,100,0*2D
$GNRMC,000657.00,A,4404.12991,N,12118.84624,W,0.035,,090624,,,A,V*0C
$GNGGA,000657.00,4404.12991,N,12118.84624,W,1,29,0.62,1109.4,M,,M,,*79
$GNGSA,A,3,08,10,23,27,32,24,28,21,44,48,18,,0.94,0.62,0.71,1*08
$GNGSA,A,3,85,68,69,84,83,,,,,,,,0.94,0.62,0.71,2*06
$GNGSA,A,3,21,34,19,12,44,11,35,36,22,,,,0.94,0.62,0.71,4*07
$GNGSA,A,3,12,33,04,19,,,,,,,,,0.94,0.62,0.71,3*03
$GNGSA,A,3,,,,,,,,,,,,,0.94,0.62,0.71,5*0A
$GPGSV,4,1,13,02,07,310,,08,38,280,47,10,73,012,41,18,16,127,20,1*65
$GPGSV,4,2,13,21,23,309,33,23,43,065,28,24,20,058,28,27,41,232,38,1*6C
$GPGSV,4,3,13,28,01,165,37,32,63,184,47,44,39,173,38,48,39,185,37,1*6C
$GPGSV,4,4,13,51,37,160,,1*51
$GPGSV,4,1,13,02,07,310,,08,38,280,38,10,73,012,33,18,16,127,,8*63
$GPGSV,4,2,13,21,23,309,,23,43,065,31,24,20,058,,27,41,232,26,8*68
$GPGSV,4,3,13,28,01,165,,32,63,184,,44,39,173,,48,39,185,,8*6D
$GPGSV,4,4,13,51,37,160,,8*58
$GLGSV,2,1,08,68,40,036,38,69,78,283,36,70,16,232,,77,05,025,,1*7A
$GLGSV,2,2,08,83,30,149,27,84,80,313,30,85,22,326,42,89,,,42,1*4C
$GBGSV,4,1,14,07,01,332,,11,23,316,30,12,68,259,34,19,17,055,21,1*7D
$GBGSV,4,2,14,21,51,245,45,22,70,042,33,34,44,300,40,35,20,161,30,1*70
$GBGSV,4,3,14,36,02,097,25,40,11,330,,42,03,239,,43,03,322,,1*74
$GBGSV,4,4,14,44,59,199,40,46,03,052,,1*7C
$GBGSV,4,1,14,07,01,332,,11,23,316,,12,68,259,,19,17,055,23,5*7F
$GBGSV,4,2,14,21,51,245,31,22,70,042,,34,44,300,44,35,20,161,,5*70
$GBGSV,4,3,14,36,02,097,,40,11,330,,42,03,239,,43,03,322,,5*77
$GBGSV,4,4,14,44,59,199,,46,03,052,,5*7C
$GAGSV,3,1,09,04,06,211,34,07,10,041,,10,31,309,,11,05,308,,7*7B
$GAGSV,3,2,09,12,56,312,43,19,60,183,35,25,01,315,,26,14,126,,7*7B
$GAGSV,3,3,09,33,63,121,35,7*4B
$GAGSV,3,1,09,04,06,211,30,07,10,041,,10,31,309,,11,05,308,,1*79
$GAGSV,3,2,09,12,56,312,41,19,60,183,,25,01,315,,26,14,126,,1*79
$GAGSV,3,3,09,33,63,121,22,1*4B
$GNTXT,01,01,01,0,500482,0000,80A0,80A0,-38.021,0*60
$GNTXT,01,01,02,0,02,11600,00,01,17,01,0001,0000,0.000*52
$SNRSTAT,1,1,0,0*5D
$GYOACC,090624,000657.10,0.011225,-0.037303,0.006831,100,-2.513604,-9.043287,2.853926,100,36,0,100,0*23
$GYOACC,090624,000657.20,0.407031,-0.012802,0.137779,100,-2.585232,-9.023630,2.918193,100,36,0,100,0*21
$GYOACC,090624,000657.30,-0.196121,-0.039294,-0.074554,100,-2.602286,-8.929563,3.137833,100,36,0,100,0*29
$GYOACC,090624,000657.40,0.045041,-0.000578,0.042684,100,-2.580430,-8.944867,3.054088,100,36,0,100,0*2E
$GYOACC,090624,000657.50,-0.279924,-0.064847,-0.084927,100,-2.525811,-9.053498,2.873179,100,36,0,100,0*26
$GYOACC,090624,000657.60,-0.054507,-0.012809,-0.006184,100,-2.519932,-9.036959,2.857471,100,36,0,100,0*22
$GYOACC,090624,000657.70,-0.223345,-0.051525,-0.062304,100,-2.445073,-9.094629,2.748773,100,36,0,100,0*29
$GYOACC,090624,000657.80,-0.076904,-0.174942,0.005999,100,-2.398219,-9.205032,2.493275,100,36,0,100,0*0B
$GYOACC,090624,000657.90,0.165476,0.033536,0.051193,100,-2.413523,-9.104188,2.640614,100,36,0,100,0*08
$GYOACC,090624,000658.00,-0.128909,-0.024134,-0.060060,100,-2.366981,-9.195958,2.583472,100,35,0,100,0*21
$GNRMC,000658.00,A,4404.12989,N,12118.84624,W,0.085,,090624,,,A,V*01
$GNGGA,000658.00,4404.12989,N,12118.84624,W,1,29,0.60,1109.3,M,,M,,*7A
$GNGSA,A,3,08,10,23,27,32,24,28,21,44,48,18,,0.93,0.60,0.71,1*0D
$GNGSA,A,3,85,68,69,84,83,,,,,,,,0.93,0.60,0.71,2*03
$GNGSA,A,3,21,34,19,12,44,11,35,36,22,,,,0.93,0.60,0.71,4*02
$GNGSA,A,3,12,33,04,19,,,,,,,,,0.93,0.60,0.71,3*06
$GNGSA,A,3,,,,,,,,,,,,,0.93,0.60,0.71,5*0F
$GPGSV,4,1,13,02,07,310,,08,38,280,47,10,73,012,41,18,16,127,20,1*65
$GPGSV,4,2,13,21,23,309,33,23,43,065,28,24,20,058,28,27,41,232,38,1*6C
$GPGSV,4,3,13,28,01,165,37,32,63,184,47,44,39,173,38,48,39,185,37,1*6C
$GPGSV,4,4,13,51,37,160,,1*51
$GPGSV,4,1,13,02,07,310,,08,38,280,37,10,73,012,33,18,16,127,,8*6C
$GPGSV,4,2,13,21,23,309,,23,43,065,31,24,20,058,,27,41,232,27,8*69
$GPGSV,4,3,13,28,01,165,,32,63,184,,44,39,173,,48,39,185,,8*6D
$GPGSV,4,4,13,51,37,160,,8*58
$GLGSV,2,1,08,68,40,036,38,69,78,283,36,70,17,232,,77,05,025,,1*7B
$GLGSV,2,2,08,83,30,149,27,84,80,313,29,85,22,326,42,89,,,42,1*44
$GBGSV,4,1,14,07,01,332,,11,23,316,30,12,68,259,34,19,16,055,21,1*7C
$GBGSV,4,2,14,21,51,245,45,22,70,042,33,34,44,300,40,35,20,161,30,1*70
$GBGSV,4,3,14,36,02,097,25,40,11,330,,42,03,239,,43,03,322,,1*74
$GBGSV,4,4,14,44,59,199,40,46,03,052,,1*7C
$GBGSV,4,1,14,07,01,332,,11,23,316,,12,68,259,,19,16,055,23,5*7E
$GBGSV,4,2,14,21,51,245,30,22,70,042,,34,44,300,44,35,20,161,,5*71
$GBGSV,4,3,14,36,02,097,,40,11,330,,42,03,239,,43,03,322,,5*77
$GBGSV,4,4,14,44,59,199,,46,03,052,,5*7C
$GAGSV,3,1,09,04,06,211,33,07,10,041,,10,31,309,,11,05,308,,7*7C
$GAGSV,3,2,09,12,56,312,43,19,60,183,34,25,01,315,,26,14,126,,7*7A
$GAGSV,3,3,09,33,63,121,35,7*4B
$GAGSV,3,1,09,04,06,211,30,07,10,041,,10,31,309,,11,05,308,,1*79
$GAGSV,3,2,09,12,56,312,41,19,60,183,,25,01,315,,26,14,126,,1*79
$GAGSV,3,3,09,33,63,121,22,1*4B
$GNTXT,01,01,01,0,500482,0000,80A0,80A0,-37.879,0*6A
$GNTXT,01,01,02,0,02,12600,00,01,17,01,0001,0000,0.000*51
$SNRSTAT,1,1,0,0*5D
$GYOACC,090624,000658.10,0.131687,0.033436,0.033050,100,-2.399970,-9.118685,2.660451,100,35,0,100,0*03
$GYOACC,090624,000658.20,-0.041032,-0.010052,-0.010259,100,-2.374792,-9.161275,2.625445,100,35,0,100,0*2E
$GYOACC,090624,000658.30,-0.627107,-0.251002,-0.133823,100,-2.413837,-9.152793,2.632715,100,35,0,100,0*20
$GYOACC,090624,000658.40,0.317742,-0.208078,0.174317,100,-2.179881,-9.317725,2.079801,100,35,0,100,0*21
$GYOACC,090624,000658.50,0.240197,0.039275,0.074309,100,-2.345524,-9.192710,2.522479,100,35,0,100,0*0F
$GYOACC,090624,000658.60,0.063470,0.020666,0.001139,100,-2.398803,-9.125506,2.696623,100,35,0,100,0*0E
$GYOACC,090624,000658.70,-0.110587,-0.032736,-0.025539,100,-2.366086,-9.153197,2.627734,100,35,0,100,0*2F
$GYOACC,090624,000658.80,0.015420,-0.000745,0.013256,100,-2.400194,-9.115857,2.656052,100,35,0,100,0*25
$GYOACC,090624,000658.90,-0.376610,-0.142685,-0.075553,100,-2.357828,-9.210508,2.566832,100,35,0,100,0*2F
$GYOACC,090624,000659.00,0.246156,-0.043475,0.080601,100,-2.256150,-9.248531,2.321376,100,35,0,100,0*2C
$GNRMC,000659.00,A,4404.12990,N,12118.84623,W,0.043,,090624,,,A,V*05
$GNGGA,000659.00,4404.12990,N,12118.84623,W,1,29,0.62,1109.3,M,,M,,*76
$GNGSA,A,3,08,10,23,27,32,24,28,21,44,48,18,,0.94,0.62,0.71,1*08
$GNGSA,A,3,85,68,69,84,83,,,,,,,,0.94,0.62,0.71,2*06
$GNGSA,A,3,21,34,19,12,44,11,35,36,22,,,,0.94,0.62,0.71,4*07
$GNGSA,A,3,12,33,04,19,,,,,,,,,0.94,0.62,0.71,3*03
$GNGSA,A,3,,,,,,,,,,,,,0.94,0.62,0.71,5*0A
$GPGSV,4,1,13,02,07,310,,08,38,280,47,10,73,012,41,18,16,127,20,1*65
$GPGSV,4,2,13,21,23,309,33,23,43,065,28,24,20,058,28,27,41,232,38,1*6C
$GPGSV,4,3,13,28,01,165,37,32,63,184,47,44,39,173,38,48,39,185,37,1*6C
$GPGSV,4,4,13,51,37,160,,1*51
$GPGSV,4,1,13,02,07,310,,08,38,280,37,10,73,012,33,18,16,127,,8*6C
$GPGSV,4,2,13,21,23,309,,23,43,065,31,24,20,058,,27,41,232,27,8*69
$GPGSV,4,3,13,28,01,165,,32,63,184,,44,39,173,,48,39,185,,8*6D
$GPGSV,4,4,13,51,37,160,,8*58
$GLGSV,2,1,08,68,40,036,38,69,78,283,36,70,17,232,,77,05,025,,1*7B
$GLGSV,2,2,08,83,30,149,27,84,80,313,29,85,22,326,42,89,,,42,1*44
$GBGSV,4,1,14,07,01,332,,11,23,316,30,12,68,259,34,19,16,055,21,1*7C
$GBGSV,4,2,14,21,51,245,45,22,70,042,33,34,44,300,40,35,20,161,30,1*70
$GBGSV,4,3,14,36,02,097,25,40,11,330,,42,03,239,,43,03,322,,1*74
$GBGSV,4,4,14,44,59,199,40,46,03,052,,1*7C
$GBGSV,4,1,14,07,01,332,,11,23,316,,12,68,259,,19,16,055,23,5*7E
$GBGSV,4,2,14,21,51,245,30,22,70,042,,34,44,300,45,35,20,161,,5*70
$GBGSV,4,3,14,36,02,097,,40,11,330,,42,03,239,,43,03,322,,5*77
$GBGSV,4,4,14,44,59,199,,46,03,052,,5*7C
$GAGSV,3,1,09,04,06,211,33,07,10,041,,10,31,309,,11,05,308,,7*7C
$GAGSV,3,2,09,12,56,312,43,19,60,183,34,25,01,315,,26,14,126,,7*7A
$GAGSV,3,3,09,33,63,121,35,7*4B
$GAGSV,3,1,09,04,06,211,30,07,10,041,,10,31,309,,11,05,308,,1*79
$GAGSV,3,2,09,12,56,312,41,19,60,183,,25,01,315,,26,14,126,,1*79
$GAGSV,3,3,09,33,63,121,22,1*4B
$GNTXT,01,01,01,0,500482,0000,80A0,80A0,-37.833,0*64
$GNTXT,01,01,02,0,02,13600,00,01,17,01,0001,0000,0.000*50
$SNRSTAT,1,1,0,0*5D
$GYOACC,090624,000659.10,0.142652,0.026818,0.044255,100,-2.357783,-9.162083,2.584919,100,35,0,100,0*08
$GYOACC,090624,000659.20,0.051298,0.022466,-0.012002,100,-2.333728,-9.203910,2.605159,100,35,0,100,0*27
$GYOACC,090624,000659.30,0.060454,0.007876,0.026412,100,-2.419582,-9.072414,2.807790,100,35,0,100,0*08
$GYOACC,090624,000659.40,-0.039727,-0.014866,0.002297,100,-2.418774,-9.069945,2.806982,100,35,0,100,0*0F
$GYOACC,090624,000659.50,-0.402096,-0.129109,-0.081026,100,-2.314836,-9.191812,2.531668,100,35,0,100,0*2B
$GYOACC,090624,000659.60,0.245450,-0.028934,0.083424,100,-2.272467,-9.285142,2.304063,100,35,0,100,0*2F
$GYOACC,090624,000659.70,0.071366,0.020580,0.005406,100,-2.323136,-9.166346,2.574417,100,35,0,100,0*0B
$GYOACC,090624,000659.80,0.102259,0.029621,0.010679,100,-2.337857,-9.156742,2.639986,100,35,0,100,0*04
$GYOACC,090624,000659.90,0.015979,0.000373,0.007477,100,-2.373446,-9.103695,2.759544,100,35,0,100,0*0A
$GYOACC,090624,000700.00,-0.228132,-0.056445,-0.048821,100,-2.337275,-9.141163,2.655877,100,35,0,100,0*23
$GNRMC,000700.00,A,4404.12988,N,12118.84624,W,0.042,,090624,,,A,V*07
$GNGGA,000700.00,4404.12988,N,12118.84624,W,1,29,0.64,1109.4,M,,M,,*74
$GNGSA,A,3,08,10,23,27,32,24,28,21,44,48,18,,1.04,0.64,0.82,1*0A
$GNGSA,A,3,85,68,69,84,83,,,,,,,,1.04,0.64,0.82,2*04
$GNGSA,A,3,21,34,19,12,44,11,35,36,22,,,,1.04,0.64,0.82,4*05
$GNGSA,A,3,12,33,04,19,,,,,,,,,1.04,0.64,0.82,3*01
$GNGSA,A,3,,,,,,,,,,,,,1.04,0.64,0.82,5*08
$GPGSV,4,1,13,02,07,310,,08,38,280,47,10,73,012,41,18,16,127,20,1*65
$GPGSV,4,2,13,21,23,309,33,23,43,065,28,24,20,058,27,27,41,232,38,1*63
$GPGSV,4,3,13,28,01,165,37,32,63,184,46,44,39,173,38,48,39,185,37,1*6D
$GPGSV,4,4,13,51,37,160,,1*51
$GPGSV,4,1,13,02,07,310,,08,38,280,37,10,73,012,33,18,16,127,,8*6C
$GPGSV,4,2,13,21,23,309,,23,43,065,31,24,20,058,,27,41,232,27,8*69
$GPGSV,4,3,13,28,01,165,,32,63,184,,44,39,173,,48,39,185,,8*6D
$GPGSV,4,4,13,51,37,160,,8*58
$GLGSV,2,1,08,68,40,036,38,69,78,283,36,70,17,232,,77,05,025,,1*7B
$GLGSV,2,2,08,83,30,149,27,84,80,313,29,85,22,326,42,89,,,42,1*44
$GBGSV,4,1,14,07,01,332,,11,23,316,30,12,68,259,34,19,16,055,22,1*7F
$GBGSV,4,2,14,21,51,245,46,22,70,042,33,34,44,300,40,35,20,161,30,1*73
$GBGSV,4,3,14,36,02,097,25,40,11,330,,42,03,239,,43,03,322,,1*74
$GBGSV,4,4,14,44,59,199,40,46,03,052,,1*7C
$GBGSV,4,1,14,07,01,332,,11,23,316,,12,68,259,,19,16,055,22,5*7F
$GBGSV,4,2,14,21,51,245,30,22,70,042,,34,44,300,45,35,20,161,,5*70
$GBGSV,4,3,14,36,02,097,,40,11,330,,42,03,239,,43,03,322,,5*77
$GBGSV,4,4,14,44,59,199,,46,03,052,,5*7C
$GAGSV,3,1,09,04,06,211,29,07,10,041,,10,31,309,,11,05,308,,7*77
$GAGSV,3,2,09,12,56,312,43,19,60,183,34,25,01,315,,26,14,126,,7*7A
$GAGSV,3,3,09,33,63,121,35,7*4B
$GAGSV,3,1,09,04,06,211,30,07,10,041,,10,31,309,,11,05,308,,1*79
$GAGSV,3,2,09,12,56,312,41,19,60,183,,25,01,315,,26,14,126,,1*79
$GAGSV,3,3,09,33,63,121,22,1*4B
$GNTXT,01,01,01,0,500482,0000,80A0,80A0,-37.936,0*60
$GNTXT,01,01,02,0,01,14600,00,01,17,01,0001,0000,0.000*54
$SNRSTAT,1,1,0,0*5D
$GYOACC,090624,000700.10,-0.229137,-0.122238,-0.032110,100,-2.291272,-9.222042,2.488518,100,35,0,100,0*26
$GYOACC,090624,000700.20,0.373069,-0.002369,0.116766,100,-2.218432,-9.280071,2.305859,100,35,0,100,0*26
$GYOACC,090624,000700.30,-0.018202,0.000613,-0.015672,100,-2.343377,-9.125596,2.662201,100,35,0,100,0*0D
$GYOACC,090624,000700.40,0.301883,0.076553,0.055840,100,-2.321431,-9.170430,2.696893,100,35,0,100,0*09
$GYOACC,090624,000700.50,0.263127,0.060600,0.059289,100,-2.445969,-8.999387,3.058125,100,35,0,100,0*0A
$GYOACC,090624,000700.60,0.304093,0.062691,0.086027,100,-2.504494,-8.912912,3.254564,100,35,0,100,0*08
$GYOACC,090624,000700.70,0.123784,0.021771,0.039401,100,-2.562882,-8.866687,3.385432,100,35,0,100,0*06
$GYOACC,090624,000700.80,0.314746,0.058510,0.104915,100,-2.667182,-8.726753,3.635321,100,35,0,100,0*0A
$GYOACC,090624,000700.90,0.267162,0.055001,0.074535,100,-2.727634,-8.662485,3.776018,100,35,0,100,0*07
$GYOACC,090624,000701.00,0.205949,0.039148,0.060420,100,-2.828897,-8.499302,4.044317,100,35,0,100,0*08
$GNRMC,000701.00,A,4404.12989,N,12118.84621,W,0.136,,090624,,,A,V*00
$GNGGA,000701.00,4404.12989,N,12118.84621,W,1,29,0.70,1109.5,M,,M,,*75
$GNGSA,A,3,08,10,23,27,32,24,28,21,44,48,18,,1.13,0.70,0.89,1*02
$GNGSA,A,3,85,68,69,84,83,,,,,,,,1.13,0.70,0.89,2*0C
$GNGSA,A,3,21,34,19,12,44,11,35,36,22,,,,1.13,0.70,0.89,4*0D
$GNGSA,A,3,12,33,04,19,,,,,,,,,1.13,0.70,0.89,3*09
$GNGSA,A,3,,,,,,,,,,,,,1.13,0.70,0.89,5*00
$GPGSV,4,1,13,02,07,310,,08,38,280,44,10,73,012,15,18,16,127,20,1*67
$GPGSV,4,2,13,21,23,309,15,23,43,065,17,24,20,058,17,27,41,232,34,1*64
$GPGSV,4,3,13,28,01,165,34,32,63,184,15,44,39,173,18,48,39,185,34,1*69
$GPGSV,4,4,13,51,37,160,,1*51
$GPGSV,4,1,13,02,07,310,,08,38,280,26,10,73,012,26,18,16,127,,8*68
$GPGSV,4,2,13,21,23,309,,23,43,065,15,24,20,058,,27,41,232,27,8*6F
$GPGSV,4,3,13,28,01,165,,32,63,184,,44,39,173,,48,39,185,,8*6D
$GPGSV,4,4,13,51,37,160,,8*58
$GLGSV,2,1,08,68,40,036,16,69,78,283,15,70,17,232,,77,05,025,,1*76
$GLGSV,2,2,08,83,30,149,08,84,80,313,15,85,22,326,39,89,,,27,1*49
$GBGSV,4,1,14,07,01,332,,11,23,316,16,12,68,259,18,19,16,055,21,1*76
$GBGSV,4,2,14,21,51,245,42,22,70,042,30,34,44,300,37,35,20,161,17,1*71
$GBGSV,4,3,14,36,02,097,16,40,11,330,,42,03,239,,43,03,322,,1*74
$GBGSV,4,4,14,44,59,199,25,46,03,052,,1*7F
$GBGSV,4,1,14,07,01,332,,11,23,316,,12,68,259,,19,16,055,16,5*78
$GBGSV,4,2,14,21,51,245,24,22,70,042,,34,44,300,42,35,20,161,,5*72
$GBGSV,4,3,14,36,02,097,,40,11,330,,42,03,239,,43,03,322,,5*77
$GBGSV,4,4,14,44,59,199,,46,03,052,,5*7C
$GAGSV,3,1,09,04,06,211,17,07,10,041,,10,31,309,,11,05,308,,7*7A
$GAGSV,3,2,09,12,56,312,39,19,60,183,31,25,01,315,,26,14,126,,7*72
$GAGSV,3,3,09,33,63,121,32,7*4C
$GAGSV,3,1,09,04,06,211,21,07,10,041,,10,31,309,,11,05,308,,1*79
$GAGSV,3,2,09,12,56,312,22,19,60,183,,25,01,315,,26,14,126,,1*7C
$GAGSV,3,3,09,33,63,121,13,1*49
$GNTXT,01,01,01,0,500482,0000,80A0,80A0,-37.817,0*62
$GNTXT,01,01,02,0,02,15600,00,01,17,01,0001,0000,0.000*56
$SNRSTAT,1,1,0,0*5D
$GYOACC,090624,000701.10,0.102585,0.021831,0.031166,100,-2.859580,-8.442352,4.138105,100,35,0,100,0*09
$GYOACC,090624,000701.20,0.047864,0.008848,0.016232,100,-2.888033,-8.414078,4.183971,100,35,0,100,0*08
$GYOACC,090624,000701.30,0.060680,0.013828,0.017470,100,-2.914153,-8.358158,4.253983,100,35,0,100,0*09
$GYOACC,090624,000701.40,-0.089874,-0.025971,-0.014327,100,-2.873672,-8.455726,4.154351,100,35,0,100,0*2F
$GYOACC,090624,000701.50,-0.131220,-0.034687,-0.026384,100,-2.859928,-8.468228,4.089582,100,35,0,100,0*2D
$GYOACC,090624,000701.60,-0.109462,-0.030486,-0.017070,100,-2.822554,-8.523673,3.992202,100,35,0,100,0*2C
$GYOACC,090624,000701.70,0.070927,0.017024,0.016625,100,-2.806308,-8.551992,3.957779,100,35,0,100,0*01
$GYOACC,090624,000701.80,-0.036418,-0.007582,-0.015186,100,-2.823541,-8.516268,4.007236,100,35,0,100,0*21
$GYOACC,090624,000701.90,0.017596,0.003849,-0.001679,100,-2.790286,-8.554461,3.970121,100,35,0,100,0*21
$GYOACC,090624,000702.00,0.012084,-0.002755,0.012317,100,-2.811800,-8.533154,3.985632,100,35,0,100,0*2B
$GNRMC,000702.00,A,4404.12985,N,12118.84631,W,0.423,,090624,,,A,V*0F
$GNGGA,000702.00,4404.12985,N,12118.84631,W,1,28,0.83,1109.5,M,,M,,*76
$GNGSA,A,3,08,10,23,32,24,27,28,21,48,18,,,1.29,0.83,1.00,1*07
$GNGSA,A,3,85,68,69,84,83,,,,,,,,1.29,0.83,1.00,2*09
$GNGSA,A,3,21,34,19,12,44,11,35,36,22,,,,1.29,0.83,1.00,4*08
$GNGSA,A,3,12,33,19,04,,,,,,,,,1.29,0.83,1.00,3*0C
$GNGSA,A,3,,,,,,,,,,,,,1.29,0.83,1.00,5*05
$GPGSV,4,1,13,02,07,310,,08,38,280,38,10,73,012,16,18,16,127,17,1*6B
$GPGSV,4,2,13,21,23,309,15,23,43,065,17,24,20,058,17,27,41,232,26,1*67
$GPGSV,4,3,13,28,01,165,25,32,63,184,15,44,39,173,,48,39,185,25,1*60
$GPGSV,4,4,13,51,37,160,,1*51
$GPGSV,4,1,13,02,07,310,,08,38,280,13,10,73,012,17,18,16,127,,8*6C
$GPGSV,4,2,13,21,23,309,,23,43,065,13,24,20,058,,27,41,232,,8*6C
$GPGSV,4,3,13,28,01,165,,32,63,184,,44,39,173,,48,39,185,,8*6D
$GPGSV,4,4,13,51,37,160,,8*58
$GLGSV,2,1,08,68,40,036,16,69,78,283,14,70,17,232,,77,05,025,,1*77
$GLGSV,2,2,08,83,30,149,07,84,80,313,15,85,22,326,30,89,,,19,1*42
$GBGSV,4,1,14,07,01,332,,11,23,316,16,12,68,259,18,19,16,055,,1*75
$GBGSV,4,2,14,21,51,245,15,22,70,042,17,34,44,300,16,35,20,161,17,1*75
$GBGSV,4,3,14,36,02,097,16,40,11,330,,42,03,239,,43,03,322,,1*74
$GBGSV,4,4,14,44,59,199,18,46,03,052,,1*71
$GBGSV,4,1,14,07,01,332,,11,23,316,,12,68,259,,19,16,055,15,5*7B
$GBGSV,4,2,14,21,51,245,14,22,70,042,,34,44,300,16,35,20,161,,5*70
$GBGSV,4,3,14,36,02,097,,40,11,330,,42,03,239,,43,03,322,,5*77
$GBGSV,4,4,14,44,59,199,,46,03,052,,5*7C
$GAGSV,3,1,09,04,06,211,16,07,10,041,,10,31,309,,11,05,308,,7*7B
$GAGSV,3,2,09,12,56,312,12,19,60,183,13,25,01,315,,26,14,126,,7*7B
$GAGSV,3,3,09,33,63,121,13,7*4F
$GAGSV,3,1,09,04,06,211,,07,10,041,,10,31,309,,11,05,308,,1*7A
$GAGSV,3,2,09,12,56,312,19,19,60,183,,25,01,315,,26,14,126,,1*74
$GAGSV,3,3,09,33,63,121,12,1*48
$GNTXT,01,01,01,0,500482,0000,80A0,80A0,-37.787,0*64
$GNTXT,01,01,02,0,01,16600,00,01,17,01,0001,0000,0.000*56
$SNRSTAT,1,1,0,0*5D
$GYOACC,090624,000702.10,-0.045992,-0.017416,0.002503,100,-2.810122,-8.531842,3.979905,100,35,0,100,0*05
$GYOACC,090624,000702.20,-0.018002,-0.008468,0.002963,100,-2.795133,-8.560160,3.933589,100,35,0,100,0*0A
$GYOACC,090624,000702.30,-0.030033,-0.012203,-0.000592,100,-2.807160,-8.575689,3.917567,100,35,0,100,0*2E
$GYOACC,090624,000702.40,0.001618,-0.003528,0.008456,100,-2.797556,-8.568463,3.917612,100,35,0,100,0*27
$GYOACC,090624,000702.50,-0.012842,-0.005232,-0.001271,100,-2.785618,-8.584081,3.887139,100,35,0,100,0*23
$GYOACC,090624,000702.60,0.048829,0.009215,0.012983,100,-2.803636,-8.565253,3.931820,100,35,0,100,0*00
$GYOACC,090624,000702.70,-0.014640,-0.007110,0.000999,100,-2.800428,-8.563975,3.919542,100,35,0,100,0*0D
$GYOACC,090624,000702.80,-0.007190,-0.004886,0.000939,100,-2.794953,-8.584530,3.911239,100,35,0,100,0*01
$GYOACC,090624,000702.90,0.014714,-0.000099,0.006831,100,-2.800069,-8.563437,3.911688,100,35,0,100,0*2B
$GYOACC,090624,000703.00,-0.001304,0.002650,-0.008401,100,-2.785304,-8.592608,3.885703,100,35,0,100,0*0B
$GNRMC,000703.00,A,4404.12988,N,12118.84648,W,1.073,,090624,,,A,V*0D
$GNGGA,000703.00,4404.12988,N,12118.84648,W,1,16,1.99,1109.7,M,,M,,*71
$GNGSA,A,3,08,10,32,23,24,27,28,,,,,,3.68,1.99,3.09,1*07
$GNGSA,A,3,85,,,,,,,,,,,,3.68,1.99,3.09,2*09
$GNGSA,A,3,21,12,34,44,35,36,,,,,,,3.68,1.99,3.09,4*06
$GNGSA,A,3,33,19,,,,,,,,,,,3.68,1.99,3.09,3*0D
$GNGSA,A,3,,,,,,,,,,,,,3.68,1.99,3.09,5*03
$GPGSV,4,1,13,02,07,310,,08,38,280,29,10,73,012,11,18,16,127,,1*6A
$GPGSV,4,2,13,21,23,309,,23,43,065,11,24,20,058,10,27,41,232,20,1*64
$GPGSV,4,3,13,28,01,165,18,32,63,184,13,44,39,173,,48,39,185,,1*6F
$GPGSV,4,4,13,51,37,160,,1*51
$GPGSV,4,1,13,02,07,310,,08,38,280,07,10,73,012,08,18,16,127,,8*67
$GPGSV,4,2,13,21,23,309,,23,43,065,,24,20,058,,27,41,232,,8*6E
$GPGSV,4,3,13,28,01,165,,32,63,184,,44,39,173,,48,39,185,,8*6D
$GPGSV,4,4,13,51,37,160,,8*58
$GLGSV,2,1,07,68,40,036,,69,78,283,,70,17,232,,77,05,025,,1*7A
$GLGSV,2,2,07,83,30,149,,84,80,313,,85,22,326,17,1*42
$GBGSV,4,1,14,07,01,332,,11,23,316,,12,68,259,12,19,16,055,,1*78
$GBGSV,4,2,14,21,51,245,15,22,70,042,,34,44,300,14,35,20,161,11,1*77
$GBGSV,4,3,14,36,02,097,16,40,11,330,,42,03,239,,43,03,322,,1*74
$GBGSV,4,4,14,44,59,199,13,46,03,052,,1*7A
$GBGSV,4,1,14,07,01,332,,11,23,316,,12,68,259,,19,16,055,,5*7F
$GBGSV,4,2,14,21,51,245,06,22,70,042,,34,44,300,,35,20,161,,5*74
$GBGSV,4,3,14,36,02,097,,40,11,330,,42,03,239,,43,03,322,,5*77
$GBGSV,4,4,14,44,59,199,,46,03,052,,5*7C
$GAGSV,3,1,09,04,06,211,,07,10,041,,10,31,309,,11,05,308,,7*7C
$GAGSV,3,2,09,12,56,312,,19,60,183,13,25,01,315,,26,14,126,,7*78
$GAGSV,3,3,09,33,63,121,,7*4D
$GAGSV,3,1,09,04,06,211,,07,10,041,,10,31,309,,11,05,308,,1*7A
$GAGSV,3,2,09,12,56,312,,19,60,183,,25,01,315,,26,14,126,,1*7C
$GAGSV,3,3,09,33,63,121,12,1*48
$GNTXT,01,01,01,0,500482,0000,80A0,80A0,-37.762,0*6F
$GNTXT,01,01,02,0,01,17600,00,01,17,01,0001,0000,0.000*57
$SNRSTAT,1,1,0,0*5D
$GYOACC,090624,000703.10,0.056546,0.011591,0.010886,100,-2.798935,-8.560637,3.943617,100,36,0,100,0*07
$GYOACC,090624,000703.20,-0.015439,-0.008554,0.009288,100,-2.799666,-8.546741,3.943463,100,36,0,100,0*0A
$GYOACC,090624,000703.30,0.002896,-0.000525,0.003256,100,-2.804109,-8.557737,3.925062,100,36,0,100,0*2F
$GYOACC,090624,000703.40,-0.011504,-0.004220,-0.004074,100,-2.797915,-8.568822,3.923985,100,36,0,100,0*2E
$GYOACC,090624,000703.50,0.014727,0.001824,0.003682,100,-2.789119,-8.566040,3.908143,100,36,0,100,0*05
$GYOACC,090624,000703.60,-0.003461,-0.005312,0.008948,100,-2.795857,-8.560722,3.931563,100,36,0,100,0*0E
$GYOACC,090624,000703.70,-0.024620,-0.007256,-0.001284,100,-2.788042,-8.575823,3.901411,100,36,0,100,0*2C
$GYOACC,090624,000703.80,0.011531,0.001771,-0.001657,100,-2.779604,-8.584036,3.887543,100,36,0,100,0*2B
$GYOACC,090624,000703.90,-0.005738,-0.005379,0.008276,100,-2.781220,-8.574567,3.906976,100,36,0,100,0*06
$GYOACC,090624,000704.00,-0.013901,-0.008441,0.010653,100,-2.794370,-8.578875,3.886062,100,36,0,100,0*07
$GNRMC,000704.00,A,4404.12944,N,12118.84632,W,2.384,,090624,,,A,V*0F
$GNGGA,000704.00,4404.12944,N,12118.84632,W,1,12,2.92,1109.7,M,,M,,*77
$GNGSA,A,3,08,10,32,23,24,27,28,,,,,,4.89,2.92,3.92,1*05
$GNGSA,A,3,85,,,,,,,,,,,,4.89,2.92,3.92,2*0B
$GNGSA,A,3,12,21,44,35,,,,,,,,,4.89,2.92,3.92,4*06
$GNGSA,A,3,,,,,,,,,,,,,4.89,2.92,3.92,3*07
$GNGSA,A,3,,,,,,,,,,,,,4.89,2.92,3.92,5*01
$GPGSV,4,1,13,02,07,310,,08,38,280,19,10,73,012,11,18,16,127,,1*69
$GPGSV,4,2,13,21,23,309,,23,43,065,11,24,20,058,10,27,41,232,13,1*64
$GPGSV,4,3,13,28,01,165,07,32,63,184,13,44,39,173,,48,39,185,,1*61
$GPGSV,4,4,13,51,37,160,,1*51
$GPGSV,4,1,13,02,07,310,,08,38,280,,10,73,012,,18,16,127,,8*68
$GPGSV,4,2,13,21,23,309,,23,43,065,,24,20,058,,27,41,232,,8*6E
$GPGSV,4,3,13,28,01,165,,32,63,184,,44,39,173,,48,39,185,,8*6D
$GPGSV,4,4,13,51,37,160,,8*58
$GLGSV,2,1,07,68,40,036,,69,78,283,,70,17,232,,77,05,025,,1*7A
$GLGSV,2,2,07,83,30,149,,84,80,313,,85,22,326,17,1*42
$GBGSV,4,1,14,07,01,332,,11,23,316,,12,68,259,12,19,16,055,,1*78
$GBGSV,4,2,14,21,51,245,14,22,70,042,,34,44,300,,35,20,161,11,1*73
$GBGSV,4,3,14,36,02,097,,40,11,330,,42,03,239,,43,03,322,,1*73
$GBGSV,4,4,14,44,59,199,13,46,03,052,,1*7A
$GBGSV,4,1,14,07,01,332,,11,23,316,,12,68,259,,19,16,055,,5*7F
$GBGSV,4,2,14,21,51,245,,22,70,042,,34,44,300,,35,20,161,,5*72
$GBGSV,4,3,14,36,02,097,,40,11,330,,42,03,239,,43,03,322,,5*77
$GBGSV,4,4,14,44,59,199,,46,03,052,,5*7C
$GAGSV,3,1,09,04,06,211,,07,10,041,,10,31,309,,11,05,308,,7*7C
$GAGSV,3,2,09,12,56,312,,19,60,183,,25,01,315,,26,14,126,,7*7A
$GAGSV,3,3,09,33,63,121,,7*4D
$GAGSV,3,1,09,04,06,211,,07,10,041,,10,31,309,,11,05,308,,1*7A
$GAGSV,3,2,09,12,56,312,,19,60,183,,25,01,315,,26,14,126,,1*7C
$GAGSV,3,3,09,33,63,121,,1*4B
$GNTXT,01,01,01,0,500482,0000,80A0,80A0,-37.340,0*6B
$GNTXT,01,01,02,0,01,18600,00,01,17,01,0001,0000,0.000*58
$SNRSTAT,1,1,0,0*5D
$GYOACC,090624,000704.10,0.036479,0.008143,0.004428,100,-2.791797,-8.585727,3.880401,100,36,0,100,0*0A
$GYOACC,090624,000704.20,0.044215,0.007743,0.013569,100,-2.797197,-8.561148,3.922145,100,36,0,100,0*02
$GYOACC,090624,000704.30,-0.013048,-0.005958,0.002896,100,-2.810975,-8.557827,3.933141,100,36,0,100,0*05
$GYOACC,090624,000704.40,0.000939,-0.002229,0.004141,100,-2.792709,-8.583228,3.905181,100,35,0,100,0*2B
$GYOACC,090624,000704.50,0.027018,0.004160,0.004527,100,-2.799980,-8.555448,3.938167,100,35,0,100,0*0D
$GYOACC,090624,000704.60,0.005999,-0.003255,0.010340,100,-2.809577,-8.558158,3.933017,100,35,0,100,0*25
$GYOACC,090624,000704.70,0.035553,0.004354,0.011232,100,-2.810616,-8.550063,3.948893,100,35,0,100,0*07
$GYOACC,090624,000704.80,0.020180,0.001698,0.007610,100,-2.816765,-8.536958,3.972006,100,35,0,100,0*0A
$GYOACC,090624,000704.90,-0.014207,-0.006317,0.004121,100,-2.819547,-8.548043,3.949701,100,35,0,100,0*0C
$GYOACC,090624,000705.00,-0.009440,-0.005072,-0.002156,100,-2.818246,-8.545440,3.955939,100,35,0,100,0*20
$GNRMC,000705.00,A,4404.12938,N,12118.84590,W,2.430,,090624,,,A,V*06
$GNGGA,000705.00,4404.12938,N,12118.84590,W,1,07,10.16,1108.8,M,,M,,*43
$GNGSA,A,3,08,10,32,27,,,,,,,,,11.97,10.16,6.34,1*05
$GNGSA,A,3,,,,,,,,,,,,,11.97,10.16,6.34,2*0B
$GNGSA,A,3,21,44,35,,,,,,,,,,11.97,10.16,6.34,4*08
$GNGSA,A,3,,,,,,,,,,,,,11.97,10.16,6.34,3*0A
$GNGSA,A,3,,,,,,,,,,,,,11.97,10.16,6.34,5*0C
$GPGSV,4,1,13,02,07,310,,08,38,280,19,10,73,012,11,18,16,127,,1*69
$GPGSV,4,2,13,21,23,309,,23,43,065,,24,20,058,,27,41,232,12,1*64
$GPGSV,4,3,13,28,01,165,,32,63,184,13,44,39,173,,48,39,185,,1*66
$GPGSV,4,4,13,51,37,160,,1*51
$GPGSV,4,1,13,02,07,310,,08,38,280,,10,73,012,,18,16,127,,8*68
$GPGSV,4,2,13,21,23,309,,23,43,065,,24,20,058,,27,41,232,,8*6E
$GPGSV,4,3,13,28,01,165,,32,63,184,,44,39,173,,48,39,185,,8*6D
$GPGSV,4,4,13,51,37,160,,8*58
$GLGSV,2,1,07,68,40,036,,69,78,283,,70,17,232,,77,05,025,,1*7A
$GLGSV,2,2,07,83,30,149,,84,80,313,,85,22,326,,1*44
$GBGSV,4,1,14,07,01,332,,11,23,316,,12,68,259,,19,16,055,,1*7B
$GBGSV,4,2,14,21,51,245,13,22,70,042,,34,44,300,,35,20,161,10,1*75
$GBGSV,4,3,14,36,02,097,,40,11,330,,42,03,239,,43,03,322,,1*73
$GBGSV,4,4,14,44,59,199,13,46,03,052,,1*7A
$GBGSV,4,1,14,07,01,332,,11,23,316,,12,68,259,,19,16,055,,5*7F
$GBGSV,4,2,14,21,51,245,,22,70,042,,34,44,300,,35,20,161,,5*72
$GBGSV,4,3,14,36,02,097,,40,11,330,,42,03,239,,43,03,322,,5*77
$GBGSV,4,4,14,44,59,199,,46,03,052,,5*7C
$GAGSV,3,1,09,04,06,211,,07,10,041,,10,31,309,,11,05,308,,7*7C
$GAGSV,3,2,09,12,56,312,,19,60,183,,25,01,315,,26,14,126,,7*7A
$GAGSV,3,3,09,33,63,121,,7*4D
$GAGSV,3,1,09,04,06,211,,07,10,041,,10,31,309,,11,05,308,,1*7A
$GAGSV,3,2,09,12,56,312,,19,60,183,,25,01,315,,26,14,126,,1*7C
$GAGSV,3,3,09,33,63,121,,1*4B
$GNTXT,01,01,01,0,500482,0000,80A0,80A0,-37.124,0*6B
$GNTXT,01,01,02,0,01,19600,00,01,17,01,0001,0000,0.000*59
$SNRSTAT,1,1,0,0*5D
$GYOACC,090624,000705.10,0.016572,0.002137,0.001944,100,-2.812815,-8.547729,3.947412,100,35,0,100,0*02
$GYOACC,090624,000705.20,0.004521,-0.000918,-0.000279,100,-2.810774,-8.558372,3.949301,100,35,0,100,0*02
$GYOACC,090624,000705.30,0.011938,0.000493,0.004461,100,-2.806173,-8.549793,3.955176,100,35,0,100,0*04
$GYOACC,090624,000705.40,0.003835,-0.000152,0.001072,100,-2.810122,-8.546786,3.965858,100,35,0,100,0*24
$GYOACC,090624,000705.50,0.000107,-0.001590,0.001784,100,-2.811244,-8.549434,3.953965,100,35,0,100,0*26
$GYOACC,090624,000705.60,0.026279,0.004228,0.006412,100,-2.805096,-8.543600,3.957016,100,35,0,100,0*02
$GYOACC,090624,000705.70,0.009814,-0.000638,0.003369,100,-2.811672,-8.542557,3.969775,100,35,0,100,0*2B
$GYOACC,090624,000705.80,0.040706,0.006718,0.010000,100,-2.821477,-8.526411,4.000684,100,35,0,100,0*08
$GYOACC,090624,000705.90,0.010906,-0.000765,0.006958,100,-2.828523,-8.529687,4.007910,100,35,0,100,0*2E
$GYOACC,090624,000706.00,0.025207,0.003349,0.005519,100,-2.825920,-8.516403,4.017379,100,35,0,100,0*02
$GNRMC,000706.00,V,4404.12938,N,12118.84590,W,,,090624,,,N,V*36
$GNGGA,000706.00,4404.12938,N,12118.84590,W,0,00,99.99,1108.8,M,,M,,*40
$GNGSA,A,1,,,,,,,,,,,,,99.99,99.99,99.99,1*33
$GNGSA,A,1,,,,,,,,,,,,,99.99,99.99,99.99,2*30
$GNGSA,A,1,,,,,,,,,,,,,99.99,99.99,99.99,4*36
$GNGSA,A,1,,,,,,,,,,,,,99.99,99.99,99.99,3*31
$GNGSA,A,1,,,,,,,,,,,,,99.99,99.99,99.99,5*37
$GPGSV,4,1,13,02,07,310,,08,38,280,07,10,73,012,11,18,16,127,,1*66
$GPGSV,4,2,13,21,23,309,,23,43,065,,24,20,058,,27,41,232,,1*67
$GPGSV,4,3,13,28,01,165,,32,63,184,13,44,39,173,,48,39,185,,1*66
$GPGSV,4,4,13,51,37,160,,1*51
$GPGSV,4,1,13,02,07,310,,08,38,280,,10,73,012,,18,16,127,,8*68
$GPGSV,4,2,13,21,23,309,,23,43,065,,24,20,058,,27,41,232,,8*6E
$GPGSV,4,3,13,28,01,165,,32,63,184,,44,39,173,,48,39,185,,8*6D
$GPGSV,4,4,13,51,37,160,,8*58
$GLGSV,2,1,07,68,40,036,,69,78,283,,70,17,232,,77,05,025,,1*7A
$GLGSV,2,2,07,83,30,149,,84,80,313,,85,22,326,,1*44
$GBGSV,4,1,14,07,01,332,,11,23,316,,12,68,259,,19,16,055,,1*7B
$GBGSV,4,2,14,21,51,245,13,22,70,042,,34,44,300,,35,20,161,,1*74
$GBGSV,4,3,14,36,02,097,,40,11,330,,42,03,239,,43,03,322,,1*73
$GBGSV,4,4,14,44,59,199,13,46,03,052,,1*7A
$GBGSV,4,1,14,07,01,332,,11,23,316,,12,68,259,,19,16,055,,5*7F
$GBGSV,4,2,14,21,51,245,,22,70,042,,34,44,300,,35,20,161,,5*72
$GBGSV,4,3,14,36,02,097,,40,11,330,,42,03,239,,43,03,322,,5*77
$GBGSV,4,4,14,44,59,199,,46,03,052,,5*7C
$GAGSV,3,1,09,04,06,211,,07,10,041,,10,31,309,,11,05,308,,7*7C
$GAGSV,3,2,09,12,56,312,,19,60,183,,25,01,315,,26,14,126,,7*7A
$GAGSV,3,3,09,33,63,121,,7*4D
$GAGSV,3,1,09,04,06,211,,07,10,041,,10,31,309,,11,05,308,,1*7A
$GAGSV,3,2,09,12,56,312,,19,60,183,,25,01,315,,26,14,126,,1*7C
$GAGSV,3,3,09,33,63,121,,1*4B
$GNTXT,01,01,01,0,000222,0000,08A0,08A0,-37.124,0*62
$GNTXT,01,01,02,0,01,20600,00,01,17,01,0001,0000,0.000*53
$SNRSTAT,1,1,0,0*5D
$GYOACC,090624,000706.10,-0.018595,-0.009307,0.005033,100,-2.820759,-8.511870,4.028016,100,35,0,100,0*00
$GYOACC,090624,000706.20,-0.011790,-0.003468,-0.005658,100,-2.806115,-8.542130,3.985718,100,35,0,100,0*2E
$GYOACC,090624,000706.30,0.013229,0.000652,0.006511,100,-2.815328,-8.523763,4.000235,100,35,0,100,0*02
$GYOACC,090624,000706.40,0.011858,-0.001570,0.008256,100,-2.816720,-8.533951,3.998261,100,35,0,100,0*21
$GYOACC,090624,000706.50,-0.031444,-0.012263,0.001784,100,-2.825471,-8.525603,3.992651,100,35,0,100,0*0F
$GYOACC,090624,000706.60,0.008036,-0.000512,0.001884,100,-2.808282,-8.543824,3.962761,100,35,0,100,0*24
$GYOACC,090624,000706.70,0.051379,0.009454,0.012677,100,-2.831291,-8.506269,4.026665,100,35,0,100,0*07
$GYOACC,090624,000706.80,0.016931,0.000053,0.008389,100,-2.826548,-8.522058,4.000235,100,35,0,100,0*0E
$GYOACC,090624,000706.90,0.036119,0.004547,0.014121,100,-2.836826,-8.497778,4.040761,100,35,0,100,0*08
$GYOACC,090624,000707.00,-0.006431,-0.003128,-0.000279,100,-2.833370,-8.496118,4.046955,100,35,0,100,0*23
$GNRMC,000707.00,V,4404.12938,N,12118.84590,W,,,090624,,,N,V*37
$GNGGA,000707.00,4404.12938,N,12118.84590,W,0,00,99.99,1108.8,M,,M,,*41
$GNGSA,A,1,,,,,,,,,,,,,99.99,99.99,99.99,1*33
$GNGSA,A,1,,,,,,,,,,,,,99.99,99.99,99.99,2*30
$GNGSA,A,1,,,,,,,,,,,,,99.99,99.99,99.99,4*36
$GNGSA,A,1,,,,,,,,,,,,,99.99,99.99,99.99,3*31
$GNGSA,A,1,,,,,,,,,,,,,99.99,99.99,99.99,5*37
$GPGSV,4,1,13,02,07,310,,08,38,280,,10,73,012,13,18,16,127,,1*63
$GPGSV,4,2,13,21,23,309,,23,43,065,,24,20,058,,27,41,232,,1*67
$GPGSV,4,3,13,28,01,165,,32,63,184,13,44,39,173,,48,39,185,,1*66
$GPGSV,4,4,13,51,37,160,,1*51
$GPGSV,4,1,13,02,07,310,,08,38,280,,10,73,012,,18,16,127,,8*68
$GPGSV,4,2,13,21,23,309,,23,43,065,,24,20,058,,27,41,232,,8*6E
$GPGSV,4,3,13,28,01,165,,32,63,184,,44,39,173,,48,39,185,,8*6D
$GPGSV,4,4,13,51,37,160,,8*58
$GLGSV,2,1,07,68,40,036,,69,78,284,,70,17,232,,77,05,025,,1*7D
$GLGSV,2,2,07,83,30,149,,84,80,313,,85,22,326,,1*44
$GBGSV,4,1,14,07,01,332,,11,23,316,,12,68,259,,19,16,055,,1*7B
$GBGSV,4,2,14,21,51,245,13,22,70,042,,34,44,300,,35,20,161,,1*74
$GBGSV,4,3,14,36,02,097,,40,11,330,,42,03,239,,43,03,322,,1*73
$GBGSV,4,4,14,44,59,199,13,46,03,052,,1*7A
$GBGSV,4,1,14,07,01,332,,11,23,316,,12,68,259,,19,16,055,,5*7F
$GBGSV,4,2,14,21,51,245,,22,70,042,,34,44,300,,35,20,161,,5*72
$GBGSV,4,3,14,36,02,097,,40,11,330,,42,03,239,,43,03,322,,5*77
$GBGSV,4,4,14,44,59,199,,46,03,052,,5*7C
$GAGSV,3,1,09,04,06,211,,07,10,041,,10,31,309,,11,05,308,,7*7C
$GAGSV,3,2,09,12,56,312,,19,60,183,,25,01,315,,26,14,126,,7*7A
$GAGSV,3,3,09,33,63,121,,7*4D
$GAGSV,3,1,09,04,06,211,,07,10,041,,10,31,309,,11,05,308,,1*7A
$GAGSV,3,2,09,12,56,312,,19,60,183,,25,01,315,,26,14,126,,1*7C
$GAGSV,3,3,09,33,63,121,,1*4B
$GNTXT,01,01,01,0,000222,0000,08A0,08A0,-37.124,0*62
$GNTXT,01,01,02,0,01,21600,00,01,17,01,0001,0000,0.000*52
$SNRSTAT,1,1,0,0*5D
$GYOACC,090624,000707.10,-0.058602,-0.021611,0.002617,100,-2.831081,-8.519814,4.010602,100,35,0,100,0*07
$GYOACC,090624,000707.20,-0.083039,-0.021260,-0.017322,100,-2.817955,-8.553243,3.947293,100,35,0,100,0*26
$GYOACC,090624,000707.30,0.000486,-0.002416,-0.005652,100,-2.797152,-8.566623,3.916760,100,35,0,100,0*07
$GYOACC,090624,000707.40,-0.191660,-0.041638,-0.063755,100,-2.750208,-8.627883,3.828751,100,35,0,100,0*2A
$GYOACC,090624,000707.50,-0.109428,-0.026830,-0.023921,100,-2.731718,-8.645925,3.759816,100,35,0,100,0*25
$GYOACC,090624,000707.60,-0.072264,-0.076598,0.003775,100,-2.798947,-8.675590,3.714713,100,35,0,100,0*0A
$GYOACC,090624,000707.70,0.220177,-0.251861,0.304812,100,-2.755818,-8.518827,3.875650,100,35,0,100,0*29
$GYOACC,090624,000707.80,-0.044294,-0.215276,0.194863,100,-2.781068,-8.724639,3.704602,100,35,0,100,0*00
$GYOACC,090624,000707.90,-0.332848,-0.170528,-0.006890,100,-2.905671,-8.559891,3.804247,100,35,0,100,0*2D
$GYOACC,090624,000708.00,-0.097377,-0.151786,0.082984,100,-2.826952,-8.734158,3.554717,100,35,0,100,0*03
$GNRMC,000708.00,V,4404.12938,N,12118.84590,W,,,090624,,,N,V*38
$GNGGA,000708.00,4404.12938,N,12118.84590,W,0,00,99.99,1108.8,M,,M,,*4E
$GNGSA,A,1,,,,,,,,,,,,,99.99,99.99,99.99,1*33
$GNGSA,A,1,,,,,,,,,,,,,99.99,99.99,99.99,2*30
$GNGSA,A,1,,,,,,,,,,,,,99.99,99.99,99.99,4*36
$GNGSA,A,1,,,,,,,,,,,,,99.99,99.99,99.99,3*31
$GNGSA,A,1,,,,,,,,,,,,,99.99,99.99,99.99,5*37
$GPGSV,4,1,13,02,07,310,,08,38,280,,10,73,012,15,18,16,127,,1*65
$GPGSV,4,2,13,21,23,309,,23,43,065,,24,20,058,,27,41,232,,1*67
$GPGSV,4,3,13,28,01,165,,32,63,184,13,44,39,173,,48,39,185,,1*66
$GPGSV,4,4,13,51,37,160,,1*51
$GPGSV,4,1,13,02,07,310,,08,38,280,,10,73,012,,18,16,127,,8*68
$GPGSV,4,2,13,21,23,309,,23,43,065,,24,20,058,,27,41,232,,8*6E
$GPGSV,4,3,13,28,01,165,,32,63,184,,44,39,173,,48,39,185,,8*6D
$GPGSV,4,4,13,51,37,160,,8*58
$GLGSV,2,1,07,68,40,036,,69,78,284,,70,17,232,,77,05,025,,1*7D
$GLGSV,2,2,07,83,30,149,,84,80,313,,85,22,326,,1*44
$GBGSV,4,1,14,07,01,332,,11,23,316,,12,68,259,,19,16,055,,1*7B
$GBGSV,4,2,14,21,51,245,13,22,70,042,,34,44,300,,35,20,161,,1*74
$GBGSV,4,3,14,36,02,097,,40,11,330,,42,03,239,,43,03,322,,1*73
$GBGSV,4,4,14,44,59,199,13,46,03,052,,1*7A
$GBGSV,4,1,14,07,01,332,,11,23,316,,12,68,259,,19,16,055,,5*7F
$GBGSV,4,2,14,21,51,245,,22,70,042,,34,44,300,,35,20,161,,5*72
$GBGSV,4,3,14,36,02,097,,40,11,330,,42,03,239,,43,03,322,,5*77
$GBGSV,4,4,14,44,59,199,,46,03,052,,5*7C
$GAGSV,3,1,09,04,06,211,,07,10,041,,10,31,309,,11,05,308,,7*7C
$GAGSV,3,2,09,12,56,312,,19,60,183,,25,01,315,,26,14,126,,7*7A
$GAGSV,3,3,09,33,63,121,,7*4D
$GAGSV,3,1,09,04,06,211,,07,10,041,,10,31,309,,11,05,308,,1*7A
$GAGSV,3,2,09,12,56,312,,19,60,183,,25,01,315,,26,14,126,,1*7C
$GAGSV,3,3,09,33,63,121,,1*4B
$GNTXT,01,01,01,0,000222,0000,08A0,08A0,-37.124,0*62
$GNTXT,01,01,02,0,02,22600,00,01,17,01,0001,0000,0.000*52
$SNRSTAT,1,1,0,0*5D
$GYOACC,090624,000708.10,0.150602,0.002557,0.064102,100,-2.861734,-8.704268,3.609246,100,35,0,100,0*0C
$GYOACC,090624,000708.20,0.062451,0.014880,0.013589,100,-2.907735,-8.625236,3.718841,100,35,0,100,0*09
$GYOACC,090624,000708.30,0.139989,0.027231,0.041019,100,-2.962039,-8.518835,3.891300,100,35,0,100,0*08
$GYOACC,090624,000708.40,0.002437,-0.002116,0.004541,100,-2.954006,-8.555583,3.841856,100,35,0,100,0*2E
$GYOACC,090624,000708.50,-0.201520,-0.055652,-0.035945,100,-2.986768,-8.461022,3.932647,100,35,0,100,0*25
$GYOACC,090624,000708.60,0.113411,-0.074494,0.117339,100,-2.926988,-8.676488,3.662608,100,35,0,100,0*25
$GYOACC,090624,000708.70,-0.134802,-0.030139,-0.029414,100,-2.947453,-8.611592,3.737601,100,35,0,100,0*26
$GYOACC,090624,000708.80,-0.039261,-0.011451,-0.007735,100,-2.946225,-8.600174,3.709945,100,35,0,100,0*26
$GYOACC,090624,000708.90,-0.124049,-0.028002,-0.030452,100,-2.928424,-8.623440,3.661037,100,35,0,100,0*23
$GYOACC,090624,000709.00,0.176494,-0.036138,0.103357,100,-2.923398,-8.671731,3.637879,100,35,0,100,0*24
$GNRMC,000709.00,V,4404.12938,N,12118.84590,W,,,090624,,,N,V*39
$GNGGA,000709.00,4404.12938,N,12118.84590,W,0,00,99.99,1108.8,M,,M,,*4F
$GNGSA,A,1,,,,,,,,,,,,,99.99,99.99,99.99,1*33
$GNGSA,A,1,,,,,,,,,,,,,99.99,99.99,99.99,2*30
$GNGSA,A,1,,,,,,,,,,,,,99.99,99.99,99.99,4*36
$GNGSA,A,1,,,,,,,,,,,,,99.99,99.99,99.99,3*31
$GNGSA,A,1,,,,,,,,,,,,,99.99,99.99,99.99,5*37
$GPGSV,4,1,13,02,07,310,,08,38,280,,10,73,012,15,18,16,127,,1*65
$GPGSV,4,2,13,21,23,309,,23,43,065,,24,20,058,,27,41,232,,1*67
$GPGSV,4,3,13,28,01,165,,32,63,184,13,44,39,173,,48,39,185,,1*66
$GPGSV,4,4,13,51,37,160,,1*51
$GPGSV,4,1,13,02,07,310,,08,38,280,,10,73,012,,18,16,127,,8*68
$GPGSV,4,2,13,21,23,309,,23,43,065,,24,20,058,,27,41,232,,8*6E
$GPGSV,4,3,13,28,01,165,,32,63,184,,44,39,173,,48,39,185,,8*6D
$GPGSV,4,4,13,51,37,160,,8*58
$GLGSV,2,1,07,68,40,036,,69,78,284,,70,17,232,,77,05,025,,1*7D
$GLGSV,2,2,07,83,30,149,,84,80,313,,85,22,326,,1*44
$GBGSV,4,1,14,07,01,332,,11,23,316,,12,68,259,,19,16,055,,1*7B
$GBGSV,4,2,14,21,51,245,13,22,69,042,,34,44,300,,35,20,161,,1*7C
$GBGSV,4,3,14,36,02,097,,40,11,330,,42,03,239,,43,03,322,,1*73
$GBGSV,4,4,14,44,59,199,13,46,03,052,,1*7A
$GBGSV,4,1,14,07,01,332,,11,23,316,,12,68,259,,19,16,055,,5*7F
$GBGSV,4,2,14,21,51,245,,22,69,042,,34,44,300,,35,20,161,,5*7A
$GBGSV,4,3,14,36,02,097,,40,11,330,,42,03,239,,43,03,322,,5*77
$GBGSV,4,4,14,44,59,199,,46,03,052,,5*7C
$GAGSV,3,1,09,04,06,211,,07,10,041,,10,31,309,,11,05,308,,7*7C
$GAGSV,3,2,09,12,56,312,,19,60,183,,25,01,315,,26,14,126,,7*7A
$GAGSV,3,3,09,33,63,121,,7*4D
$GAGSV,3,1,09,04,06,211,,07,10,041,,10,31,309,,11,05,308,,1*7A
$GAGSV,3,2,09,12,56,312,,19,60,183,,25,01,315,,26,14,126,,1*7C
$GAGSV,3,3,09,33,63,121,,1*4B
$GNTXT,01,01,01,0,000222,0000,08A0,08A0,-37.124,0*62
$GNTXT,01,01,02,0,01,23600,00,01,17,01,0001,0000,0.000*50
$SNRSTAT,1,1,0,0*5D
$GYOACC,090624,000709.10,0.186568,0.041525,0.042764,100,-3.012439,-8.535656,3.794957,100,35,0,100,0*0D
$GYOACC,090624,000709.20,0.421106,0.087185,0.120188,100,-3.129664,-8.319113,4.227280,100,35,0,100,0*09
$GYOACC,090624,000709.30,0.133611,0.021805,0.057358,100,-3.171647,-8.263193,4.286752,100,35,0,100,0*05
$GYOACC,090624,000709.40,0.031026,-0.007922,0.038796,100,-3.234278,-8.118143,4.455582,100,35,0,100,0*2E
$GYOACC,090624,000709.50,-0.110374,-0.109175,0.024921,100,-3.200573,-8.358697,4.141650,100,35,0,100,0*01
$GYOACC,090624,000709.60,-0.189909,-0.107025,0.014754,100,-3.202638,-8.269073,4.262017,100,35,0,100,0*01
$GYOACC,090624,000709.70,-0.058424,-0.082658,0.042192,100,-3.151475,-8.373417,4.062034,100,35,0,100,0*01
$GYOACC,090624,000709.80,-0.105940,-0.044361,0.002583,100,-3.205196,-8.270105,4.226427,100,35,0,100,0*07
$GYOACC,090624,000709.90,-0.455706,-0.204017,-0.037490,100,-3.011791,-8.667108,3.595994,100,35,0,100,0*22
$GYOACC,090624,000710.00,0.621855,0.143145,0.150888,100,-3.200124,-8.308836,4.121858,100,35,0,100,0*0A
$GNRMC,000710.00,A,4404.12757,N,12118.84609,W,1.646,,090624,,,A,V*06
$GNGGA,000710.00,4404.12757,N,12118.84609,W,1,16,2.62,1107.2,M,,M,,*76
$GNGSA,A,3,08,10,32,27,28,,,,,,,,3.88,2.62,2.86,1*0F
$GNGSA,A,3,85,68,69,,,,,,,,,,3.88,2.62,2.86,2*07
$GNGSA,A,3,12,21,34,44,35,,,,,,,,3.88,2.62,2.86,4*0C
$GNGSA,A,3,12,19,33,,,,,,,,,,3.88,2.62,2.86,3*01
$GNGSA,A,3,,,,,,,,,,,,,3.88,2.62,2.86,5*0C
$GPGSV,4,1,13,02,07,310,,08,38,280,17,10,73,012,26,18,16,127,,1*63
$GPGSV,4,2,13,21,23,309,,23,43,065,,24,20,058,,27,41,232,18,1*6E
$GPGSV,4,3,13,28,01,165,19,32,64,184,13,44,39,173,,48,39,185,,1*69
$GPGSV,4,4,13,51,37,160,,1*51
$GPGSV,4,1,13,02,07,310,,08,38,280,,10,73,012,,18,16,127,,8*68
$GPGSV,4,2,13,21,23,309,,23,43,065,,24,20,058,,27,41,232,,8*6E
$GPGSV,4,3,13,28,01,165,,32,64,184,,44,39,173,,48,39,185,,8*6A
$GPGSV,4,4,13,51,37,160,,8*58
$GLGSV,2,1,08,68,40,036,20,69,78,284,18,70,17,232,,77,05,025,,1*79
$GLGSV,2,2,08,83,30,149,,84,80,313,23,85,22,326,20,89,,,34,1*4E
$GBGSV,4,1,14,07,01,332,,11,23,316,23,12,68,259,31,19,16,055,,1*78
$GBGSV,4,2,14,21,51,245,31,22,69,042,27,34,44,300,14,35,20,161,27,1*79
$GBGSV,4,3,14,36,02,097,,40,11,330,,42,03,239,,43,03,322,,1*73
$GBGSV,4,4,14,44,59,199,27,46,03,051,,1*7E
$GBGSV,4,1,14,07,01,332,,11,23,316,,12,68,259,,19,16,055,,5*7F
$GBGSV,4,2,14,21,51,245,,22,69,042,,34,44,300,,35,20,161,,5*7A
$GBGSV,4,3,14,36,02,097,,40,11,330,,42,03,239,,43,03,322,,5*77
$GBGSV,4,4,14,44,59,199,,46,03,051,,5*7F
$GAGSV,3,1,09,04,06,211,25,07,10,041,,10,31,309,,11,05,308,,7*7B
$GAGSV,3,2,09,12,56,312,32,19,60,183,30,25,01,315,,26,14,126,,7*78
$GAGSV,3,3,09,33,63,121,28,7*47
$GAGSV,3,1,09,04,06,211,,07,10,041,,10,31,309,,11,05,308,,1*7A
$GAGSV,3,2,09,12,56,312,,19,60,183,,25,01,315,,26,14,126,,1*7C
$GAGSV,3,3,09,33,63,121,,1*4B
$GNTXT,01,01,01,0,500482,0000,08A0,80A0,-37.034,0*6B
$GNTXT,01,01,02,0,02,24600,00,01,17,01,0001,0000,0.000*54
$SNRSTAT,1,1,0,0*5D
$GYOACC,090624,000710.10,-0.094208,-0.023009,-0.023402,100,-3.148423,-8.423592,4.027253,100,35,0,100,0*2F
$GYOACC,090624,000710.20,0.442737,0.107652,0.100401,100,-3.248145,-8.252288,4.246803,100,35,0,100,0*0B
$GYOACC,090624,000710.30,0.076193,-0.027336,0.076080,100,-3.342033,-8.077707,4.502570,100,35,0,100,0*27
$GYOACC,090624,000710.40,-0.292640,-0.146360,0.006145,100,-3.310432,-8.175315,4.357276,100,35,0,100,0*07
$GYOACC,090624,000710.50,-0.027956,-0.014453,0.007563,100,-3.304738,-8.191925,4.326419,100,35,0,100,0*04
$GYOACC,090624,000710.60,0.113298,0.015779,0.033070,100,-3.316586,-8.193271,4.320584,100,35,0,100,0*0D
$GYOACC,090624,000710.70,0.032810,0.001372,0.014022,100,-3.328749,-8.174198,4.376325,100,35,0,100,0*03
$GYOACC,090624,000710.80,0.038343,0.007537,0.008462,100,-3.338577,-8.158759,4.369099,100,35,0,100,0*06
$GYOACC,090624,000710.90,-0.089088,-0.029973,-0.005751,100,-3.356935,-8.024777,4.516534,100,35,0,100,0*22
$GYOACC,090624,000711.00,-0.310317,-0.188544,0.025500,100,-3.238810,-8.410129,4.014956,100,35,0,100,0*09
$GNRMC,000711.00,A,4404.12868,N,12118.84694,W,1.175,,090624,,,A,V*07
$GNGGA,000711.00,4404.12868,N,12118.84694,W,1,26,0.74,1108.0,M,,M,,*7B
$GNGSA,A,3,08,10,32,23,24,27,28,21,18,,,,1.16,0.74,0.89,1*0F
$GNGSA,A,3,85,68,69,84,83,,,,,,,,1.16,0.74,0.89,2*0D
$GNGSA,A,3,12,21,34,44,11,35,36,22,,,,,1.16,0.74,0.89,4*04
$GNGSA,A,3,12,19,04,33,,,,,,,,,1.16,0.74,0.89,3*08
$GNGSA,A,3,,,,,,,,,,,,,1.16,0.74,0.89,5*01
$GPGSV,4,1,13,02,07,310,,08,38,280,38,10,73,012,34,18,16,127,19,1*65
$GPGSV,4,2,13,21,23,309,16,23,43,065,17,24,20,058,19,27,41,232,21,1*6D
$GPGSV,4,3,13,28,01,165,19,32,64,184,40,44,39,173,,48,39,185,,1*6F
$GPGSV,4,4,13,51,37,160,,1*51
$GPGSV,4,1,13,02,07,310,,08,38,280,31,10,73,012,,18,16,127,,8*6A
$GPGSV,4,2,13,21,23,309,,23,43,065,,24,20,058,,27,41,232,21,8*6D
$GPGSV,4,3,13,28,01,165,,32,64,184,,44,39,173,,48,39,185,,8*6A
$GPGSV,4,4,13,51,37,160,,8*58
$GLGSV,2,1,08,68,40,036,20,69,78,284,22,70,17,232,,77,05,025,,1*70
$GLGSV,2,2,08,83,30,149,18,84,80,313,16,85,22,326,20,89,,,30,1*45
$GBGSV,4,1,14,07,01,332,,11,23,316,16,12,68,259,18,19,16,055,,1*75
$GBGSV,4,2,14,21,51,245,36,22,69,042,17,34,44,300,20,35,20,161,17,1*79
$GBGSV,4,3,14,36,02,097,18,40,11,330,,42,03,239,,43,03,322,,1*7A
$GBGSV,4,4,14,44,59,199,32,46,03,051,,1*7A
$GBGSV,4,1,14,07,01,332,,11,23,316,,12,68,259,,19,16,055,,5*7F
$GBGSV,4,2,14,21,51,245,,22,69,042,,34,44,300,,35,20,161,,5*7A
$GBGSV,4,3,14,36,02,097,,40,11,330,,42,03,239,,43,03,322,,5*77
$GBGSV,4,4,14,44,59,199,,46,03,051,,5*7F
$GAGSV,3,1,09,04,06,211,15,07,10,041,,10,31,309,,11,05,308,,7*78
$GAGSV,3,2,09,12,56,312,10,19,60,183,13,25,01,315,,26,14,126,,7*79
$GAGSV,3,3,09,33,63,121,15,7*49
$GAGSV,3,1,09,04,06,211,,07,10,041,,10,31,309,,11,05,308,,1*7A
$GAGSV,3,2,09,12,56,312,,19,60,183,,25,01,315,,26,14,126,,1*7C
$GAGSV,3,3,09,33,63,121,,1*4B
$GNTXT,01,01,01,0,500482,0000,80A0,80A0,-37.291,0*66
$GNTXT,01,01,02,0,02,25600,00,01,17,01,0001,0000,0.000*55
$SNRSTAT,1,1,0,0*5D
$GYOACC,090624,000711.10,0.148378,0.030833,0.039222,100,-3.309226,-8.211986,4.277141,100,35,0,100,0*04
$GYOACC,090624,000711.20,-0.032536,-0.011477,-0.002243,100,-3.291140,-8.266200,4.208341,100,35,0,100,0*26
$GYOACC,090624,000711.30,-0.036225,-0.014080,0.003356,100,-3.295987,-8.248563,4.207039,100,35,0,100,0*0C
$GYOACC,090624,000711.40,0.219025,0.046406,0.046878,100,-3.324152,-8.221221,4.274356,100,35,0,100,0*06
$GYOACC,090624,000711.50,-0.128730,-0.033215,-0.019287,100,-3.351727,-8.148886,4.354558,100,35,0,100,0*28
$GYOACC,090624,000711.60,-0.178231,-0.048449,-0.036937,100,-3.264571,-8.314984,4.143804,100,35,0,100,0*2A
$GYOACC,090624,000711.70,-0.002522,-0.004114,0.004308,100,-3.242715,-8.354658,4.045474,100,35,0,100,0*0F
$GYOACC,090624,000711.80,0.058017,0.009148,0.015846,100,-3.276913,-8.268444,4.178272,100,35,0,100,0*08
$GYOACC,090624,000711.90,-0.138324,-0.083695,0.000173,100,-3.238710,-8.371246,4.039231,100,35,0,100,0*0A
$GYOACC,090624,000712.00,0.078989,0.001778,0.037085,100,-3.268296,-8.299995,4.120467,100,35,0,100,0*0C
$GNRMC,000712.00,A,4404.12824,N,12118.84723,W,0.667,,090624,,,A,V*04
$GNGGA,000712.00,4404.12824,N,12118.84723,W,1,27,0.67,1108.6,M,,M,,*78
$GNGSA,A,3,08,27,10,32,23,24,28,21,18,,,,1.05,0.67,0.81,1*07
$GNGSA,A,3,85,68,69,84,83,,,,,,,,1.05,0.67,0.81,2*05
$GNGSA,A,3,12,21,34,44,11,35,36,19,22,,,,1.05,0.67,0.81,4*04
$GNGSA,A,3,12,19,04,33,,,,,,,,,1.05,0.67,0.81,3*00
$GNGSA,A,3,,,,,,,,,,,,,1.05,0.67,0.81,5*09
$GPGSV,4,1,13,02,07,310,,08,38,280,41,10,73,012,36,18,16,127,25,1*66
$GPGSV,4,2,13,21,23,309,29,23,43,065,24,24,20,058,17,27,41,232,36,1*69
$GPGSV,4,3,13,28,01,165,32,32,64,184,41,44,39,173,,48,39,185,,1*67
$GPGSV,4,4,13,51,37,160,,1*51
$GPGSV,4,1,13,02,07,310,,08,38,280,35,10,73,012,,18,16,127,,8*6E
$GPGSV,4,2,13,21,23,309,,23,43,065,,24,20,058,,27,41,232,13,8*6C
$GPGSV,4,3,13,28,01,165,,32,64,184,,44,39,173,,48,39,185,,8*6A
$GPGSV,4,4,13,51,37,160,,8*58
$GLGSV,2,1,08,68,40,036,36,69,78,284,35,70,17,232,,77,05,025,,1*71
$GLGSV,2,2,08,83,30,149,17,84,80,312,25,85,22,326,39,89,,,41,1*45
$GBGSV,4,1,14,07,01,332,,11,23,316,25,12,68,259,29,19,16,055,19,1*7F
$GBGSV,4,2,14,21,51,245,40,22,69,042,28,34,44,300,36,35,20,161,26,1*71
$GBGSV,4,3,14,36,02,097,18,40,11,330,,42,03,239,,43,03,322,,1*7A
$GBGSV,4,4,14,44,59,199,35,46,03,051,,1*7D
$GBGSV,4,1,14,07,01,332,,11,23,316,,12,68,259,,19,16,055,,5*7F
$GBGSV,4,2,14,21,51,245,,22,69,042,,34,44,300,,35,20,161,,5*7A
$GBGSV,4,3,14,36,02,097,,40,11,330,,42,03,239,,43,03,322,,5*77
$GBGSV,4,4,14,44,59,199,,46,03,051,,5*7F
$GAGSV,3,1,09,04,06,211,29,07,10,041,,10,31,309,,11,05,308,,7*77
$GAGSV,3,2,09,12,56,312,37,19,60,183,30,25,01,315,,26,14,126,,7*7D
$GAGSV,3,3,09,33,63,121,20,7*4F
$GAGSV,3,1,09,04,06,211,,07,10,041,,10,31,309,,11,05,308,,1*7A
$GAGSV,3,2,09,12,56,312,44,19,60,183,,25,01,315,,26,14,126,,1*7C
$GAGSV,3,3,09,33,63,121,,1*4B
$GNTXT,01,01,01,0,500482,0000,80A0,80A0,-37.282,0*64
$GNTXT,01,01,02,0,01,26600,00,01,17,01,0001,0000,0.000*55
$SNRSTAT,1,1,0,0*5D
$GYOACC,090624,000712.10,-0.016084,-0.011917,0.007157,100,-3.265603,-8.319786,4.109247,100,35,0,100,0*05
