$GPZDA,204220.00,13,06,2005,00,00*63
$GPGGA,204220.00,5203.7575568,N,0508.3122565,E,1,08,,8.23,M,47.120,M,,*43
$GPRMC,204220.00,A,5203.7575568,N,0508.3122565,E,0.0000,0.000,130605,1.5,E*5D
$GPGSA,A,3,,,,,,,,,,,,,,,*1C
{"class":"TPV","mode":3,"time":"2005-06-13T20:42:20.000Z","leapseconds":13,"ept":0.005,"lat":52.062625946,"lon":5.138537608,"altHAE":55.3500,"altMSL":8.2300,"alt":8.2300,"epv":5.415,"track":0.0000,"magtrack":1.5480,"magvar":1.5,"speed":0.000,"climb":-0.010,"eps":1.37,"geoidSep":47.120,"eph":5.145,"datum":"WGS84"}
$PRWIZCH,01,2,05,7,04,7,14,7,02,0,07,7,30,7,18,6,24,7,09,7,00,0,22,7*4C
{"class":"SKY","time":"2005-06-13T20:42:20.000Z","nSat":0,"uSat":0}
$GPZDA,204221.00,13,06,2005,00,00*62
$GPGGA,204221.00,5203.7575568,N,0508.3122565,E,1,08,,8.23,M,47.120,M,,*42
$GPRMC,204221.00,A,5203.7575568,N,0508.3122565,E,0.0000,0.000,130605,1.5,E*5C
$GPGSA,A,3,5,4,14,7,30,24,9,22,,,,,,,*13
{"class":"TPV","mode":3,"time":"2005-06-13T20:42:21.000Z","leapseconds":13,"ept":0.005,"lat":52.062625946,"lon":5.138537608,"altHAE":55.3500,"altMSL":8.2300,"alt":8.2300,"epv":5.415,"track":0.0000,"magtrack":1.5480,"magvar":1.5,"speed":0.000,"climb":0.000,"eps":1.37,"epc":10.83,"geoidSep":47.120,"eph":5.145,"datum":"WGS84"}
$PRWIZCH,01,2,05,7,04,7,14,7,02,0,07,7,30,7,18,6,24,7,09,7,00,0,22,7*4C
{"class":"SKY","time":"2005-06-13T20:42:21.000Z","nSat":0,"uSat":0}
$GPZDA,204222.00,13,06,2005,00,00*61
$GPGGA,204222.00,5203.7575568,N,0508.3122565,E,1,08,,8.20,M,47.120,M,,*42
$GPRMC,204222.00,A,5203.7575568,N,0508.3122565,E,0.0000,0.000,130605,1.5,E*5F
$GPGSA,A,3,5,4,14,7,30,24,9,22,,,,,,,*13
{"class":"TPV","mode":3,"time":"2005-06-13T20:42:22.000Z","leapseconds":13,"ept":0.005,"lat":52.062625946,"lon":5.138537608,"altHAE":55.3200,"altMSL":8.2000,"alt":8.2000,"epv":5.415,"track":0.0000,"magtrack":1.5480,"magvar":1.5,"speed":0.000,"climb":-0.020,"eps":1.37,"epc":10.83,"geoidSep":47.120,"eph":5.145,"datum":"WGS84"}
$PRWIZCH,01,2,05,7,04,7,14,7,02,0,07,7,30,7,18,6,24,7,09,7,00,0,22,7*4C
{"class":"SKY","time":"2005-06-13T20:42:22.000Z","nSat":0,"uSat":0}
$GPZDA,204223.00,13,06,2005,00,00*60
$GPGGA,204223.00,5203.7575568,N,0508.3122565,E,1,08,,8.28,M,47.120,M,,*4B
$GPRMC,204223.00,A,5203.7575568,N,0508.3122565,E,0.0000,0.000,130605,1.5,E*5E
$GPGSA,A,3,5,4,14,7,30,24,9,22,,,,,,,*13
{"class":"TPV","mode":3,"time":"2005-06-13T20:42:23.000Z","leapseconds":13,"ept":0.005,"lat":52.062625946,"lon":5.138537608,"altHAE":55.4000,"altMSL":8.2800,"alt":8.2800,"epv":5.415,"track":0.0000,"magtrack":1.5480,"magvar":1.5,"speed":0.000,"climb":0.050,"eps":1.37,"epc":10.83,"geoidSep":47.120,"eph":5.145,"datum":"WGS84"}
$PRWIZCH,01,2,05,7,04,7,14,7,02,0,07,7,30,7,18,6,24,7,09,7,00,0,22,7*4C
{"class":"SKY","time":"2005-06-13T20:42:23.000Z","nSat":0,"uSat":0}
$GPZDA,204224.00,13,06,2005,00,00*67
$GPGGA,204224.00,5203.7575568,N,0508.3122565,E,1,08,,8.27,M,47.120,M,,*43
$GPRMC,204224.00,A,5203.7575568,N,0508.3122565,E,0.0000,0.000,130605,1.5,E*59
$GPGSA,A,3,5,4,14,7,30,24,9,22,,,,,,,*13
{"class":"TPV","mode":3,"time":"2005-06-13T20:42:24.000Z","leapseconds":13,"ept":0.005,"lat":52.062625946,"lon":5.138537608,"altHAE":55.3900,"altMSL":8.2700,"alt":8.2700,"epv":5.415,"track":0.0000,"magtrack":1.5480,"magvar":1.5,"speed":0.000,"climb":0.010,"eps":1.37,"epc":10.83,"geoidSep":47.120,"eph":5.145,"datum":"WGS84"}
$PRWIZCH,01,2,05,7,04,7,14,7,02,0,07,7,30,7,18,6,24,7,09,7,00,0,22,7*4C
{"class":"SKY","time":"2005-06-13T20:42:24.000Z","nSat":0,"uSat":0}
$GPZDA,204225.00,13,06,2005,00,00*66
$GPGGA,204225.00,5203.7575568,N,0508.3122565,E,1,08,,8.26,M,47.120,M,,*43
$GPRMC,204225.00,A,5203.7575568,N,0508.3122565,E,0.0000,0.000,130605,1.5,E*58
$GPGSA,A,3,5,4,14,7,30,24,9,22,,,,,,,*13
{"class":"TPV","mode":3,"time":"2005-06-13T20:42:25.000Z","leapseconds":13,"ept":0.005,"lat":52.062625946,"lon":5.138537608,"altHAE":55.3800,"altMSL":8.2600,"alt":8.2600,"epv":5.415,"track":0.0000,"magtrack":1.5480,"magvar":1.5,"speed":0.000,"climb":0.000,"eps":1.37,"epc":10.83,"geoidSep":47.120,"eph":5.145,"datum":"WGS84"}
$PRWIZCH,01,2,05,7,04,7,14,7,02,0,07,7,30,7,18,6,24,7,09,7,00,0,22,7*4C
{"class":"SKY","time":"2005-06-13T20:42:25.000Z","nSat":0,"uSat":0}
$GPZDA,204226.00,13,06,2005,00,00*65
$GPGGA,204226.00,5203.7575568,N,0508.3122565,E,1,08,,8.29,M,47.120,M,,*4F
$GPRMC,204226.00,A,5203.7575568,N,0508.3122565,E,0.0000,0.000,130605,1.5,E*5B
$GPGSA,A,3,5,4,14,7,30,24,9,22,,,,,,,*13
{"class":"TPV","mode":3,"time":"2005-06-13T20:42:26.000Z","leapseconds":13,"ept":0.005,"lat":52.062625946,"lon":5.138537608,"altHAE":55.4100,"altMSL":8.2900,"alt":8.2900,"epv":5.415,"track":0.0000,"magtrack":1.5480,"magvar":1.5,"speed":0.000,"climb":0.030,"eps":1.37,"epc":10.83,"geoidSep":47.120,"eph":5.145,"datum":"WGS84"}
$PRWIZCH,01,2,05,7,04,7,14,7,02,0,07,7,30,7,18,6,24,7,09,7,00,0,22,7*4C
{"class":"SKY","time":"2005-06-13T20:42:26.000Z","nSat":0,"uSat":0}
$GPZDA,204227.00,13,06,2005,00,00*64
$GPGGA,204227.00,5203.7575568,N,0508.3122565,E,1,08,,8.28,M,47.120,M,,*4F
$GPRMC,204227.00,A,5203.7575568,N,0508.3122565,E,0.0000,0.000,130605,1.5,E*5A
$GPGSA,A,3,5,4,14,7,30,24,9,22,,,,,,,*13
{"class":"TPV","mode":3,"time":"2005-06-13T20:42:27.000Z","leapseconds":13,"ept":0.005,"lat":52.062625946,"lon":5.138537608,"altHAE":55.4000,"altMSL":8.2800,"alt":8.2800,"epv":5.415,"track":0.0000,"magtrack":1.5480,"magvar":1.5,"speed":0.000,"climb":0.000,"eps":1.37,"epc":10.83,"geoidSep":47.120,"eph":5.145,"datum":"WGS84"}
$PRWIZCH,01,2,05,7,04,7,14,7,02,0,07,7,30,7,18,6,24,7,09,7,00,0,22,7*4C
{"class":"SKY","time":"2005-06-13T20:42:27.000Z","nSat":0,"uSat":0}
$GPZDA,204228.00,13,06,2005,00,00*6B
$GPGGA,204228.00,5203.7575568,N,0508.3122565,E,1,08,,8.29,M,47.120,M,,*41
$GPRMC,204228.00,A,5203.7575568,N,0508.3122565,E,0.0000,0.000,130605,1.5,E*55
$GPGSA,A,3,5,4,14,7,30,24,9,22,,,,,,,*13
{"class":"TPV","mode":3,"time":"2005-06-13T20:42:28.000Z","leapseconds":13,"ept":0.005,"lat":52.062625946,"lon":5.138537608,"altHAE":55.4100,"altMSL":8.2900,"alt":8.2900,"epv":5.415,"track":0.0000,"magtrack":1.5480,"magvar":1.5,"speed":0.000,"climb":0.010,"eps":1.37,"epc":10.83,"geoidSep":47.120,"eph":5.145,"datum":"WGS84"}
$PRWIZCH,01,2,05,7,04,7,14,7,02,0,07,7,30,7,18,6,24,7,09,7,00,0,22,7*4C
{"class":"SKY","time":"2005-06-13T20:42:28.000Z","nSat":0,"uSat":0}
$GPZDA,204229.00,13,06,2005,00,00*6A
$GPGGA,204229.00,5203.7575568,N,0508.3122565,E,1,08,,8.28,M,47.120,M,,*41
$GPRMC,204229.00,A,5203.7575568,N,0508.3122565,E,0.0000,0.000,130605,1.5,E*54
$GPGSA,A,3,5,4,14,7,30,24,9,22,,,,,,,*13
{"class":"TPV","mode":3,"time":"2005-06-13T20:42:29.000Z","leapseconds":13,"ept":0.005,"lat":52.062625946,"lon":5.138537608,"altHAE":55.4000,"altMSL":8.2800,"alt":8.2800,"epv":5.415,"track":0.0000,"magtrack":1.5480,"magvar":1.5,"speed":0.000,"climb":-0.010,"eps":1.37,"epc":10.83,"geoidSep":47.120,"eph":5.145,"datum":"WGS84"}
$PRWIZCH,01,2,05,7,04,7,14,7,02,0,07,7,30,7,18,6,24,7,09,7,00,0,22,7*4C
{"class":"SKY","time":"2005-06-13T20:42:29.000Z","nSat":0,"uSat":0}
$GPZDA,204230.00,13,06,2005,00,00*62
$GPGGA,204230.00,5203.7575568,N,0508.3122565,E,1,08,,8.32,M,47.120,M,,*42
$GPRMC,204230.00,A,5203.7575568,N,0508.3122565,E,0.0000,0.000,130605,1.5,E*5C
$GPGSA,A,3,5,4,14,7,30,24,9,22,,,,,,,*13
{"class":"TPV","mode":3,"time":"2005-06-13T20:42:30.000Z","leapseconds":13,"ept":0.005,"lat":52.062625946,"lon":5.138537608,"altHAE":55.4400,"altMSL":8.3200,"alt":8.3200,"epv":5.415,"track":0.0000,"magtrack":1.5480,"magvar":1.5,"speed":0.000,"climb":0.040,"eps":1.37,"epc":10.83,"geoidSep":47.120,"eph":5.145,"datum":"WGS84"}
$PRWIZCH,01,2,05,7,04,7,14,7,02,0,07,7,30,7,18,6,24,7,09,7,00,0,22,7*4C
{"class":"SKY","time":"2005-06-13T20:42:30.000Z","nSat":0,"uSat":0}
$GPZDA,204231.00,13,06,2005,00,00*63
$GPGGA,204231.00,5203.7575568,N,0508.3122565,E,1,08,,8.33,M,47.120,M,,*42
$GPRMC,204231.00,A,5203.7575568,N,0508.3122565,E,0.0000,0.000,130605,1.5,E*5D
$GPGSA,A,3,5,4,14,7,30,24,9,22,,,,,,,*13
{"class":"TPV","mode":3,"time":"2005-06-13T20:42:31.000Z","leapseconds":13,"ept":0.005,"lat":52.062625946,"lon":5.138537608,"altHAE":55.4500,"altMSL":8.3300,"alt":8.3300,"epv":5.415,"track":0.0000,"magtrack":1.5480,"magvar":1.5,"speed":0.000,"climb":0.030,"eps":1.37,"epc":10.83,"geoidSep":47.120,"eph":5.145,"datum":"WGS84"}
$PRWIZCH,01,2,05,7,04,7,14,7,02,0,07,7,30,7,18,6,24,7,09,7,00,0,22,7*4C
{"class":"SKY","time":"2005-06-13T20:42:31.000Z","nSat":0,"uSat":0}
$GPZDA,204232.00,13,06,2005,00,00*60
$GPGGA,204232.00,5203.7575568,N,0508.3122565,E,1,08,,8.31,M,47.120,M,,*43
$GPRMC,204232.00,A,5203.7575568,N,0508.3122565,E,0.0000,0.000,130605,1.5,E*5E
$GPGSA,A,3,5,4,14,7,30,24,9,22,,,,,,,*13
{"class":"TPV","mode":3,"time":"2005-06-13T20:42:32.000Z","leapseconds":13,"ept":0.005,"lat":52.062625946,"lon":5.138537608,"altHAE":55.4300,"altMSL":8.3100,"alt":8.3100,"epv":5.415,"track":0.0000,"magtrack":1.5480,"magvar":1.5,"speed":0.000,"climb":0.000,"eps":1.37,"epc":10.83,"geoidSep":47.120,"eph":5.145,"datum":"WGS84"}
$PRWIZCH,01,2,05,7,04,7,14,7,02,0,07,7,30,7,18,6,24,7,09,7,00,0,22,7*4C
{"class":"SKY","time":"2005-06-13T20:42:32.000Z","nSat":0,"uSat":0}
$GPZDA,204233.00,13,06,2005,00,00*61
$GPGGA,204233.00,5203.7575568,N,0508.3122565,E,1,08,,8.27,M,47.120,M,,*45
$GPRMC,204233.00,A,5203.7575568,N,0508.3122565,E,0.0000,0.000,130605,1.5,E*5F
$GPGSA,A,3,5,4,14,7,30,24,9,22,,,,,,,*13
{"class":"TPV","mode":3,"time":"2005-06-13T20:42:33.000Z","leapseconds":13,"ept":0.005,"lat":52.062625946,"lon":5.138537608,"altHAE":55.3900,"altMSL":8.2700,"alt":8.2700,"epv":5.415,"track":0.0000,"magtrack":1.5480,"magvar":1.5,"speed":0.000,"climb":-0.020,"eps":1.37,"epc":10.83,"geoidSep":47.120,"eph":5.145,"datum":"WGS84"}
$PRWIZCH,01,2,05,7,04,7,14,7,02,0,07,7,30,7,18,6,24,7,09,7,00,0,22,7*4C
{"class":"SKY","time":"2005-06-13T20:42:33.000Z","nSat":0,"uSat":0}
$GPZDA,204234.00,13,06,2005,00,00*66
$GPGGA,204234.00,5203.7575568,N,0508.3122565,E,1,08,,8.29,M,47.120,M,,*4C
$GPRMC,204234.00,A,5203.7575568,N,0508.3122565,E,0.0000,0.000,130605,1.5,E*58
$GPGSA,A,3,5,4,14,7,30,24,9,22,,,,,,,*13
{"class":"TPV","mode":3,"time":"2005-06-13T20:42:34.000Z","leapseconds":13,"ept":0.005,"lat":52.062625946,"lon":5.138537608,"altHAE":55.4100,"altMSL":8.2900,"alt":8.2900,"epv":5.415,"track":0.0000,"magtrack":1.5480,"magvar":1.5,"speed":0.000,"climb":0.020,"eps":1.37,"epc":10.83,"geoidSep":47.120,"eph":5.145,"datum":"WGS84"}
$PRWIZCH,01,2,05,7,04,7,14,7,02,0,07,7,30,7,18,6,24,7,09,7,00,0,22,7*4C
{"class":"SKY","time":"2005-06-13T20:42:34.000Z","nSat":0,"uSat":0}
$GPZDA,204235.00,13,06,2005,00,00*67
$GPGGA,204235.00,5203.7575568,N,0508.3122565,E,1,08,,8.27,M,47.120,M,,*43
$GPRMC,204235.00,A,5203.7575568,N,0508.3122565,E,0.0000,0.000,130605,1.5,E*59
$GPGSA,A,3,5,4,14,7,30,24,9,22,,,,,,,*13
{"class":"TPV","mode":3,"time":"2005-06-13T20:42:35.000Z","leapseconds":13,"ept":0.005,"lat":52.062625946,"lon":5.138537608,"altHAE":55.3900,"altMSL":8.2700,"alt":8.2700,"epv":5.415,"track":0.0000,"magtrack":1.5480,"magvar":1.5,"speed":0.000,"climb":-0.010,"eps":1.37,"epc":10.83,"geoidSep":47.120,"eph":5.145,"datum":"WGS84"}
$PRWIZCH,01,2,05,7,04,7,14,7,02,0,07,7,30,7,18,6,24,7,09,7,00,0,22,7*4C
{"class":"SKY","time":"2005-06-13T20:42:35.000Z","nSat":0,"uSat":0}
$GPZDA,204236.00,13,06,2005,00,00*64
$GPGGA,204236.00,5203.7575568,N,0508.3122565,E,1,08,,8.26,M,47.120,M,,*41
$GPRMC,204236.00,A,5203.7575568,N,0508.3122565,E,0.0000,0.000,130605,1.5,E*5A
$GPGSA,A,3,5,4,14,7,30,24,9,22,,,,,,,*13
{"class":"TPV","mode":3,"time":"2005-06-13T20:42:36.000Z","leapseconds":13,"ept":0.005,"lat":52.062625946,"lon":5.138537608,"altHAE":55.3800,"altMSL":8.2600,"alt":8.2600,"epv":5.415,"track":0.0000,"magtrack":1.5480,"magvar":1.5,"speed":0.000,"climb":-0.010,"eps":1.37,"epc":10.83,"geoidSep":47.120,"eph":5.145,"datum":"WGS84"}
$PRWIZCH,01,2,05,7,04,7,14,7,02,0,07,7,30,7,18,6,24,7,09,7,00,0,22,7*4C
{"class":"SKY","time":"2005-06-13T20:42:36.000Z","nSat":0,"uSat":0}
$GPZDA,204237.00,13,06,2005,00,00*65
$GPGGA,204237.00,5203.7575568,N,0508.3122565,E,1,08,,8.25,M,47.120,M,,*43
$GPRMC,204237.00,A,5203.7575568,N,0508.3122565,E,0.0000,0.000,130605,1.5,E*5B
$GPGSA,A,3,5,4,14,7,30,24,9,22,,,,,,,*13
{"class":"TPV","mode":3,"time":"2005-06-13T20:42:37.000Z","leapseconds":13,"ept":0.005,"lat":52.062625946,"lon":5.138537608,"altHAE":55.3700,"altMSL":8.2500,"alt":8.2500,"epv":5.415,"track":0.0000,"magtrack":1.5480,"magvar":1.5,"speed":0.000,"climb":0.000,"eps":1.37,"epc":10.83,"geoidSep":47.120,"eph":5.145,"datum":"WGS84"}
$PRWIZCH,01,2,05,7,04,7,14,7,02,0,07,7,30,7,18,6,24,7,09,7,00,0,22,7*4C
{"class":"SKY","time":"2005-06-13T20:42:37.000Z","nSat":0,"uSat":0}
$GPZDA,204238.00,13,06,2005,00,00*6A
$GPGGA,204238.00,5203.7575568,N,0508.3122565,E,1,08,,8.20,M,47.120,M,,*49
$GPRMC,204238.00,A,5203.7575568,N,0508.3122565,E,0.0000,0.000,130605,1.5,E*54
$GPGSA,A,3,5,4,14,7,30,24,9,22,,,,,,,*13
{"class":"TPV","mode":3,"time":"2005-06-13T20:42:38.000Z","leapseconds":13,"ept":0.005,"lat":52.062625946,"lon":5.138537608,"altHAE":55.3200,"altMSL":8.2000,"alt":8.2000,"epv":5.415,"track":0.0000,"magtrack":1.5480,"magvar":1.5,"speed":0.000,"climb":-0.030,"eps":1.37,"epc":10.83,"geoidSep":47.120,"eph":5.145,"datum":"WGS84"}
$PRWIZCH,01,2,05,7,04,7,14,7,02,0,07,7,30,7,18,6,24,7,09,7,00,0,22,7*4C
{"class":"SKY","time":"2005-06-13T20:42:38.000Z","nSat":0,"uSat":0}
$GPZDA,204239.00,13,06,2005,00,00*6B
$GPGGA,204239.00,5203.7575568,N,0508.3122565,E,1,08,,8.18,M,47.120,M,,*43
$GPRMC,204239.00,A,5203.7575568,N,0508.3122565,E,0.0000,0.000,130605,1.5,E*55
$GPGSA,A,3,5,4,14,7,30,24,9,22,,,,,,,*13
{"class":"TPV","mode":3,"time":"2005-06-13T20:42:39.000Z","leapseconds":13,"ept":0.005,"lat":52.062625946,"lon":5.138537608,"altHAE":55.3000,"altMSL":8.1800,"alt":8.1800,"epv":5.415,"track":0.0000,"magtrack":1.5480,"magvar":1.5,"speed":0.000,"climb":-0.030,"eps":1.37,"epc":10.83,"geoidSep":47.120,"eph":5.145,"datum":"WGS84"}
$PRWIZCH,01,2,05,7,04,7,14,7,02,0,07,7,30,7,18,6,24,7,09,7,00,0,22,7*4C
{"class":"SKY","time":"2005-06-13T20:42:39.000Z","nSat":0,"uSat":0}
$GPZDA,204240.00,13,06,2005,00,00*65
$GPGGA,204240.00,5203.7575568,N,0508.3122565,E,1,08,,8.19,M,47.120,M,,*4C
$GPRMC,204240.00,A,5203.7575568,N,0508.3122565,E,0.0000,0.000,130605,1.5,E*5B
$GPGSA,A,3,5,4,14,7,30,24,9,22,,,,,,,*13
{"class":"TPV","mode":3,"time":"2005-06-13T20:42:40.000Z","leapseconds":13,"ept":0.005,"lat":52.062625946,"lon":5.138537608,"altHAE":55.3100,"altMSL":8.1900,"alt":8.1900,"epv":5.415,"track":0.0000,"magtrack":1.5480,"magvar":1.5,"speed":0.000,"climb":-0.010,"eps":1.37,"epc":10.83,"geoidSep":47.120,"eph":5.145,"datum":"WGS84"}
$PRWIZCH,01,2,05,7,04,7,14,7,02,0,07,7,30,7,18,6,24,7,09,7,00,0,22,7*4C
{"class":"SKY","time":"2005-06-13T20:42:40.000Z","nSat":0,"uSat":0}
